time,trans_flag,des_cont_state_fl,des_cont_state_fr,des_cont_state_rl,des_cont_state_rr,cont_state_fl,cont_state_fr,cont_state_rl,cont_state_rr,vel_cmd_x,vel_cmd_y,vel_cmd_yaw,base_vel_x,base_vel_y,base_vel_z,base_vel_roll,base_vel_pitch,base_vel_yaw,gait_id,base,CoT,musculoskeletal,foot_force,MWE,WEXT,stability,FL_stride_t,FR_stride_t,RL_stride_t,RR_stride_t
0.021999999999934516,0.0,1,1,1,1,1,1,1,1,0.0,0.0,0.0,0.00623349220952939,-0.004508747866321505,-0.0009143938347408238,0.010046904906630509,0.005906656850129363,0.003689102362841365,0,0.002886268487738452,0.0,0.012717507102272731,34.37999999999998,3.5111563080292574,6.938098265589302,0.0,0,0,0,0
0.03000000000020009,0.0,1,1,1,1,1,1,1,1,0.0,0.0,0.0,0.001418547685344468,-0.006837705460351426,-0.0003062488747479893,0.001447994329306185,0.001184330763655349,0.005651576667689542,0,0.013936832564117946,0.0,0.06405826332667129,171.68438865429462,0.0011557599232832367,34.68953091103345,0.0,0,0,0,0
0.03999999999996362,0.0,1,1,1,1,1,1,1,1,0.0,0.0,0.0,0.0054382320193627435,-0.009069529184711732,0.030236569437959195,0.01837543043868399,0.019452946035914097,0.005207891057069285,0,0.015016709465783203,0.0,0.11191414117695733,171.71630972227481,0.038035139743557184,34.703566029736244,0.0,0,0,0,0
0.0500000000001819,0.0,1,1,1,1,1,1,1,1,0.0,0.0,0.0,0.019350522511302096,0.003812639426380264,0.05986718847715922,0.13113885663702415,0.08930247078278897,0.0148145688631123,0,0.03307588133382511,0.0,0.1342265285387362,184.7028827945523,0.09935292273026405,34.797492909127776,0.0,0,0,0,0
0.05999999999994543,0.0,1,1,1,1,1,1,1,1,0.0,0.0,0.0,-0.0002359260907841718,-0.004705261010184495,0.05256430398557368,0.07214825807169685,0.06681656459290311,0.02366901545870506,0,0.029369316710166515,0.0,0.11904129599788973,192.549380042809,0.04088610601168418,34.85851778620283,0.0,0,0,0,0
0.07000000000016371,0.0,1,1,1,1,1,1,1,1,0.0,0.0,0.0,-0.007510154784125168,-0.009443505785966337,0.049579390484651535,-0.01494129971488861,0.09850406315995952,0.0166200150857911,0,0.035111066306211226,0.0,0.11989827536259592,178.17316080702685,0.0473725292152657,34.900454354597755,0.0,0,0,0,0
0.07999999999992724,0.0,1,1,1,1,1,1,1,1,0.0,0.0,0.0,-0.005943010894019323,-0.008224631391804472,0.04684078334139738,0.012684995271466507,0.09801069857595973,0.026440857393542162,0,0.036581395676526005,0.0,0.13040844789235942,171.14302129207988,0.070127695618932,34.96478256498674,0.0,0,0,0,0
0.09000000000014552,0.0,1,1,1,1,1,1,1,1,0.0,0.0,0.0,-0.0001742059597822408,-0.009537486123333036,0.04820033158542233,-0.03559557098791345,0.061619024395181264,0.027892539364874177,0,0.03930802006909121,0.0,0.1264473423349842,169.38782293871995,0.0659990430093311,35.03439039304588,0.0,0,0,0,0
0.09999999999990905,0.0,1,1,1,1,1,1,1,1,0.0,0.0,0.0,0.0018353805121176406,-0.008693094786347163,0.042371514024600945,-0.03342179369337091,0.031095740678221247,0.015237588162660673,0,0.03243449488645758,0.0,0.1251086272674033,166.86000681068833,0.06225402581628628,35.096334285247615,0.0,0,0,0,0
0.11000000000012733,0.0,1,1,1,1,1,1,1,1,0.0,0.0,0.0,0.0013441693296638664,-0.008992267496593574,0.03275087738879598,-0.04575293952275067,0.02835110588889414,0.005319696550156969,0,0.01946748387685786,0.0,0.12606797617757537,164.75340747397257,0.0416453601865365,35.140199973834754,0.0,0,0,0,0
0.11999999999989086,0.0,1,1,1,1,1,1,1,1,0.0,0.0,0.0,-0.0010069209809847129,-0.008647179258026695,0.02730432143015277,-0.06126246685318722,0.010147556515491893,0.004553277498777789,0,0.012816472359764236,0.0,0.12559250890764256,163.41630024236707,0.03488979765314986,35.17678507457951,0.0,0,0,0,0
0.13000000000010914,0.0,1,1,1,1,1,1,1,1,0.0,0.0,0.0,-0.004399144435586481,-0.00912576781483142,0.020464433750725177,-0.07616568185418938,0.028225107974309844,0.009427334760525421,0,0.019061733579322296,0.0,0.12417412935922571,164.3824710468035,0.025781380104914625,35.20720990718164,0.0,0,0,0,0
0.13999999999987267,0.0,1,1,1,1,1,1,1,1,0.0,0.0,0.0,-0.0059196826420043576,-0.008915575089288558,0.01856253463398849,-0.08364780069718573,0.04714256987639487,0.01688316230257301,0,0.02833335007768384,0.0,0.12552098589928307,165.4436850327865,0.02325746706397743,35.23241383887556,0.0,0,0,0,0
0.15000000000009095,0.0,1,1,1,1,1,1,1,1,0.0,0.0,0.0,-0.008724552972147971,-0.009314637670206117,0.01656433859127321,-0.09183141514550786,0.06495867291422379,0.014713346506877754,0,0.03405608211616976,0.0,0.12734256720630227,166.60003657874637,0.01772264781491901,35.254464247254404,0.0,0,0,0,0
0.16000000000030923,0.0,1,1,1,1,1,1,1,1,0.0,0.0,0.0,-0.01088503624828762,-0.01009346104384537,0.017363860911288012,-0.06847497136828457,0.0602907853458607,0.015359764368312444,0,0.03405342176535562,0.0,0.1291647349365667,167.5161122388039,0.01806446501027644,35.27099796487313,0.0,0,0,0,0
0.17000000000007276,0.0,1,1,1,1,1,1,1,1,0.0,0.0,0.0,-0.012111700971763652,-0.013578901944141183,0.01947384889784136,-0.050184345827979635,0.04913090644113785,0.011532238372833944,0,0.03683468570477262,0.0,0.1302462632069548,168.2732336521327,0.023192258159072075,35.293451816330915,0.0,0,0,0,0
0.18000000000029104,0.0,1,1,1,1,1,1,1,1,0.0,0.0,0.0,-0.013981424761201022,-0.016324448633553788,0.02339570407570068,-0.0639988273533807,0.04366020553857508,0.00856759455991574,0,0.038788028128149785,0.0,0.12997441629801176,168.67423021649233,0.030987229518950755,35.32224982150629,0.0,0,0,0,0
0.19000000000005457,0.0,1,1,1,1,1,1,1,1,0.0,0.0,0.0,-0.015256798246179303,-0.017153168747906577,0.026587858153906522,-0.06327198291168483,0.04815061842991392,0.005511752603046944,0,0.03615777995211723,0.0,0.1280123566089571,169.321568353731,0.030047769986780697,35.352532450426835,0.0,0,0,0,0
0.20000000000027285,0.0,1,1,1,1,1,1,1,1,0.0,0.0,0.0,-0.01740941966338883,-0.016359535634375765,0.029911552895834175,-0.03983858208109387,0.036228495106486416,0.0012056525213955894,0,0.04044172788684823,0.0,0.12898346549341538,168.54906129014583,0.03627699520255773,35.38655750948145,0.0,0,0,0,0
0.21000000000003638,0.0,1,1,1,1,1,1,1,1,0.0,0.0,0.0,-0.01975995639108116,-0.016080381379728847,0.032150606384527575,-0.0417838494194607,0.035966663667003754,0.0112190168372366,0,0.039541870894074495,0.0,0.12913743382135168,168.4437524943961,0.037250128071536485,35.42496848500848,0.0,0,0,0,0
0.22000000000025466,0.0,1,1,1,1,1,1,1,1,0.0,0.0,0.0,-0.021230892432814667,-0.017498355700974275,0.03166731660052949,-0.061236390876283665,0.0336116817198397,0.014665897476819987,0,0.05346408576970457,0.0,0.12845513760769373,166.68813385822622,0.034531857613716785,35.463880636186865,0.0,0,0,0,0
0.2300000000000182,0.0,1,1,1,1,1,1,1,1,0.0,0.0,0.0,-0.02149930725295874,-0.017521305078988164,0.031060382926736293,-0.10442697195932692,0.02582977290811825,0.0006706087576409392,0,0.04537564713256341,0.0,0.12920110901939097,164.4037704816854,0.03899282089779702,35.49987377651966,0.0,0,0,0,0
0.24000000000023647,0.0,1,1,1,1,1,1,1,1,0.0,0.0,0.0,-0.02221331145236342,-0.015908326945980503,0.029863912833655453,-0.10580806534857023,0.026978115008990937,0.017374829309821663,0,0.04820322438327521,0.0,0.12967467092905116,162.99436189985232,0.03400845264024773,35.53685427535288,0.0,0,0,0,0
0.25,0.0,1,1,1,1,1,1,1,1,0.0,0.0,0.0,-0.024472417328156144,-0.0147749579729031,0.028735338095173087,-0.09478504434142154,0.02856943897236833,0.014682151283060493,0,0.054120769377430836,0.0,0.13040027911980662,162.7256770039974,0.03593689013370801,35.57355866134123,0.0,0,0,0,0
0.2600000000002183,0.0,1,1,1,1,1,1,1,1,0.0,0.0,0.0,-0.02481496786571399,-0.015189402224885486,0.027807016578084248,-0.10709455003310137,0.050049775631954146,0.020821314815175365,0,0.05966628220781187,0.0,0.1322353890042121,162.65694921369928,0.033547172521260035,35.61041033526671,0.0,0,0,0,0
0.2699999999999818,0.0,1,1,1,1,1,1,1,1,0.0,0.0,0.0,-0.027219394737038563,-0.015969736563469367,0.0257012206964445,-0.09894143225944821,0.06255303673469242,0.008945220983622354,0,0.05538161491066834,0.0,0.13324842773952864,161.47403296898793,0.028651088953163154,35.64181385038082,0.0,0,0,0,0
0.2800000000002001,0.0,1,1,1,1,1,1,1,1,0.0,0.0,0.0,-0.02947814951944557,-0.017997405086644026,0.02432378537929518,-0.11382634079364026,0.06507256040224595,0.007628823556809503,0,0.05417869616971368,0.0,0.13220252477002015,159.92507133959967,0.0051440089438956,35.655115668491376,0.0,0,0,0,0
0.2899999999999636,0.0,1,1,1,1,1,1,1,1,0.0,0.0,0.0,-0.03334163575537039,-0.019664184954391293,0.024035643100736852,-0.1107937474974667,0.06474659280464248,-0.00020202826141998563,0,0.05476272377584621,0.0,0.13267337658933515,160.03902985958615,0.00602011018799086,35.663211612602176,0.0,0,0,0,0
0.3000000000001819,0.0,1,1,1,1,1,1,1,1,0.0,0.0,0.0,-0.03484527190936189,-0.021201182188461114,0.023777942210127155,-0.09287827546807409,0.0628061396754556,0.00296648598490472,0,0.05656194899151107,0.0,0.13351399980174328,159.3431859643656,0.00787564092863846,35.67303165348615,0.0,0,0,0,0
0.30999999999994543,0.0,1,1,1,1,1,1,1,1,0.0,0.0,0.0,-0.03713300790919897,-0.022365347487043708,0.024225475331122258,-0.07246641658704672,0.052099586029134816,0.004261144277774372,0,0.06166765381740874,0.0,0.13239454127361314,159.72444869085686,0.009505554278298184,35.6842822567143,0.0,0,0,0,0
0.3200000000001637,0.0,1,1,1,1,1,1,1,1,0.0,0.0,0.0,-0.03882511336696925,-0.02359739026430298,0.025724595145107106,-0.06160174783149909,0.03551841083866976,0.013611727381694475,0,0.06964311228502099,0.0,0.13310904993759293,160.878860403006,0.011038164455504899,35.69821509187978,0.0,0,0,0,0
0.32999999999992724,0.0,1,1,1,1,1,1,1,1,0.0,0.0,0.0,-0.041985280851293896,-0.02470632412705361,0.02744507002254911,-0.0637612170426888,0.03447207909899627,0.02761541778399833,0,0.08764877885363057,0.0,0.13378596613686092,160.38386303799786,0.008866910038848312,35.71677048056485,0.0,0,0,0,0
0.3400000000001455,0.0,1,1,1,1,1,1,1,1,0.0,0.0,0.0,-0.045173662089406645,-0.024879031136902253,0.02727204515709633,-0.08596725002244253,0.03246919115835802,0.06029308917644551,0,0.11446493267317362,0.0,0.1320011894833238,159.177789224343,0.004295419624135967,35.74470836330612,0.0,0,0,0,0
0.34999999999990905,0.0,1,1,1,1,1,1,1,1,0.0,0.0,0.0,-0.04629544358771957,-0.025176524783021476,0.02762606077026772,-0.13057814507564927,0.04123464669059268,0.06917793992859494,0,0.14144562075850603,0.0,0.13148413761001992,158.75597585445362,0.014891554227940675,35.78162599615528,0.0,0,0,0,0
0.36000000000012733,0.0,1,1,1,1,1,1,1,1,0.0,0.0,0.0,-0.046323760376923755,-0.025333057288617202,0.028304366287057937,-0.15503685187334393,0.03191117320256587,0.053867675712178445,0,0.1306369716577493,0.0,0.13115001945023863,157.36050267976398,0.03674671183089877,35.794745814101475,0.0,0,0,0,0
0.36999999999989086,0.0,1,1,1,1,1,1,1,1,0.0,0.0,0.0,-0.04597275877908684,-0.025239115705260582,0.026439252497883446,-0.1325447921517507,0.04318312415088733,0.033889418409469504,0,0.11550874151590454,0.0,0.13204318499373818,155.18536341579824,0.03667018966566585,35.81186672994176,0.0,0,0,0,0
0.38000000000010914,0.0,1,1,1,1,1,1,1,1,0.0,0.0,0.0,-0.04791460900394158,-0.02501800444551177,0.026219080757878478,-0.12305100652272949,0.03826056046648255,0.007164042408326858,0,0.08820182938922543,0.0,0.13290520266205488,154.44275986852352,0.03056894054644206,35.825938815177395,0.0,0,0,0,0
0.38999999999987267,0.0,1,1,1,1,1,1,1,1,0.0,0.0,0.0,-0.050085091848376215,-0.02322016419411331,0.02570057578067262,-0.10071426475765191,0.04963113139624602,0.009237852276430312,0,0.08092194916609516,0.0,0.13206397938841974,156.20161639549542,0.02703027291379816,35.852702118090576,0.0,0,0,0,0
0.40000000000009095,0.0,1,1,1,1,1,1,1,1,0.0,0.0,0.0,-0.0518723582764995,-0.022277363856512394,0.027323261765220593,-0.06750154730048083,0.06993084410667601,0.028916820825459676,0,0.09046427529775582,0.0,0.13495982728112432,156.6282835575393,0.021141225301166425,35.88210215735883,0.0,0,0,0,0
0.41000000000030923,0.0,1,1,1,1,1,1,1,1,0.0,0.0,0.0,-0.05259304143686238,-0.02274929373751588,0.028266605147550434,-0.07726943043911613,0.08604304067530383,0.04965740319093519,0,0.119435960404259,0.0,0.1361230830378425,155.77788743311402,0.020934676142813073,35.92271760769204,0.0,0,0,0,0
0.42000000000007276,0.0,1,1,1,1,1,1,1,1,0.0,0.0,0.0,-0.05406603755838438,-0.024320264178312734,0.028892030517597856,-0.07953254634526635,0.07880473386680942,0.05986777045536547,0,0.1304903385428029,0.0,0.13483480042908877,154.54560640546453,0.026320034132618138,35.962758264908516,0.0,0,0,0,0
0.43000000000029104,0.0,1,1,1,1,1,1,1,1,0.0,0.0,0.0,-0.05291122048865235,-0.02727663916887923,0.028348328160196265,-0.10433936346281175,0.08269525997286709,0.05729690242711652,0,0.14150329226195085,0.0,0.13322589019815753,153.49526968767813,0.03564304781040581,36.00481203510003,0.0,0,0,0,0
0.44000000000005457,0.0,1,1,1,1,1,1,1,1,0.0,0.0,0.0,-0.05206155156197457,-0.02980308816322064,0.026369525563323875,-0.08310821793660576,0.07301413854725754,0.05037983980527504,0,0.1329555686764558,0.0,0.13284130341295003,151.46102640345225,0.03824724142768547,36.03022267152081,0.0,0,0,0,0
0.45000000000027285,0.0,1,1,1,1,1,1,1,1,0.0,0.0,0.0,-0.051571401106341064,-0.03067938434108685,0.02683322170480955,-0.03694197540010415,0.05517839986871419,0.03646176493206247,0,0.12158846501073088,0.0,0.1329274199125517,151.68496805421958,0.04317456831649024,36.059588944334415,0.0,0,0,0,0
0.4600000000000364,0.0,1,1,1,1,1,1,1,1,0.0,0.0,0.0,-0.05362403459890373,-0.03131349969172575,0.027120497599926928,0.0036917875583786204,0.07413845246741776,0.04535363130380789,0,0.12710443161887458,0.0,0.1323174259348862,152.8985093742769,0.02826357192877236,36.097356576424275,0.0,0,0,0,0
0.47000000000025466,0.0,1,1,1,1,1,1,1,1,0.0,0.0,0.0,-0.0542654894207979,-0.033058405637446414,0.027153736713409322,-0.0008527017013952251,0.07478367597997973,0.054106050054014025,0,0.135331073328817,0.0,0.13117429606311118,152.39889145604445,0.026304958868634994,36.134935895344654,0.0,0,0,0,0
0.4800000000000182,0.0,1,1,1,1,1,1,1,1,0.0,0.0,0.0,-0.055287017094925936,-0.034425640896539704,0.03083855476424404,-0.055014765875956925,0.06192912113455377,0.06363081350094876,0,0.14989650269159455,0.0,0.13152497959858334,152.05986714025684,0.028332144852321516,36.17897328884745,0.0,0,0,0,0
0.49000000000023647,0.0,1,1,1,1,1,1,1,1,0.0,0.0,0.0,-0.05579605483706449,-0.03687223400014041,0.030263844459169673,-0.07998872113677535,0.07392615075145115,0.061085678636286826,0,0.1565220584014559,0.0,0.12897967279474656,151.4969820887048,0.03611981469528128,36.220660864917,0.0,0,0,0,0
0.5,0.0,1,1,1,1,1,1,1,1,0.0,0.0,0.0,-0.05545308246766658,-0.03736505138330146,0.030139345010517734,-0.14749603715828574,0.08380326433863666,0.03308154320769428,0,0.13523262901262767,0.0,0.12715920542249304,149.63310734594725,0.0561798762514664,36.24366570015678,0.0,0,0,0,0
0.5100000000002183,0.0,1,1,1,1,1,1,1,1,0.0,0.0,0.0,-0.05555027365579064,-0.037208019606927954,0.02838588608208621,-0.11689956688532534,0.08281309193025932,-0.006107610940674482,0,0.10796351426878895,0.0,0.12645817583177651,148.45465945591994,0.04470480617197608,36.27355709926587,0.0,0,0,0,0
0.5199999999999818,0.0,1,1,1,1,1,1,1,1,0.0,0.0,0.0,-0.05732125493513211,-0.03727823406288347,0.027429245369025745,-0.07540614128926947,0.09637869453818075,-0.022289887331898343,0,0.11304337879971182,0.0,0.12913254695805013,147.97902101323592,0.032354250884586086,36.311508374271504,0.0,0,0,0,0
0.5300000000002001,0.0,1,1,1,1,1,1,1,1,0.0,0.0,0.0,-0.060974727076462454,-0.03680422078870717,0.027779298526340628,-0.06615410467028321,0.12405890922717101,-0.019110345389704256,0,0.12013071242643425,0.0,0.1302323051677972,149.0032520472525,0.034851405033511175,36.35073429526936,0.0,0,0,0,0
0.5399999999999636,0.0,1,1,1,1,1,1,1,1,0.0,0.0,0.0,-0.06300511647269515,-0.035321212390401285,0.029268392210913017,-0.0647799149128226,0.13056165336911843,0.018473678518808597,0,0.10800837958010481,0.0,0.1294254711521545,147.5747068393442,0.04086240182795929,36.38941990010752,0.0,0,0,0,0
0.5500000000001819,0.0,1,1,1,1,1,1,1,1,0.0,0.0,0.0,-0.06334216884100129,-0.03431385393676608,0.03146502790563375,-0.06621585210966496,0.10318885734578939,0.05397379957471372,0,0.1400652962463222,0.0,0.13118194862755242,147.0152017997056,0.02618251914403099,36.44270247906739,0.0,0,0,0,0
0.5599999999999454,0.0,1,1,1,1,1,1,1,1,0.0,0.0,0.0,-0.061433205507959665,-0.034423056834512036,0.031669511080277,-0.09138784914628802,0.07472426507572909,0.061401838558839295,0,0.15611010603550735,0.0,0.12916528217825524,145.3742010939171,0.04008977166253924,36.495132469804865,0.0,0,0,0,0
0.5700000000001637,0.0,1,1,1,1,1,1,1,1,0.0,0.0,0.0,-0.05979794344177172,-0.03596235647544457,0.027972920661220247,-0.10244454686441501,0.05599720640195995,0.044951795209724414,0,0.1472829747322625,0.0,0.12687793670842867,144.20311421912004,0.05105617570631964,36.53105591680494,0.0,0,0,0,0
0.5799999999999272,0.0,1,1,1,1,1,1,1,1,0.0,0.0,0.0,-0.05880220508386715,-0.037627341972564406,0.02228111987509173,-0.08880592599670152,0.05504363327913012,0.02867700155252576,0,0.13523891706555646,0.0,0.12787037690952935,141.26959672278534,0.039700315748740944,36.5581971385741,0.0,0,0,0,0
0.5900000000001455,0.0,1,1,1,1,1,1,1,1,0.0,0.0,0.0,-0.06056979229391958,-0.038476737494373185,0.01707481323797922,-0.05776453509328092,0.06522725162404396,0.010771990465540586,0,0.11293893619349282,0.0,0.12927209804625422,140.16540744938916,0.03277495779531874,36.58233152379633,0.0,0,0,0,0
0.599999999999909,0.0,1,1,1,1,1,1,1,1,0.0,0.0,0.0,-0.06405884555335627,-0.038181193215566574,0.013962720621226603,-0.02101186031996069,0.0889564783043347,0.01345243879818878,0,0.11144490791469297,0.0,0.12836265786182519,140.4029168011335,0.02215303473592333,36.61097447286659,0.0,0,0,0,0
0.6100000000001273,0.0,1,1,1,1,1,1,1,1,0.0,0.0,0.0,-0.0663578736642782,-0.037259346361157984,0.014501475730651501,-0.01912353980724821,0.09707696509304262,0.046771344398090116,0,0.13639866595272432,0.0,0.12991604772074747,140.96586620508012,0.008140521186524627,36.64251796111944,0.0,0,0,0,0
0.6199999999998909,0.0,1,1,1,1,1,1,1,1,0.0,0.0,0.0,-0.06691794209599994,-0.0357883200658819,0.01727158567888254,-0.019838727514271837,0.08844711587946952,0.07747547713871385,0,0.1652914753786627,0.0,0.1286805912156665,142.59151441060342,0.010171971060896082,36.685763497007414,0.0,0,0,0,0
0.6300000000001091,0.0,1,1,1,1,1,1,1,1,0.0,0.0,0.0,-0.06523963458290334,-0.03661772976384409,0.016854000946001695,-0.01114421603210642,0.06637551647055212,0.0785685102689146,0,0.19013990009152737,0.0,0.12615257254178863,142.29281080998675,0.03676695276788325,36.737356000675156,0.0,0,0,0,0
0.6399999999998727,0.0,1,1,1,1,1,1,1,1,0.0,0.0,0.0,-0.06316822755521877,-0.03786295110198248,0.016354132483464238,-0.01642248488337429,0.048276844717290206,0.03802987812999255,0,0.15446538696678452,0.0,0.12465713361390773,141.68987372043748,0.056127728647246106,36.7318992373218,0.0,0,0,0,0
0.650000000000091,0.0,1,1,1,1,1,1,1,1,0.0,0.0,0.0,-0.06281594610016233,-0.03840748674762347,0.0172148770912159,-0.004542442181723932,0.04804558287744997,0.003371580345129668,0,0.11576686053270908,0.0,0.12575415242456173,140.32091255418499,0.03739956773825849,36.742583920669844,0.0,0,0,0,0
0.6600000000003092,0.0,1,1,1,1,1,1,1,1,0.0,0.0,0.0,-0.06608569905328268,-0.03960585101375432,0.01616351125450878,-0.013931222125346115,0.08275679269829674,-0.008489049527986497,0,0.11023852276672345,0.0,0.1258753419953173,141.48197276909195,0.024656937749505087,36.77126854512735,0.0,0,0,0,0
0.6700000000000728,0.0,1,1,1,1,1,1,1,1,0.0,0.0,0.0,-0.07069700243892746,-0.040034205184657834,0.0196643723782298,-0.06963403184646157,0.10183904833920555,0.01931802041791142,0,0.11678155559325028,0.0,0.12846156836546876,141.41666950715322,0.02043333312467171,36.80257120952725,0.0,0,0,0,0
0.680000000000291,0.0,1,1,1,1,1,1,1,1,0.0,0.0,0.0,-0.07354166293465193,-0.03995947188155372,0.022529100446965537,-0.12663333530379595,0.09717223322961695,0.08178937066995225,0,0.1707421542596194,0.0,0.12840578120638563,140.8331697664956,0.011776643342215946,36.857802695492026,0.0,0,0,0,0
0.6900000000000546,0.0,1,1,1,1,1,1,1,1,0.0,0.0,0.0,-0.07306628870253912,-0.039972450522542155,0.022139569791440314,-0.13636377707398672,0.0727764676655663,0.09113098674721633,0,0.20413683769437418,0.0,0.12487102715756296,139.94013880535357,0.027559339348491224,36.92297932980762,0.0,0,0,0,0
0.7000000000002728,0.0,1,1,1,1,1,1,1,1,0.0,0.0,0.0,-0.0685641555748503,-0.038799799530085534,0.01980121955400822,-0.050527427059839064,0.01504311225208219,0.06583421364438291,0,0.19053747788325426,0.0,0.12123522339130526,138.48671243192172,0.06446771936514485,36.94626575973298,0.0,0,0,0,0
0.7100000000000364,0.0,1,1,1,1,1,1,1,1,0.0,0.0,0.0,-0.06765229350457906,-0.038750575674084714,0.01584250125761028,0.018657601073098433,-0.000180579544121351,-0.007781733406541884,0,0.1317936789653613,0.0,0.12437997055031454,136.64705102891716,0.05557732782778348,36.93890433192051,0.0,0,0,0,0
0.7200000000002547,0.0,1,1,1,1,1,1,1,1,0.0,0.0,0.0,-0.07129656553536547,-0.03854495084047185,0.012455487942899758,0.040700585587122334,0.03975390431952963,-0.05330696737821556,0,0.1486817058342092,0.0,0.12480392820455852,136.9485584941981,0.005170495835389317,36.97052513890806,0.0,0,0,0,0
0.7300000000000182,0.0,1,1,1,1,1,1,1,1,0.0,0.0,0.0,-0.07837424429637235,-0.03899547317570386,0.010319102878805875,-0.010336250911847117,0.07737336581775636,-0.032317705663876956,0,0.15991371769702628,0.0,0.1262150095882795,137.63195651014857,0.021947341410434446,36.996874367461444,0.0,0,0,0,0
0.7400000000002365,0.0,1,1,1,1,1,1,1,1,0.0,0.0,0.0,-0.08370816960100264,-0.0363553252684776,0.010207634283976603,-0.05222232814425489,0.08893455849386388,0.03480815439809736,0,0.1366322349526405,0.0,0.12924936978622886,135.71605141050304,0.019213855839891172,37.01106236290263,0.0,0,0,0,0
0.75,0.0,1,1,1,1,1,1,1,1,0.0,0.0,0.0,-0.08451298383894955,-0.034872944277412686,0.011445900938632122,-0.072786307794211,0.07930369623361763,0.11395171713521401,0,0.2057214804742103,0.0,0.12995674653556752,135.46602235830943,0.04818662349084023,37.082263200746304,0.0,0,0,0,0
0.7600000000002183,0.0,1,1,1,1,1,1,1,1,0.0,0.0,0.0,-0.07791223865550613,-0.03497842673750027,0.010647814316424557,-0.054957138606584764,0.0362096055877942,0.1294357887289624,0,0.24570091260612398,0.0,0.12442597237530736,137.57606811984397,0.03186665513265066,37.16107545605023,0.0,0,0,0,0
0.7699999999999818,0.0,1,1,1,1,1,1,1,1,0.0,0.0,0.0,-0.06929377542093106,-0.037801945521795326,0.006178757799959378,0.01409986957631232,-0.028017773687643598,0.08248873934405992,0,0.21246821082970985,0.0,0.12005199604337571,135.75780477197682,0.08768921643274748,37.13910918148918,0.0,0,0,0,0
0.7800000000002001,0.0,1,1,1,1,1,1,1,1,0.0,0.0,0.0,-0.06750438698200138,-0.0410975604294112,0.0017191806366816682,0.05356647705697367,-0.009097145958700505,0.013822521383436797,0,0.14748934460114688,0.0,0.12347697784186654,133.9823282308089,0.052437611893760075,37.0943834876767,0.0,0,0,0,0
0.7899999999999636,0.0,1,1,1,1,1,1,1,1,0.0,0.0,0.0,-0.0724451883487645,-0.04488918593216167,-0.000294233358731048,0.02435177754045214,0.040843902507038725,-0.041073696229813605,0,0.1330612953982388,0.0,0.1252607034391971,135.89308855799442,0.012697951029821145,37.101457447971626,0.0,0,0,0,0
0.8000000000001819,0.0,1,1,1,1,1,1,1,1,0.0,0.0,0.0,-0.08133410070388877,-0.046524447956337346,-0.00039046407855521624,-0.021391596192847445,0.10231220300636068,-0.019247722721760972,0,0.15849551281607757,0.0,0.12586673807838958,138.67952701760055,0.015105181775789699,37.126922880575435,0.0,0,0,0,0
0.8099999999999454,0.0,1,1,1,1,1,1,1,1,0.0,0.0,0.0,-0.08556455427585496,-0.046029083573639225,0.005456664235901911,-0.04812199807366099,0.11680075481280627,0.02947229344860608,0,0.1435588337507812,0.0,0.1281654775774312,138.7686186600751,0.010481387248289904,37.139943699899916,0.0,0,0,0,0
0.8200000000001637,0.0,1,1,1,1,1,1,1,1,0.0,0.0,0.0,-0.0832902204547254,-0.04557111068411378,0.011644960040817717,-0.08028875880506471,0.09502002765235759,0.10461617442929919,0,0.20631895890472882,0.0,0.12558727933222547,139.48304261143656,0.033788480559990855,37.19891032291147,0.0,0,0,0,0
0.8299999999999272,0.0,1,1,1,1,1,1,1,1,0.0,0.0,0.0,-0.07779803303306211,-0.0460708444342745,0.01688566437838097,-0.04220492482090219,0.09561804644955842,0.11715247028582638,0,0.24437777213051337,0.0,0.1203914750520707,140.7122845136151,0.031780020929462555,37.27507803171809,0.0,0,0,0,0
0.8400000000001455,0.0,1,1,1,1,1,1,1,1,0.0,0.0,0.0,-0.06977827662716876,-0.046670397667894756,0.019128005941320067,0.019987638825540173,0.027645190164987482,0.065562138295686,0,0.2116965195690535,0.0,0.1195001823111127,140.41856114992063,0.09751908365430688,37.269637913924115,0.0,0,0,0,0
0.849999999999909,0.0,1,1,1,1,1,1,1,1,0.0,0.0,0.0,-0.06814548958130501,-0.04758433323595805,0.017885954440911365,0.09171793837639586,0.017321734449612457,-0.013003992625385045,0,0.13682614762469006,0.0,0.11990146753480327,137.79186344046482,0.05828454777586403,37.24736513023163,0.0,0,0,0,0
0.8600000000001273,0.0,1,1,1,1,1,1,1,1,0.0,0.0,0.0,-0.0713905347250145,-0.04927451103306111,0.014411710189232544,0.05652068285884327,0.05824734505119008,-0.04325663514256567,0,0.1529019173674735,0.0,0.123607817184568,135.7285242071184,0.011417072452154356,37.28133886056745,0.0,0,0,0,0
0.8699999999998909,0.0,1,1,1,1,1,1,1,1,0.0,0.0,0.0,-0.0801220761121725,-0.04977602252314314,0.011311700018514389,-0.03474679924183994,0.0948002883621327,-0.023973593868566304,0,0.16364252749782632,0.0,0.12565145132826114,134.1784135443865,0.022494709754504287,37.312945419906875,0.0,0,0,0,0
0.8800000000001091,0.0,1,1,1,1,1,1,1,1,0.0,0.0,0.0,-0.08442678557947576,-0.04832344849229252,0.009474851935627622,-0.09955304139711334,0.12144102350944982,0.06657043395434978,0,0.16510034808555132,0.0,0.12264083043581739,133.1626122421173,0.025006942023358604,37.34386551624844,0.0,0,0,0,0
0.8899999999998727,0.0,1,1,1,1,1,1,1,1,0.0,0.0,0.0,-0.08404322181004802,-0.04753372494721101,0.009318372662010688,-0.11207615137788704,0.11179714550285462,0.11391270785327415,0,0.22924943814115978,0.0,0.1243793007003818,133.32646629355918,0.027069018034963727,37.41921627812648,0.0,0,0,0,0
0.900000000000091,0.0,1,1,1,1,1,1,1,1,0.0,0.0,0.0,-0.07434606257982342,-0.04691030361933653,0.010466804789094526,-0.06144565316724271,0.08718113407142958,0.1174657294935614,0,0.24783786085854032,0.0,0.12011854512904188,134.78920948124704,0.036058738292991666,37.47389459194044,0.0,0,0,0,0
0.9100000000003092,0.0,1,1,1,1,1,1,1,1,0.0,0.0,0.0,-0.06512509430776234,-0.04967545218243331,0.011883589238223195,-0.02780410240554897,0.005316743932824273,0.05267851673235667,0,0.1968332395940238,0.0,0.11960621819246875,135.0908078573378,0.09710612900234153,37.44078895395607,0.0,0,0,0,0
0.9200000000000728,0.0,1,1,1,1,1,1,1,1,0.0,0.0,0.0,-0.06573459559913168,-0.05250120415859747,0.012424505963125453,-0.05305832852550018,0.012955636017941257,-0.01511104296920095,0,0.13455296378710452,0.0,0.12039122081902638,134.50546402372225,0.03529348183350706,37.4211405535874,0.0,0,0,0,0
0.930000000000291,0.0,1,1,1,1,1,1,1,1,0.0,0.0,0.0,-0.0721595761766867,-0.053878784318255185,0.010245142812932772,-0.09462877081577535,0.057154517945093346,-0.06356041111607937,0,0.16910366804925925,0.0,0.12191066397956984,135.36555477535148,0.010658469062148644,37.45894074833743,0.0,0,0,0,0
0.9400000000000546,0.0,1,1,1,1,1,1,1,1,0.0,0.0,0.0,-0.08017934571836617,-0.05348222239123221,0.009314886636638282,-0.09213296135838576,0.09266547717797094,-0.0446920614302683,0,0.18765186572619902,0.0,0.12658778099412615,134.14055106247037,0.027296412782531768,37.493859707233206,0.0,0,0,0,0
0.9500000000002728,0.0,1,1,1,1,1,1,1,1,0.0,0.0,0.0,-0.0856227189180649,-0.05352921496606885,0.010173456761535665,-0.08853767688373441,0.12688220753123494,0.01760392769224744,0,0.1539554994530074,0.0,0.12687733084670216,134.17916461312677,0.02741978996223389,37.503939006286075,0.0,0,0,0,0
0.9600000000000364,0.0,1,1,1,1,1,1,1,1,0.0,0.0,0.0,-0.0889723103445761,-0.05382462510266346,0.008873010936784699,-0.07560454405294206,0.13130673029256326,0.055789296644550526,0,0.18323148603383216,0.0,0.12376209172457438,133.3109748481154,0.002926866256171237,37.541892479116655,0.0,0,0,0,0
0.9700000000002547,0.0,1,1,1,1,1,1,1,1,0.0,0.0,0.0,-0.08437345643301274,-0.056524469291809695,0.007162345634863123,-0.06355694656406873,0.10886027099949463,0.050699187445902294,0,0.20083633951167065,0.0,0.1202569953703736,132.36118504896143,0.03004062790961287,37.57554324440046,0.0,0,0,0,0
0.9800000000000182,0.0,1,1,1,1,1,1,1,1,0.0,0.0,0.0,-0.07895155042944735,-0.06095318341582711,0.007438796437359941,-0.08286235447162299,0.0687262414454594,0.01526738775560251,0,0.17072216577444935,0.0,0.11869419867201772,132.89400531758946,0.03857322583572895,37.57968780341656,0.0,0,0,0,0
0.9900000000002365,0.0,1,1,1,1,1,1,1,1,0.0,0.0,0.0,-0.07828955504996743,-0.06349851059232553,0.0062247515347675884,-0.09473581139055605,0.04560767034175005,-0.038106783220351874,0,0.15787706018985745,0.0,0.11896735546225139,133.3906857898414,0.012890861070596893,37.594498232018076,0.0,0,0,0,0
1.0,1.0,1,1,1,1,1,1,1,1,0.0,0.0,0.0,-0.08167257010718663,-0.06569507576337083,0.004152583376811021,-0.08184685121075932,0.05358301713792647,-0.06028219494993006,9,0.20276855858704054,0.0,0.11794987005271343,133.0569253702061,0.010546755017043302,37.63344179292727,0.0,0,0,0,0
1.0100000000002183,0.0,1,1,1,1,1,1,1,1,0.3,0.0,0.0,-0.08925822450587215,-0.06644752468948682,0.001333392425670871,-0.03693350922117676,0.074896401697181,-0.05110507319492998,9,0.5054728931336008,1.9659040836139965,0.12064337952582962,132.26715006365907,0.012122480356744639,37.65214330550488,0.0,0,0,0,0
1.0199999999999818,0.0,1,1,1,1,1,1,1,1,0.3,0.0,0.0,-0.07933421842493468,-0.07066544768241019,-0.012794730566796536,-0.0209018449490133,0.0032728841098312624,-0.028020075048947754,9,0.49675869013497154,3.5694374057816147,0.1253414718713559,131.02978954370488,0.01803004947876194,37.658051969199484,0.0,0,0,0,0
1.0300000000002,0.0,1,1,1,1,1,1,1,1,0.3,0.0,0.0,-0.007605143222126536,-0.0688691350430503,-0.032445086604142616,0.26544075695041514,-0.5014519130522183,-0.01095822552746233,9,0.4288540356461771,7.259696686056337,0.13070084001389143,117.12509535220754,0.027299945282866864,37.57663442511351,0.0,0,0,0,0
1.0399999999999636,0.0,1,1,1,1,1,0,1,1,0.3,0.0,0.0,0.03602597395700431,-0.06773060636394068,-0.0779264594191751,0.6823909732205382,-0.5993620205264416,-0.038268178866816195,9,0.36177772837977734,1.8103280073842338,0.08063918683251355,92.44842352552618,0.09114890742962889,37.494601460330045,20.0,0,0,0,0
1.050000000000182,0.0,1,1,1,1,0,0,1,1,0.3,0.0,0.0,0.01354918678822517,-0.06510508412920982,-0.1162652772924291,0.8839840612700218,-0.11261777069971884,0.00658787197334894,9,0.36820828505923825,0.8435800306381698,0.06613633561344077,98.04161586044495,0.12509569136300386,37.37269450767927,50.0,0,0,0,0
1.0599999999999454,0.0,1,1,1,1,1,0,1,1,0.3,0.0,0.0,0.02484107324317959,-0.06824007052796678,-0.1383889667181638,0.5742184823089226,0.41969205016235783,0.015069643683456223,9,0.3569366829991457,0.8933438353280563,0.060431509441107645,111.34879440345517,0.19328010876426982,37.19871321159478,40.0,0.01,0.0,0.0,0.0
1.0700000000001637,0.0,1,1,1,1,1,0,1,1,0.3,0.0,0.0,0.053427027572812515,-0.0630762425179946,-0.15866049040595084,0.3292745459582843,0.6944393031265497,0.07128469459060137,9,0.36782540784336276,1.5490186134201696,0.06325683623708131,114.14545406166572,0.2359168719086838,37.025538880669565,25.0,0,0,0,0
1.0799999999999272,0.0,1,1,1,1,1,1,1,1,0.3,0.0,0.0,0.11477689699822066,-0.07672428864111967,-0.1710267545558082,0.15306163669694667,0.37150118810558935,0.061586921228640706,9,0.3595382162188299,4.078342799569672,0.09372066090009383,118.6652419824567,0.3079104659493095,36.86850268468725,5.0,0.0,0.04,0.0,0.0
1.0900000000001455,0.0,1,1,1,1,1,1,1,1,0.3,0.0,0.0,0.18346722434275306,-0.0814185429819186,-0.14578289163438607,0.15702292127727857,-0.03139277012522518,0.026810178744870163,9,0.2648299556136253,3.266340490108161,0.09036727173803803,124.5154240457263,0.31251570606548235,36.73315373492465,0.0,0,0,0,0
1.099999999999909,0.0,1,1,1,1,1,1,1,1,0.3,0.0,0.0,0.2080383309381978,-0.07615745621155454,-0.11777111293984668,0.33635526614799066,-0.04646906364461843,0.03619850797702008,9,0.2002223217979468,2.8998486203208222,0.10460374007117039,146.77601277153352,0.15846025388959156,36.68958012999629,0.0,0,0,0,0
1.1100000000001273,0.0,1,1,1,1,1,1,1,1,0.3,0.0,0.0,0.22229290641868035,-0.07271207993552144,-0.06250396768185819,0.34415671351510635,0.19188876695020493,0.11338212207445851,9,0.2290691364510456,2.838544291732771,0.11704632712742072,184.00236555152054,0.1937581309937807,36.657863809441466,0.0,0,0,0,0
1.1199999999998909,0.0,1,1,1,1,1,1,1,1,0.3,0.0,0.0,0.2524398741287191,-0.06512770257189213,-0.012972619295451272,0.09827889087727737,0.3415342684088593,0.25883398943952646,9,0.34021273497955706,1.8498095310639602,0.09267429176038142,201.60213911754664,0.48921726514826214,36.89465856745911,0.0,0,0,0,0
1.1300000000001091,0.0,1,1,1,1,1,1,1,1,0.3,0.0,0.0,0.303342709000805,-0.05584779783390714,0.003216525111401934,0.05280307566095326,0.13839343117596736,0.29886984297120456,9,0.3682046640077553,2.2200002793652405,0.0866084701886248,181.39268689457245,0.37515701422135406,37.20664607333206,0.0,0,0,0,0
1.1399999999998727,0.0,1,1,1,1,1,1,1,1,0.3,0.0,0.0,0.33635694879987893,-0.04819962986278138,0.015279274853339637,0.17741304048671006,-0.1466179058163927,0.22790063375302275,9,0.33694445734573664,4.996858875430981,0.1131021270059204,149.0751659299648,0.12272731373261303,37.22137851058761,0.0,0,0,0,0
1.150000000000091,0.0,1,1,1,1,1,1,1,1,0.3,0.0,0.0,0.3433233860161551,-0.034004571886004406,0.07141833799199421,0.2011306167864273,-0.21411413794179335,0.1576801432291583,9,0.2650383188628712,4.918580342674387,0.11321558656292781,167.4921570938311,0.21326397314616075,37.104895414611065,0.0,0,0,0,0
1.1600000000003092,0.0,1,1,1,1,1,1,1,1,0.3,0.0,0.0,0.3550669934959108,-0.016161219902090875,0.12829711895652954,0.18064577161337964,-0.12942077758381793,0.1614067676605513,9,0.23744165030923287,2.657810021302868,0.10776720679516816,203.53044073752943,0.05442882561934448,37.17838117717623,0.0,0,0,0,0
1.1700000000000728,0.0,1,1,1,1,1,1,1,1,0.3,0.0,0.0,0.35766755554293317,-0.006757122058304421,0.1567612813914768,0.06839674786287928,-0.016590958053493803,0.1608204036138169,9,0.22573447076108538,4.206711097879464,0.12006252045795611,178.90857795011624,0.13971580547723395,37.307084346771504,0.0,0,0,0,0
1.180000000000291,0.0,1,1,1,1,1,1,1,1,0.3,0.0,0.0,0.3647576563354957,-0.0038203857578129833,0.19888724291716098,-0.0713165622876194,-0.013578114728458738,0.14186137053184406,9,0.21750666879118835,4.753541881139785,0.12461708565832327,167.9106064376452,0.2010136315674328,37.49979401496672,0.0,0,0,0,0
1.1900000000000546,0.0,1,1,1,1,1,1,1,1,0.3,0.0,0.0,0.36939332618441695,-0.005453284255063574,0.23809570374180683,-0.21911820971127804,0.06426461889583467,0.14006155571468717,9,0.20758597675419085,4.214547578932351,0.11951513189655123,169.6242876185344,0.2539600105841442,37.73181222339331,0.0,0,0,0,0
1.2000000000002728,0.0,1,1,1,1,1,1,1,0,0.3,0.0,0.0,0.3713629030886141,-0.00127849434929906,0.26281950418109734,-0.16374504312454685,0.11674726270541357,0.13394686501045538,9,0.21331190681627193,5.027037535728879,0.11851037975837989,151.53584660725076,0.3295851191243896,38.06474210627162,15.0,0,0,0,0
1.2100000000000364,0.0,1,1,1,1,1,1,1,1,0.3,0.0,0.0,0.36729015775296214,0.006472801968692224,0.295034020160687,-0.1269107626918069,0.05261503526626471,0.087495832461304,9,0.1846665661217034,6.464891614763881,0.11647652733117053,146.8267168783895,0.4559723750692949,38.36798109528881,5.0,0.0,0.0,0.0,0.01
1.2200000000002547,0.0,1,1,1,1,1,1,0,1,0.3,0.0,0.0,0.37026038955596724,0.004384557632582521,0.34361647964139025,-0.25756613642295284,-0.00411222247076377,0.010275805168252815,9,0.11200149549335288,6.016684618962452,0.11621793886205989,156.63794624768076,0.4596763042130786,38.70720664966545,5.0,0,0,0,0
1.2300000000000182,0.0,1,1,1,1,1,1,0,0,0.3,0.0,0.0,0.37647414340121294,0.012911954868295038,0.39000654623061315,-0.37476306777384627,-0.14979702000473302,0.023498665336476734,9,0.0940553862808568,6.003585707759001,0.11131431546895096,153.11480477351898,0.41597260098176503,39.15772852268278,40.0,0,0,0,0
1.2400000000002365,0.0,1,1,1,1,1,1,0,0,0.3,0.0,0.0,0.38264817630075665,0.04821327529391075,0.4105835810159945,0.0728061912127426,-0.3534100146566299,0.04626761103030536,9,0.15652527229932056,7.426132629394727,0.12339364309214787,141.5674785259013,0.42112631931679834,39.678020312077614,50.0,0,0,0,0
1.25,0.0,0,0,0,0,1,1,0,1,0.3,0.0,0.0,0.3545340194050388,0.0603724263934519,0.3897125671891815,0.445719482500755,-0.40597839059714863,0.03790603372527294,9,0.1702973288535042,5.738322272924571,0.1105222830671975,133.92939210984576,0.5807788707770588,40.10506409258238,40.0,0.0,0.0,0.0,0.02
1.2600000000002183,0.0,0,0,0,0,1,1,0,0,0.3,0.0,0.0,0.30691725018048455,0.04087588566675332,0.3465195409423644,0.32351033616953967,0.07729222209216809,0.026303695218758288,9,0.10182706657771763,6.316861465842522,0.10254286658847675,94.19547533520337,0.6385498461886613,40.33425004817627,70.0,0,0,0,0
1.2699999999999818,0.0,0,0,0,0,1,1,0,0,0.3,0.0,0.0,0.28170701307829477,0.021438922624522665,0.2942463907350325,-0.681395335832137,0.3512429158116858,0.008144053191728833,9,0.0641930233200162,4.073431059041179,0.11096248553123327,53.22291984089311,0.4600383912476759,40.569587890123344,50.0,0,0,0,0
1.2800000000002,0.0,0,0,0,0,1,0,0,0,0.3,0.0,0.0,0.34272863077350435,0.009181005422528126,0.287336229410286,-1.3881511377181075,-0.01803426178826878,-0.0011052120538245242,9,0.03768572889557843,5.999316239556965,0.09836912260725497,32.434162183295015,0.10032107998938017,41.0053652965232,30.0,0,0,0,0
1.2899999999999636,0.0,0,0,0,0,1,0,0,1,0.3,0.0,0.0,0.3495169540070937,0.006256290960869743,0.2292725377913331,-1.663385401753488,-0.2081227277201227,0.04851664903583604,9,0.08755813952406269,9.680584280634173,0.11281482428152163,33.93203419964051,0.24487618645311193,41.45050225926168,50.0,0.0,0.0,0.0,0.03
1.300000000000182,0.0,0,0,0,0,1,0,0,1,0.3,0.0,0.0,0.42882562831418636,-0.0006145390208202716,0.2368436972905045,-1.7452494180511364,-0.744267416068481,0.06455957264617014,9,0.1704881129811407,11.649054580185481,0.13931877305664703,61.02481550200846,0.10172133015061513,41.97418668552918,50.0,0,0,0,0
1.3099999999999454,0.0,0,0,0,0,1,0,0,1,0.3,0.0,0.0,0.5091057491196624,-0.025343343556169292,0.3173335317980125,-1.2599077478983982,-1.4095920447151926,0.12280416914679336,9,0.29601086589225933,15.408873140685518,0.13742745919523633,128.77724185133513,0.19485084680289155,42.77982689619812,50.0,0,0,0,0
1.3200000000001637,0.0,0,0,0,0,1,0,0,1,0.3,0.0,0.0,0.5766819897412765,-0.027513197625853976,0.41071484064166364,-0.3840850370463216,-1.9587017729818448,-0.06099928896629311,9,0.3354021994508446,9.934850992178356,0.11769314180024275,162.9391407666579,0.11504531441945187,43.66084311064995,50.0,0,0,0,0
1.3299999999999272,0.0,0,0,0,0,1,0,0,1,0.3,0.0,0.0,0.5217075748483594,-0.013542066231928263,0.43530168571737227,0.383049504695024,-1.6226748875704464,-0.12539424700357552,9,0.3768705677899787,12.672846477504097,0.16659617286678663,131.10677872342418,0.7613992757855741,44.13001568723631,50.0,0,0,0,0
1.3400000000001455,0.0,0,0,0,0,1,0,0,1,0.3,0.0,0.0,0.4461744935742519,0.014948526999757582,0.2739442740126999,1.0380526039062896,-0.3525384661216644,-0.1978988038681876,9,0.3622223909442922,15.772579402726592,0.18886365186659865,51.65925042554071,0.7025316401127699,44.16405436241069,50.0,0,0,0,0
1.349999999999909,0.0,0,0,0,0,0,0,0,0,0.3,0.0,0.0,0.4156063055988575,0.019810619879306494,0.1288718091872879,0.9540402644552781,0.3975310669997851,-0.06737510853617874,9,0.26484106625923776,13.83224157532509,0.15937426471964095,22.10091389169955,0.6320987944895331,44.111622830288326,35.0,0,0,0,0
1.3600000000001273,0.0,0,0,0,0,0,0,0,0,0.3,0.0,0.0,0.4180134002672427,0.029206343268070995,-0.0035717627623454724,0.44403203574966166,0.3381302311929137,-0.003956673199027379,9,0.15849278606700784,8.819483698259345,0.11462505853969843,0.4649403994144139,0.09870594748046457,44.137877363554026,0.0,0,0,0,0
1.3699999999998909,0.0,0,0,0,0,0,0,0,0,0.3,0.0,0.0,0.42928149352643197,0.03785039903914199,-0.11836312080354033,0.32593689322953934,-0.08878085694543919,0.03785717602169734,9,0.19314009939470683,10.894096931197222,0.11636819335225354,-4.714001489215336,0.14172856391619604,44.172765156744696,0.0,0,0,0,0
1.3800000000001091,0.0,0,0,0,0,0,0,0,0,0.3,0.0,0.0,0.42445028998919176,0.03706139434738302,-0.2143480293293658,0.3107952627412503,-0.7246471604569842,-0.0020858139650750188,9,0.17024548999361805,10.83265748376691,0.10429592931912393,-4.771957033763973,0.16939905317866377,44.02597158299093,0.0,0,0,0,0
1.3899999999998727,0.0,0,0,0,0,0,0,0,0,0.3,0.0,0.0,0.4135276270924946,0.052298613333902066,-0.28045042619827215,0.6353558291198064,-0.8924699308391908,-0.005352992406849494,9,0.17569099950840314,8.714118851119979,0.09068220729592083,-4.637115154995092,0.25158823929713603,43.743231541193566,0.0,0,0,0,0
1.400000000000091,0.0,0,0,0,0,0,0,0,0,0.3,0.0,0.0,0.4063327069261602,0.05202858008103399,-0.34523463607061894,0.9582805080828583,-0.6542508185479025,0.08275621287148374,9,0.19947816036850802,2.1486514372446552,0.08898884781703988,-4.405151581102696,0.3788207730399036,43.339071598560814,0.0,0,0,0,0
1.4100000000003092,0.0,0,0,0,0,0,0,0,0,0.3,0.0,0.0,0.39436577452772165,0.053569463636467814,-0.40248608868006097,1.1201338114175217,-0.5533483579884155,0.09491377441253482,9,0.2540564342542637,0.5822650389930921,0.09080989635689597,-2.463727819108237,0.404691302410376,42.92568143080839,0.0,0,0,0,0
1.4200000000000728,0.0,0,0,0,0,0,0,0,0,0.3,0.0,0.0,0.398515977987498,0.048005130776537765,-0.43974408791905334,1.1125689598371715,-0.5230115206611576,0.05384677239988033,9,0.22697167413334948,4.431985596099393,0.1025971263051025,-0.5242326647269548,0.4804693828022917,42.4231491092776,0.0,0,0,0,0
1.430000000000291,0.0,0,0,0,0,0,0,0,0,0.3,0.0,0.0,0.38006571129366745,0.04290526263992224,-0.48772333071649093,0.9855256699299371,-0.2682487449406618,0.0055281980264155865,9,0.15374519208794224,8.850497241079776,0.09795475129278867,0.03949227762698708,0.43905075684245376,41.795247830519315,0.0,0,0,0,0
1.4400000000000546,0.0,0,0,0,0,0,0,0,0,0.3,0.0,0.0,0.3436566489914627,0.036267868713146675,-0.5541288062844962,0.7815694091933066,0.05816816590458639,0.042198664017693344,9,0.11811907351771667,6.584300511155935,0.06516657595131904,0.2185243084230847,0.4526539632194546,41.08538301080864,0.0,0,0,0,0
1.4500000000002728,0.0,0,0,0,0,0,0,0,0,0.3,0.0,0.0,0.30577902199850365,0.02741582621993708,-0.6571849037435437,0.5247569354235,0.3303088827398258,0.07386109948413504,9,0.11670915851676873,3.432252110903602,0.04456579744065762,-0.9404500334351997,0.5813829510964668,40.2578575659251,0.0,0,0,0,0
1.4600000000000364,0.0,0,0,0,0,0,0,0,0,0.3,0.0,0.0,0.30072669935346763,0.01947984670414706,-0.7686165124476888,0.26773477622911845,0.35111320592812323,0.053219771485791455,9,0.08775778206293926,0.7949876485899835,0.04286493608660199,-1.5218146106421204,0.804334439087996,39.394871264992204,0.0,0,0,0,0
1.4700000000002547,0.0,0,0,0,0,0,1,0,0,0.3,0.0,0.0,0.29719832344682456,0.015329331019512425,-0.8427489753160325,0.05546606289238725,0.2559427928148994,-0.034716808172809005,9,0.049057484027367766,0.29346352719802515,0.045744564656311396,23.53475336943589,0.9117237196261435,38.47589536422525,20.0,0.0,0.19000000000000003,0.0,0.0
1.4800000000000182,0.0,0,0,0,0,1,1,0,1,0.3,0.0,0.0,0.2812872788825285,0.05026719915926815,-0.8479444010723569,-0.7052290589047998,-0.14317377831485947,-0.26822231990846207,9,0.21715515325572493,0.5875603211891051,0.06282910237021941,173.66496477773225,1.9770720985841592,37.35836077209516,50.0,0.12999999999999998,0.0,0.0,0.12999999999999998
1.4900000000002365,0.0,0,0,0,0,1,1,1,1,0.3,0.0,0.0,0.24811545996250411,0.08152756427708888,-0.7990454684964463,-0.5303436308256934,-0.35158803379026743,-0.3385506157309187,9,0.4385600896586245,0.7854289013844469,0.1053867624325742,298.39433608376794,1.9308124167032137,35.960876436699245,90.0,0.0,0.0,0.2700000000000001,0.0
1.5,0.0,1,1,1,1,1,1,1,1,0.3,0.0,0.0,0.24833721812018994,0.04689599046560572,-0.6521612765575,-0.2785699470233227,0.20615547819936642,-0.17235174358604338,9,0.3920474377551349,3.2419072435127463,0.1359302601500823,370.7389878373151,0.40977617113621323,34.537315604651624,80.0,0,0,0,0
1.5100000000002183,0.0,1,1,1,1,1,1,1,1,0.3,0.0,0.0,0.26877614794086896,-0.007486374096189128,-0.5205163081853122,-0.4100825003430549,0.7984162200183941,0.007297388986751266,9,0.10384642258298618,2.8133080649059186,0.13139222772462178,418.7722972393811,0.72846282719083,33.09451352496593,0.0,0,0,0,0
1.5199999999999818,0.0,1,1,1,1,1,1,1,1,0.3,0.0,0.0,0.32277978477601754,0.0055024915404069995,-0.42949408128190336,-0.8004203969887,0.9046255749940295,-0.03557134446116314,9,0.03804343207570714,2.09909918602577,0.10866623157167037,370.0687938111634,0.8563574796915349,32.54357047184972,0.0,0,0,0,0
1.5300000000002,0.0,1,1,1,1,1,1,1,1,0.3,0.0,0.0,0.36723781005034406,0.036527174655144753,-0.3396017212030465,-0.8080207083700137,0.8558504380837045,0.016432313430960563,9,0.09060119478252612,1.8546418986313125,0.11564750734946727,344.3868750070296,0.6988219807513354,32.18143489245149,0.0,0,0,0,0
1.5399999999999636,0.0,1,1,1,1,1,1,1,1,0.3,0.0,0.0,0.350427574608948,0.05509341017864816,-0.2410834593615562,-0.7574262026745607,0.7516501540083477,0.0026408010611531376,9,0.12869222375814177,1.996784336344134,0.10432059047030129,348.6611981819453,0.32146082764894446,31.78930964793771,0.0,0,0,0,0
1.550000000000182,0.0,1,1,1,1,1,1,1,1,0.3,0.0,0.0,0.34055758835492767,0.03919949007000693,-0.14658876490274425,-0.29758919434903147,0.8686894457552189,-0.051390427337653116,9,0.11896915971100855,2.824889552231665,0.10630729963551899,364.00920854707795,0.21112123331678978,31.421973422325568,0.0,0,0,0,0
1.5599999999999454,0.0,1,1,1,1,1,1,1,1,0.3,0.0,0.0,0.3399168933684574,0.009069641689194257,-0.04237132085575872,-0.2628670899048085,0.9082631976216006,-0.11820543290261928,9,0.15429484696471316,2.6655451193683497,0.106695977516344,375.2183451142474,0.21161589719795693,31.245953240732767,0.0,0,0,0,0
1.5700000000001637,0.0,1,1,1,1,1,1,1,1,0.3,0.0,0.0,0.352602282745769,-0.00972783621902795,0.032555384989376865,-0.2224308837564763,0.6976082548416997,-0.11586568054635117,9,0.17748713842479957,2.6395379589675056,0.1022318700998226,349.5017971686651,0.10705100400337186,31.234199496933265,0.0,0,0,0,0
1.5799999999999272,0.0,1,1,1,1,1,1,1,1,0.3,0.0,0.0,0.35172056311367417,-0.009447581294667919,0.09227572580001042,-0.025339157879191835,0.443506309640912,-0.041108419536653625,9,0.13870246844519937,3.432467572698549,0.10983215500870527,314.27666724466104,0.10765627626516716,31.188194834236135,0.0,0,0,0,0
1.5900000000001455,0.0,1,1,1,1,1,1,1,1,0.3,0.0,0.0,0.34730707723098836,0.0013924421731109082,0.15730137497145374,0.23188584684748859,0.22616419797481957,0.04779063560418978,9,0.07910380594116491,4.16804398608554,0.12209232672348731,293.0966358007223,0.12177202060802172,31.22723988911688,0.0,0,0,0,0
1.599999999999909,0.0,1,1,1,1,1,1,1,1,0.3,0.0,0.0,0.32805998066327996,0.009425352385979628,0.21499967679546927,0.3014279284281729,0.12023016257625607,0.1111846648606198,9,0.12891441273128035,4.725194948444481,0.12400947357466263,282.2046641242118,0.21614213783462022,31.365029949113953,0.0,0,0,0,0
1.6100000000001273,0.0,1,1,1,1,1,1,1,1,0.3,0.0,0.0,0.30600705528292205,0.006928360593673058,0.27389689852007115,0.24016927977575017,0.1233789557735915,0.12077106230470697,9,0.14783698746950275,4.943540227633198,0.1222121996572038,281.5580508378959,0.34053132236003636,31.571119307306454,0.0,0,0,0,0
1.6199999999998909,0.0,1,1,1,1,1,1,1,1,0.3,0.0,0.0,0.2948136665873342,-0.004529478448282673,0.3343218065982574,0.1652098294464214,0.12473345309414366,0.06747499001583492,9,0.0952769765247397,6.362041871002248,0.13073304370963115,277.9271939989063,0.4423533673798702,31.770919809364614,0.0,0,0,0,0
1.6300000000001091,0.0,1,1,1,1,1,1,1,1,0.3,0.0,0.0,0.30198137841486444,-0.01210634196912981,0.4130769892858851,0.10375516060533815,-0.005462829068354026,0.025498655791653974,9,0.055131560895481935,8.726091126964539,0.14260398838970817,277.217659742655,0.4350215777643387,32.11791998126012,0.0,0,0,0,0
1.6399999999998727,0.0,1,1,1,1,1,1,1,1,0.3,0.0,0.0,0.3202608844403782,-0.013385505671762143,0.5170962349386674,0.16959177293035554,-0.2723434536716509,0.006364948352605138,9,0.03691916040714101,10.836323980728844,0.15078362094986145,300.3311023669536,0.48928751494237877,32.68365020417548,0.0,0,0,0,0
1.650000000000091,0.0,1,1,1,1,1,1,1,1,0.3,0.0,0.0,0.3394213438162231,-0.0065218282425291325,0.6203969322691729,0.2218045819422678,-0.5290214411577056,0.05229637266008399,9,0.0709422740179825,11.353617598109913,0.14996082781974335,320.5742100965357,0.5575657874290224,33.37625585639038,0.0,0,0,0,0
1.6600000000003092,0.0,1,1,1,1,1,1,1,1,0.3,0.0,0.0,0.350819168486328,0.0037063372091267893,0.7070469119834448,0.0988001445970106,-0.6590293766248217,0.0997194908671435,9,0.13068901359674515,10.133659323505912,0.1330882255545563,311.4939211430987,0.6662844797415072,34.19426542653683,0.0,0,0,0,0
1.6700000000000728,0.0,1,1,1,1,1,1,1,1,0.3,0.0,0.0,0.3613454676411727,0.012261820461900708,0.7617602350540578,-0.03889764813090445,-0.6513796244406205,0.1226673945219108,9,0.18381017659271506,8.303856906594365,0.11682998948055545,278.05315965877804,0.7453914637510978,35.08169719812859,0.0,0,0,0,0
1.680000000000291,0.0,1,1,1,1,1,1,1,1,0.3,0.0,0.0,0.36763827684194483,0.015485630083268791,0.7885832432348632,-0.09304728857531247,-0.5290446431373412,0.13043451041084791,9,0.2070630938664324,7.291803347826648,0.09921604602647094,230.06344801648476,0.8382423535367192,35.99785092353726,0.0,0,0,0,0
1.6900000000000546,0.0,1,1,1,1,1,1,1,1,0.3,0.0,0.0,0.36889472403679846,0.00982699098244267,0.7957586616730035,-0.10437252748792128,-0.3594160264057584,0.11946809860740021,9,0.2096939906445135,6.252325713873615,0.08440380405345257,192.8728606339277,0.9368436797698437,36.910823284295944,0.0,0,0,0,0
1.7000000000002728,0.0,1,1,1,1,1,1,1,1,0.3,0.0,0.0,0.37145106070298484,-0.00385241899446772,0.7800371162475577,-0.10174432079774084,-0.23031589084509932,0.04831590412582056,9,0.15012354892564708,4.518044774729126,0.07091749053241754,157.00952949413275,0.9960314372801039,37.796495533050674,0.0,0,0,0,0
1.7100000000000364,0.0,1,1,1,1,1,1,1,1,0.3,0.0,0.0,0.3720253075036186,-0.01657312442358441,0.7502803836090344,-0.14481716792183222,-0.25530189836629963,0.003498082507362988,9,0.1035015280937498,3.1721517365494725,0.056562415946769265,113.6003832238016,0.8910385037977062,38.674219435030636,0.0,0,0,0,0
1.7200000000002547,0.0,1,1,1,1,1,0,1,1,0.3,0.0,0.0,0.37380177691620364,-0.02095986882451419,0.6979459962133319,-0.05329562741266267,-0.37910236628546845,-0.015543826739643506,9,0.10263350318442077,2.3309766065828748,0.05047664589187719,75.61256739769915,0.8181819885056653,39.52733336758643,15.0,0,0,0,0
1.7300000000000182,0.0,1,1,1,1,1,0,0,0,0.3,0.0,0.0,0.3675505822081578,-0.01544511336945028,0.6272511929842779,0.305889490863029,-0.455394554458191,0.0035544846789599435,9,0.09809234139568859,1.992106785343434,0.048648835814736544,50.73008143385108,0.7938653459663029,40.30541857821432,75.0,0,0,0,0
1.7400000000002365,0.0,1,1,1,1,1,0,0,0,0.3,0.0,0.0,0.35183667938999036,-0.014475481351379767,0.5517843652532289,0.5626013745104188,-0.3604889270588238,0.026770118580306156,9,0.09488696750979222,2.125430673010197,0.04821909127819777,35.76907609377607,0.791707687733876,40.993434515533394,75.0,0,0,0,0
1.75,0.0,0,0,0,0,1,0,0,0,0.3,0.0,0.0,0.3267007692775361,-0.016036688187600647,0.464019145862118,0.6654234330373984,-0.10746631467803357,0.07060455014651527,9,0.09232750206434805,1.1963478571414234,0.03978318670280227,28.518368458869748,0.7077974796332552,41.582585272236564,65.0,0,0,0,0
1.7600000000002183,0.0,0,0,0,0,0,0,0,0,0.3,0.0,0.0,0.31381148941177883,-0.02229056466774396,0.3900390966148889,0.30380526161802546,0.05845347617744575,0.10232554710492633,9,0.13655715196817578,0.42962528340552764,0.04053079960558055,15.47209648281395,0.5442667905981754,42.11171800591387,20.0,0,0,0,0
1.7699999999999818,0.0,0,0,0,0,0,0,0,0,0.3,0.0,0.0,0.3161844012017393,-0.03012376382475645,0.30456810851556243,-0.11084795336008099,-0.06919659178638851,0.060576017927785025,9,0.126144130827721,1.1394511291141072,0.049434094449306326,-0.024735164615252003,0.4625436663252299,42.5680308421751,0.0,0,0,0,0
1.7800000000002,0.0,0,0,0,0,0,0,0,0,0.3,0.0,0.0,0.31697197421260864,-0.03826474603623219,0.21416765172309005,-0.6285138871277829,-0.21107676677097578,0.02834811970750969,9,0.08990706025859782,1.7766729240620383,0.04882734113452787,-4.437661453934357,0.3409939072905689,42.90780285778415,0.0,0,0,0,0
1.7899999999999636,0.0,0,0,0,0,0,0,0,0,0.3,0.0,0.0,0.31654025340179054,-0.04439594776387343,0.12237077858190218,-0.7782546682526367,-0.23835286535504047,0.039108540857242406,9,0.09414691427109834,0.5865835832813623,0.03198812016212462,-2.9115369123064756,0.205685905744868,43.17164224264375,0.0,0,0,0,0
1.800000000000182,0.0,0,0,0,0,0,0,0,0,0.3,0.0,0.0,0.3165942824591131,-0.05177626411442613,0.042140382420509256,-0.8428576216845071,-0.2585497228243705,0.007107516152984645,9,0.08444092516930272,0.4869005317873758,0.032606701491869186,1.7421172534585825,0.12017186766492827,43.32590335240281,0.0,0,0,0,0
1.8099999999999454,0.0,0,0,0,0,0,0,0,0,0.3,0.0,0.0,0.30591717053413753,-0.055013442235859876,-0.04650750093723315,-0.5081251570656549,-0.2617394975215187,0.0312941297993886,9,0.0883659478776723,0.7637839870793559,0.0421220118854952,8.27600802218699,0.05109992845975253,43.350469739139484,0.0,0,0,0,0
1.8200000000001637,0.0,0,0,0,0,1,0,0,0,0.3,0.0,0.0,0.30722756779863303,-0.053061796797129135,-0.12550924243555708,0.09986624699902462,-0.35208993190221327,0.019857560500495416,9,0.08716443527636648,1.654697897019124,0.06193596115425613,14.931817855811355,0.08943437303821389,43.29223627782913,25.0,0.060000000000000005,0.0,0.0,0.0
1.8299999999999272,0.0,0,0,0,0,1,0,0,0,0.3,0.0,0.0,0.27635985654821477,-0.050666261234129664,-0.23645197730627143,0.6544524328866225,0.02975745045232797,-0.013904622375939486,9,0.07182551987422367,8.939918250294369,0.10188427466283008,17.20939088565571,0.08252177535508776,43.07584276233441,25.0,0,0,0,0
1.8400000000001455,0.0,0,0,0,0,0,0,0,0,0.3,0.0,0.0,0.25732541733461345,-0.05350731669087616,-0.36289119655456065,0.6586207088931241,0.4495145462469163,-0.03923593018385368,9,0.12117678704322757,13.818705110817271,0.09582108667790364,5.237897515117941,0.29135582081847095,42.69975207117686,5.0,0,0,0,0
1.849999999999909,0.0,0,0,0,0,0,0,0,0,0.3,0.0,0.0,0.2589786214459241,-0.06096584263708217,-0.4688856211027933,0.2774180396979123,0.5226044861359146,0.04132130246175279,9,0.12632380404759208,10.38063191582655,0.06762017172037565,-4.334254532657013,0.5050429860303329,42.25157910448392,0.0,0,0,0,0
1.8600000000001273,0.0,0,0,0,0,0,0,0,0,0.3,0.0,0.0,0.27731080790425605,-0.058570601050012196,-0.5775630836452497,0.18443843121417774,0.13131671896956976,0.05243041792141461,9,0.14201997047910153,9.327020336645482,0.06535668543450193,-5.967356323504388,0.6872319753385242,41.72710369952635,0.0,0,0,0,0
1.8699999999998909,0.0,0,0,0,0,0,0,0,0,0.3,0.0,0.0,0.2710928557117305,-0.05818736266111512,-0.6724756777697514,0.3579551084704792,-0.05036027447148078,0.06034859154459694,9,0.1305532384945239,6.692187284356024,0.05248388373756162,-5.206964365688387,0.7345888886375648,41.05736379167353,0.0,0,0,0,0
1.8800000000001091,0.0,0,0,0,0,0,0,0,0,0.3,0.0,0.0,0.2700322768739405,-0.05743651917692755,-0.7544601578753569,0.4988481185827269,-0.046273976988997656,0.06878373389479035,9,0.15559343443098123,3.6113649620599437,0.05076230553435348,-4.567842956242564,0.8630343583263462,40.21846584225105,0.0,0,0,0,0
1.8899999999998727,0.0,0,0,0,0,0,0,0,0,0.3,0.0,0.0,0.26495501295188767,-0.05608313506460136,-0.8227074672975583,0.44701359622920467,0.030116424469982243,0.08945947606356608,9,0.17550768129237998,0.30298909311256544,0.05124518020061466,-4.007064769158855,0.9526976956408292,39.32678142874791,0.0,0,0,0,0
1.900000000000091,0.0,0,0,0,0,0,0,0,0,0.3,0.0,0.0,0.2624076450347113,-0.06004038752465558,-0.8732127111464021,0.43351227399943665,0.13629174987105808,0.10604448421843851,9,0.19165136423959897,0.2919780187258142,0.081290815778786,-2.951694190174886,1.0440258628576262,38.308682855899505,0.0,0,0,0,0
1.9100000000003092,0.0,0,0,0,0,0,0,0,0,0.3,0.0,0.0,0.26643292861892454,-0.06160870024066083,-0.9236211980867743,0.35993733476178286,0.15364712590208401,0.08542943064038186,9,0.1941713777738831,0.5182293640004356,0.06154028353730119,-2.151610822333977,1.0733169628438233,37.27387549896226,0.0,0,0,0,0
1.9200000000000728,0.0,0,0,0,0,0,0,0,0,0.3,0.0,0.0,0.2614151207355644,-0.06793815762193886,-0.9977487972418211,0.2556646614355199,0.23445142488397547,0.08012338074328637,9,0.18719285768839994,1.7848350785614577,0.053245704689204885,-1.6290296391015555,1.1429082561317245,36.12199704392309,0.0,0,0,0,0
1.930000000000291,0.0,0,0,0,0,0,0,0,0,0.3,0.0,0.0,0.24673631074440433,-0.06760385410608724,-1.0829815165173444,0.008386814822635633,0.5511279152774962,0.07022842435976917,9,0.17961612060724214,3.7009321229647236,0.0531098415880666,-1.459480993456251,1.1970695728544267,34.86571324179933,0.0,0,0,0,0
1.9400000000000546,0.0,0,0,0,0,0,0,0,0,0.3,0.0,0.0,0.23801424093984203,-0.06526826112871714,-1.1801950772141894,-0.08494295254184801,0.822488853313964,0.07384934724460508,9,0.2065831930410492,1.8905794173791381,0.032684244207712765,-2.5236655767322604,1.3413497951915978,33.50321748067206,0.0,0,0,0,0
1.9500000000002728,0.0,0,0,0,0,0,0,0,0,0.3,0.0,0.0,0.2638724348174576,-0.06873259620768242,-1.274914949279964,-0.03467230377690572,0.7689482340792957,0.051031405276541125,9,0.17199998608493178,0.02607711504136308,0.03030750560955899,-1.7721588653780416,1.5474648518571774,32.08668675947342,0.0,0,0,0,0
1.9600000000000364,0.0,0,0,0,0,0,1,0,0,0.3,0.0,0.0,0.2875678229077692,-0.06844931161755792,-1.3690354301983019,0.25597532782844745,0.5233243180893691,0.03951948173432628,9,0.1255240647203557,0.17596830722322732,0.03512450214745606,1.1362605042022595,1.6785541076106876,30.633293896407146,5.0,0.0,0.24000000000000007,0.0,0.0
1.9700000000002547,0.0,0,0,0,0,0,1,0,0,0.3,0.0,0.0,0.2542224628209646,-0.06963507989508372,-1.406088999886851,-0.45278634556473074,0.3077607867786013,-0.07737171482755123,9,0.135790612923736,0.19620385286209996,0.035672993416402884,59.56189656155241,1.7295768013693245,28.920486024044926,25.0,0,0,0,0
1.9800000000000182,0.0,0,0,0,0,1,1,1,1,0.3,0.0,0.0,0.19222899101824073,-0.020239494904255292,-1.3833229574345638,-0.5938540913400154,-0.04385872380559214,-0.14927566132121822,9,0.28836928640888765,0.5310250453668787,0.09210943937087765,194.76203941302083,2.2205080573373084,26.695438845106004,70.0,0.13999999999999999,0.0,0.25000000000000006,0.25000000000000006
1.9900000000002365,0.0,0,0,0,0,1,1,1,1,0.3,0.0,0.0,0.1458344857581899,0.010986479609901002,-1.16635162193036,0.16979278105199372,0.2604948317450559,0.1448569012964661,9,0.2256326086899872,2.2711131123519173,0.18847803944084812,357.8174035853417,1.2842221839967194,24.720723935119583,100.0,0,0,0,0
2.0,0.0,1,1,1,1,1,1,1,1,0.3,0.0,0.0,0.19096817336273886,0.014679625879597587,-0.8568568204761426,0.18221285637911053,0.5595604525142215,0.16472960924448712,9,0.3309399040770938,7.660706355293188,0.23263438924535979,499.8018786798719,1.3666065890645869,23.509002854024654,80.0,0,0,0,0
2.0100000000002183,0.0,1,1,1,1,1,1,1,1,0.5,0.0,0.0,0.2812950642927325,-0.0028722650078290848,-0.5759190133445479,-0.3448012831188331,0.4354070854188196,0.02720686097210964,9,0.3613580640296716,6.0778044641951485,0.21736901437057582,545.790985985974,1.1005714962876216,22.53033001981529,0.0,0,0,0,0
