time,trans_flag,des_cont_state_fl,des_cont_state_fr,des_cont_state_rl,des_cont_state_rr,cont_state_fl,cont_state_fr,cont_state_rl,cont_state_rr,vel_cmd_x,vel_cmd_y,vel_cmd_yaw,base_vel_x,base_vel_y,base_vel_z,base_vel_roll,base_vel_pitch,base_vel_yaw,gait_id,base,CoT,musculoskeletal,foot_force,MWE,WEXT,stability,FL_stride_t,FR_stride_t,RL_stride_t,RR_stride_t
0.012000000000000455,0.0,1,1,1,1,1,1,1,1,0.0,0.0,0.0,0.0007094332236310284,-0.0034418540722793646,-0.003924043283479143,0.006599841173738238,0.005600882228463885,-0.009907167404890053,0,0.0028116909401600895,0.0,0.01671756628787879,29.789999999999992,4.780641113876183,6.6842952247969505,0.0,0,0,0,0
0.02199999999999136,0.0,1,1,1,1,1,1,1,1,0.0,0.0,0.0,7.521467270874414e-05,-0.0015003681582119982,-0.004472269213832549,0.0005765764065764599,0.005060565847661595,0.0024041164282787063,0,0.008603448031125917,0.0,0.08301769986889343,149.15443313415997,0.006766803902678618,33.415672324834986,0.0,0,0,0,0
0.03000000000002956,0.0,1,1,1,1,1,1,1,1,0.0,0.0,0.0,0.002930719974461152,-0.0024453746407885222,0.039419758491023825,0.003658416585190003,0.014783256985546942,0.0054575772200975495,0,0.01153831793041092,0.0,0.14211638090291268,150.32945758431578,0.054053087254296736,33.4332200753153,0.0,0,0,0,0
0.040000000000020464,0.0,1,1,1,1,1,1,1,1,0.0,0.0,0.0,-0.01405771009663237,-0.002229919871145073,0.07974769870050387,0.07187228198359626,0.08445621974702873,0.013907070872236412,0,0.013909911198503665,0.0,0.17103735108566887,163.84829595454772,0.10665723706569125,33.54323967118076,0.0,0,0,0,0
0.05200000000002092,0.0,1,1,1,1,1,1,1,1,0.0,0.0,0.0,-0.012362012937863869,-0.003724113911991718,0.06645893664161177,0.07264043906172152,0.07608236262190848,0.053771239709643495,0,0.05910606421347113,0.0,0.15098419295100154,173.73206549351926,0.025102980033477423,33.61483403081027,0.0,0,0,0,0
0.060000000000002274,0.0,1,1,1,1,1,1,1,1,0.0,0.0,0.0,0.010692575461143774,-0.003889060313405931,0.0735655082418289,0.02937566801100875,0.07675749807780077,0.06089367525748701,0,0.06821297753326443,0.0,0.15631877115590675,158.68243421218637,0.07835065386192268,33.68317457257497,0.0,0,0,0,0
0.07200000000000273,0.0,1,1,1,1,1,1,1,1,0.0,0.0,0.0,0.024042330826947733,0.0025965687084409223,0.07514750064873175,0.05392760173773121,0.07331381598291664,0.035161112750789085,0,0.0718332723065552,0.0,0.16437907307413352,155.03191404215698,0.0967689420319352,33.776151509554595,0.0,0,0,0,0
0.08199999999999363,0.0,1,1,1,1,1,1,1,1,0.0,0.0,0.0,0.022808037360776977,-0.0008271924932635201,0.06653339748592622,-0.021305699688362028,0.06616379313076937,0.0074334342863078134,0,0.04015589287667776,0.0,0.15497006100641356,153.1778759253275,0.06029960493952563,33.82142481016362,0.0,0,0,0,0
0.08999999999997499,0.0,1,1,1,1,1,1,1,1,0.0,0.0,0.0,0.02537854633979033,-0.0016408195728925582,0.0603989220406184,-0.02836292261321391,0.0689806701839625,-0.007321036561697976,0,0.030267964029624228,0.0,0.15227115718193532,146.55175185341787,0.06446428935931418,33.87931976891245,0.0,0,0,0,0
0.10000000000002274,0.0,1,1,1,1,1,1,1,1,0.0,0.0,0.0,0.03522556170995871,-0.002750760250894618,0.05920178215668014,0.006724276025251649,0.09094766304895816,-0.024476449245015842,0,0.055751990756983096,0.0,0.1541984795662841,148.20535306817587,0.052643807964947276,33.950996989520284,0.0,0,0,0,0
0.11000000000001364,0.0,1,1,1,1,1,1,1,1,0.0,0.0,0.0,0.04197547382612077,-0.0009331329135186478,0.05456019676370811,-0.022711635021785467,0.0876151706634442,-0.01878246689518316,0,0.059263168072272665,0.0,0.1504539727088549,149.06582238325728,0.051648347873460204,34.00670413008838,0.0,0,0,0,0
0.12000000000000455,0.0,1,1,1,1,1,1,1,1,0.0,0.0,0.0,0.047400931537715386,-0.0001828928818982811,0.04741638878615194,-0.02939075618657647,0.09539261250985662,-0.013498871413647652,0,0.06500167959538958,0.0,0.14864779304265366,146.71390431619244,0.04575613285895549,34.06001483666119,0.0,0,0,0,0
0.12999999999999545,0.0,1,1,1,1,1,1,1,1,0.0,0.0,0.0,0.05135040550102003,0.0006335811141504504,0.04310318508175911,-0.028016848147508364,0.10224692524336805,-0.008092164196605151,0,0.058723264961144675,0.0,0.15178089919727983,145.7890803405189,0.04148342710775969,34.10647953468851,0.0,0,0,0,0
0.13999999999998636,0.0,1,1,1,1,1,1,1,1,0.0,0.0,0.0,0.05609145931062705,0.000574534443123037,0.036570187304941174,-0.011488943471535545,0.10697091021584695,-0.002320212659558439,0,0.0590346260241259,0.0,0.14951250317227502,144.6718715110443,0.035696736027591096,34.14893477127329,0.0,0,0,0,0
0.1519999999999868,0.0,1,1,1,1,1,1,1,1,0.0,0.0,0.0,0.05915184806120249,0.0002738031106909222,0.033046323668397104,-0.011252222190593618,0.10958343578419891,0.0002826366596123688,0,0.06166363496732439,0.0,0.1488154349748056,144.75144341367908,0.029703900106485402,34.18633255372672,0.0,0,0,0,0
0.160000000000025,0.0,1,1,1,1,1,1,1,1,0.0,0.0,0.0,0.06140456867985993,-0.0002933267609348063,0.030425904295094768,-0.024530624256069493,0.10970784438062685,0.011420880561291888,0,0.06832586252694128,0.0,0.151241504107185,145.00645036878294,0.02368109067168091,34.217358231383194,0.0,0,0,0,0
0.17000000000001592,0.0,1,1,1,1,1,1,1,1,0.0,0.0,0.0,0.06158858337696427,-0.0013920403487749354,0.027984537383536293,-0.032499611354844554,0.10255024929118692,0.014827448676588494,0,0.07671697457282178,0.0,0.15057702448054947,144.99061379183073,0.024277043571598062,34.2434241123528,0.0,0,0,0,0
0.18000000000000682,0.0,1,1,1,1,1,1,1,1,0.0,0.0,0.0,0.06124993500693545,-0.0009088261850203151,0.0266396744076835,-0.03206362735329696,0.10067237734250756,0.00658818224433329,0,0.07141866653014792,0.0,0.1501518336581939,144.65238161076508,0.02596484825589232,34.26810249176107,0.0,0,0,0,0
0.18999999999999773,0.0,1,1,1,1,1,1,1,1,0.0,0.0,0.0,0.06034704770314458,-0.0008613900325102203,0.023840952362448178,0.006430068634692727,0.08370890531344923,-0.0016741824535694302,0,0.06589858820208272,0.0,0.1513235290903394,142.68916499776253,0.02418102222612663,34.29073728184743,0.0,0,0,0,0
0.19999999999998863,0.0,1,1,1,1,1,1,1,1,0.0,0.0,0.0,0.05755433836933185,-0.0015738004821529068,0.021558504336818267,0.005447545238204263,0.06976097176379689,-0.006977299765295076,0,0.0672546171180441,0.0,0.1508526959128796,141.22248914175006,0.019144645801938212,34.30934217948385,0.0,0,0,0,0
0.20999999999997954,0.0,1,1,1,1,1,1,1,1,0.0,0.0,0.0,0.054910950617755076,-0.002551300480943022,0.02002287757310119,-0.021309545532559895,0.058740113835029945,-0.015816406523670543,0,0.06992106127559887,0.0,0.14954196042809625,141.0501997352025,0.018886620930254585,34.325029483194434,0.0,0,0,0,0
0.22199999999998,0.0,1,1,1,1,1,1,1,1,0.0,0.0,0.0,0.05164851609783199,-0.0031991892387683604,0.019944210548067904,-0.029842804805325113,0.05484029583054262,-0.010228151828264656,0,0.06897733393025207,0.0,0.14962680006616955,141.64177344640302,0.022832335271549112,34.34316020704112,0.0,0,0,0,0
0.23200000000002774,0.0,1,1,1,1,1,1,1,1,0.0,0.0,0.0,0.04796153127308599,-0.002691491271063309,0.019864490603233625,-0.039224221733079385,0.047940263550034244,-0.02245409569356746,0,0.07095949724274962,0.0,0.15011095745306383,142.21150691864017,0.016348823057115915,34.35918122303493,0.0,0,0,0,0
0.24200000000001864,0.0,1,1,1,1,1,1,1,1,0.0,0.0,0.0,0.045711263274876686,-0.001467126425958061,0.01883102504221741,-0.01652426004510286,0.03768135536279838,-0.010408412508954242,0,0.06289920208118042,0.0,0.15022502977035873,142.11555486277814,0.020437402017945926,34.37368810321275,0.0,0,0,0,0
0.25200000000000955,0.0,1,1,1,1,1,1,1,1,0.0,0.0,0.0,0.04373780614064001,-0.0011942254065020837,0.016746433323782544,-0.012082317441955806,0.015265199736972757,-0.00957432277599489,0,0.055513097403709986,0.0,0.15068566597236152,140.7203589959234,0.016027576185888445,34.38710783855195,0.0,0,0,0,0
0.26200000000000045,0.0,1,1,1,1,1,1,1,1,0.0,0.0,0.0,0.04114339459144588,-0.0008216847667063561,0.015300781135407858,-0.03147679354813005,0.00403745264116665,0.0008706829062821598,0,0.04688129973510836,0.0,0.15111211196236196,140.08153886270452,0.015037806849295347,34.39938845301923,0.0,0,0,0,0
0.27199999999999136,0.0,1,1,1,1,1,1,1,1,0.0,0.0,0.0,0.0393772632206798,-0.0007803397747798801,0.012207813627912909,-0.029412561595915605,-0.0034358572458390415,0.0060656716009413365,0,0.046913949424766274,0.0,0.1512288276813381,139.95453756621595,0.011593219548110285,34.410241625826714,0.0,0,0,0,0
0.28199999999998226,0.0,1,1,1,1,1,1,1,1,0.0,0.0,0.0,0.037524631494252766,-0.001723459370601663,0.009421772305698002,-0.022038578246533547,0.007998271885614677,0.0025654089373375877,0,0.04114090827656166,0.0,0.1523012520495401,140.2809060022963,0.010069896589883113,34.41917318585319,0.0,0,0,0,0
0.29200000000003,0.0,1,1,1,1,1,1,1,1,0.0,0.0,0.0,0.036054693407090305,-0.0021771657165279867,0.0072885589239936,-0.01003582670639942,0.012256670784610188,0.0015108058156364506,0,0.04208539627220216,0.0,0.15252933225798032,140.82555951498108,0.006485489390090485,34.4249651896609,0.0,0,0,0,0
0.3020000000000209,0.0,1,1,1,1,1,1,1,1,0.0,0.0,0.0,0.034598976486604364,-0.003547602204128406,0.006258015107220887,-0.01912653116102849,0.0023287385332398268,0.002039221343553375,0,0.03970047518427626,0.0,0.15334100251007846,140.61719229738196,0.00536178928899306,34.43003834779674,0.0,0,0,0,0
0.3120000000000118,0.0,1,1,1,1,1,1,1,1,0.0,0.0,0.0,0.0341165563314385,-0.004864955307523514,0.0067396943921738065,-0.03574457730221572,0.00040292177441753107,0.005098438277109304,0,0.044234445236527156,0.0,0.15411706332227335,141.7700050751301,0.00559576632006137,34.43437841115796,0.0,0,0,0,0
0.32200000000000273,0.0,1,1,1,1,1,1,1,1,0.0,0.0,0.0,0.033867503969591144,-0.004964331680555854,0.006959835607055349,-0.022653853407205698,-0.007132659314358454,0.006047966712812043,0,0.04307191194107547,0.0,0.15314231343309795,143.1702847395718,0.0036148974315282807,34.43901496567777,0.0,0,0,0,0
0.33199999999999363,0.0,1,1,1,1,1,1,1,1,0.0,0.0,0.0,0.03408079701689455,-0.005297729616474633,0.007363170530702669,-0.003565063787198274,-0.0021574492975450577,0.006057846130701997,0,0.045381553562714914,0.0,0.15448471765722177,143.45372451631297,0.007432394084241283,34.44517040355153,0.0,0,0,0,0
0.339999999999975,0.0,1,1,1,1,1,1,1,1,0.0,0.0,0.0,0.03429731932323154,-0.006540736291067577,0.007531170118075618,-0.0069579754651468515,-0.008744049703531976,0.00034105206348537375,0,0.04578624533336308,0.0,0.15407170309895502,144.0384375376247,0.00605168677094343,34.452080972504575,0.0,0,0,0,0
0.35000000000002274,0.0,1,1,1,1,1,1,1,1,0.0,0.0,0.0,0.034910267047206026,-0.007834379936048876,0.007417197105267408,-0.013949634131416831,-0.015528184726375174,0.00254318382877749,0,0.0447607861582245,0.0,0.1532775767237327,143.37434050088387,0.004648158584265964,34.457134795057804,0.0,0,0,0,0
0.36000000000001364,0.0,1,1,1,1,1,1,1,1,0.0,0.0,0.0,0.03479244637746087,-0.008855873647304672,0.007585131871318964,-0.004494531521697235,-0.015782995590180697,-0.00905107607946612,0,0.0479150896933095,0.0,0.1535829131746674,142.83044658636382,0.006442556043405349,34.46396451151786,0.0,0,0,0,0
0.3720000000000141,0.0,1,1,1,1,1,1,1,1,0.0,0.0,0.0,0.03548730219360801,-0.009407945099084521,0.008555556699033724,-0.016908068602499472,-0.01852012242941407,0.0025442486683020077,0,0.04861413741743417,0.0,0.1530535670447508,143.71729152159384,0.005405515845670606,34.46978509399503,0.0,0,0,0,0
0.382000000000005,0.0,1,1,1,1,1,1,1,1,0.0,0.0,0.0,0.03661554979261043,-0.00950492218106895,0.00967061728247807,-0.004615631942470642,-0.011765935143333042,0.007839074441136731,0,0.048601949335180056,0.0,0.15291027108734578,144.68293194777374,0.008710818458203106,34.47802717495084,0.0,0,0,0,0
0.3919999999999959,0.0,1,1,1,1,1,1,1,1,0.0,0.0,0.0,0.03819544195322428,-0.009701880890163207,0.009659048276545722,-0.00813568865955519,-0.011558241200862011,0.0026225084326759636,0,0.055872243369023813,0.0,0.15278650556760148,144.35396155540943,0.005743938318102366,34.48784975888785,0.0,0,0,0,0
0.39999999999997726,0.0,1,1,1,1,1,1,1,1,0.0,0.0,0.0,0.03882695923442581,-0.009645977786676627,0.008385857714183808,-0.006114804792947881,-0.00664385615311553,0.004930051683727607,0,0.05000998586288265,0.0,0.15260796773208565,144.07980722792522,0.005550507315827492,34.49220022556682,0.0,0,0,0,0
0.410000000000025,0.0,1,1,1,1,1,1,1,1,0.0,0.0,0.0,0.04022147010602897,-0.009788664041959879,0.007517391936325514,-0.010865044894319092,0.0008465174638982566,2.0949105761854927e-05,0,0.05112736070532281,0.0,0.15355132228246354,143.61740406069643,0.0037869130202361646,34.49926997499157,0.0,0,0,0,0
0.4200000000000159,0.0,1,1,1,1,1,1,1,1,0.0,0.0,0.0,0.0419813066519869,-0.009601634966218447,0.006679328109853885,-0.010636230836630848,-0.002510563932054015,-0.006791634020032701,0,0.05409658076069864,0.0,0.15266672525844746,143.5899846038433,0.0016155419775456398,34.50212438802483,0.0,0,0,0,0
0.43200000000001637,0.0,1,1,1,1,1,1,1,1,0.0,0.0,0.0,0.04347438451742448,-0.009859700100096283,0.006802589606579229,-0.005807563927303347,-0.006763838747055109,-0.01601578119796336,0,0.068140655868482,0.0,0.15227508072541396,144.30018163812707,0.0017497948038367427,34.507543899643586,0.0,0,0,0,0
0.4399999999999977,0.0,1,1,1,1,1,1,1,1,0.0,0.0,0.0,0.04456265359713944,-0.010083375974123319,0.0065054841057360195,-0.002643730963863249,0.006178441930245065,0.002846163387524323,0,0.05924835161687164,0.0,0.1526629980637774,145.18944575376975,0.002067312676394357,34.50864910595976,0.0,0,0,0,0
0.44999999999998863,0.0,1,1,1,1,1,1,1,1,0.0,0.0,0.0,0.045717657111127345,-0.011225971247298306,0.00690531336210394,-0.004216453300541929,0.0044534133119807084,-0.002426283497070521,0,0.058031981210094875,0.0,0.15220775490570135,144.64017088305292,0.0007656795881970466,34.50996898534332,0.0,0,0,0,0
0.45999999999997954,0.0,1,1,1,1,1,1,1,1,0.0,0.0,0.0,0.047748412417107144,-0.011174211374094283,0.008167078939335992,-0.0031506905506107127,0.0037758046899761047,0.0030318629095339904,0,0.059667828849706006,0.0,0.1527121556591885,144.829560645946,0.0033102296317417124,34.513582378174036,0.0,0,0,0,0
0.4700000000000273,0.0,1,1,1,1,1,1,1,1,0.0,0.0,0.0,0.048595044994356615,-0.011485934568283862,0.00780448697789184,0.0035365231752746383,0.0009699841677612706,0.003102513562236799,0,0.06257633729020229,0.0,0.15262609517793238,144.8547139830241,0.0025141467258667956,34.51658266454148,0.0,0,0,0,0
0.48200000000002774,0.0,1,1,1,1,1,1,1,1,0.0,0.0,0.0,0.04895306649391209,-0.012496318435684307,0.007786140646387745,0.007860408817106083,0.0015689472468082355,0.001867986674682381,0,0.0655695047999139,0.0,0.15186193989890512,144.814075042209,0.0023518405710360023,34.516736671073886,0.0,0,0,0,0
0.4900000000000091,0.0,1,1,1,1,1,1,1,1,0.0,0.0,0.0,0.04979667787766755,-0.012920140199309855,0.007598093466418483,-0.002750861914475158,0.0038735841794922702,0.004501392143220372,0,0.06424724259136765,0.0,0.15209890132015821,144.27738904887855,0.0035187289799003887,34.52102981500059,0.0,0,0,0,0
0.5020000000000095,0.0,1,1,1,1,1,1,1,1,0.0,0.0,0.0,0.05104965434413677,-0.012354918450999685,0.0076788554772492575,0.008091058769658386,0.005601488148533011,0.006860195729592273,0,0.06980513795349008,0.0,0.15173586486678464,144.0261517248302,0.004868784284576103,34.526901688754705,0.0,0,0,0,0
0.5120000000000005,0.0,1,1,1,1,1,1,1,1,0.0,0.0,0.0,0.05124863021193064,-0.012375226889996666,0.0072206082200263685,0.004980887742398615,0.0034528189036921834,-0.003389155119362493,0,0.06727719037242749,0.0,0.15316265008092445,144.33560712224931,0.0007605078617746487,34.52989701095743,0.0,0,0,0,0
0.5219999999999914,0.0,1,1,1,1,1,1,1,1,0.0,0.0,0.0,0.05152935869564657,-0.012621167535794604,0.007098090618756837,0.0024920787205098983,0.005253680297018849,-0.005453349911805988,0,0.06732016116375923,0.0,0.1516844375398084,144.03730426729186,0.0036187351961088285,34.532259073219144,0.0,0,0,0,0
0.5300000000000296,0.0,1,1,1,1,1,1,1,1,0.0,0.0,0.0,0.05160244690801462,-0.012607139974235855,0.006826861490950657,0.003670954060660341,-0.0017231128564247694,-0.008333243477896185,0,0.07262237546129575,0.0,0.15195767683643085,144.56266451864113,0.0007789597844549342,34.535100090742034,0.0,0,0,0,0
0.54200000000003,0.0,1,1,1,1,1,1,1,1,0.0,0.0,0.0,0.05367804049295772,-0.013305098898588247,0.006753108908743387,-0.0029462954116538137,-0.015099667113253583,-0.008593638363994566,0,0.07611895143415093,0.0,0.1512722305296983,144.36873973661537,0.001216040234083577,34.537410786452746,0.0,0,0,0,0
0.5520000000000209,0.0,1,1,1,1,1,1,1,1,0.0,0.0,0.0,0.05309067828150303,-0.013687787934199098,0.007010634906087054,0.0054240119427446725,0.005379826121571832,0.007789610339990219,0,0.07199153109296655,0.0,0.15153801415728976,144.46123830192803,0.002091632688428411,34.539075705172245,0.0,0,0,0,0
0.5600000000000023,0.0,1,1,1,1,1,1,1,1,0.0,0.0,0.0,0.052678204795076275,-0.013172711941828737,0.007705245205329683,-0.0010779862405279586,0.004968233837784489,0.00020959525705271996,0,0.0700211957021132,0.0,0.14949037737783386,144.8378293626227,0.0025762136021484534,34.538890350119644,0.0,0,0,0,0
0.5699999999999932,0.0,1,1,1,1,1,1,1,1,0.0,0.0,0.0,0.05248708635677812,-0.01260568750551037,0.007304852295333841,-0.005485138392259083,0.002707625257263059,0.003068878150229753,0,0.06693612061713013,0.0,0.15152523523320535,144.81778802262733,0.0022382468709375818,34.54056488460385,0.0,0,0,0,0
0.5799999999999841,0.0,1,1,1,1,1,1,1,1,0.0,0.0,0.0,0.05210946109061434,-0.01248328455722741,0.007319839347372284,0.005987303343587362,4.669483450323524e-05,-0.007585946568368445,0,0.06887538364935657,0.0,0.15196401217171193,144.58268332557577,0.001884723889416056,34.543093921461995,0.0,0,0,0,0
0.589999999999975,0.0,1,1,1,1,1,1,1,1,0.0,0.0,0.0,0.052092788579677564,-0.012871941008765306,0.007643037568458621,0.002136638180340412,-0.0051199924223983275,-0.009782585110021797,0,0.07285434686644451,0.0,0.15241797971636456,144.2778701297321,0.002757897780964025,34.545037986238114,0.0,0,0,0,0
0.6019999999999754,0.0,1,1,1,1,1,1,1,1,0.0,0.0,0.0,0.052583937971997834,-0.013389489374247072,0.008557679722266733,-0.00797527322305969,-0.007066232389741333,-0.009920197334196334,0,0.07482940534346635,0.0,0.15060423365893932,144.39877705233187,0.0036134333485019314,34.54935379910882,0.0,0,0,0,0
0.6120000000000232,0.0,1,1,1,1,1,1,1,1,0.0,0.0,0.0,0.05227287625153973,-0.013049987778480088,0.008195624927899388,-0.0058100230221100856,-0.0024858883258884,-0.004034149482887351,0,0.07394170174353523,0.0,0.1508303876347384,144.69562074641746,0.003231701049355485,34.55238030410726,0.0,0,0,0,0
0.6220000000000141,0.0,1,1,1,1,1,1,1,1,0.0,0.0,0.0,0.051820817613211,-0.012637536616327546,0.007961389115654216,0.0008050944826501411,-0.004103251946348077,-0.01421236681443541,0,0.07288996514382295,0.0,0.15074209819397097,145.20618304234844,0.001432655604191039,34.554180756651235,0.0,0,0,0,0
0.6299999999999955,0.0,1,1,1,1,1,1,1,1,0.0,0.0,0.0,0.05269268346232055,-0.0124947341444043,0.008085067784978752,0.0033054686627089777,-0.005522695921864952,-0.007306334576644567,0,0.0767666024697665,0.0,0.1508578015870256,144.40397758967958,0.004406238092947493,34.55785773717731,0.0,0,0,0,0
0.6419999999999959,0.0,1,1,1,1,1,1,1,1,0.0,0.0,0.0,0.05373429230764046,-0.012232773309749229,0.007881786792671657,-0.005337304482001305,-0.007173492744955427,-0.003932082682875164,0,0.07125256657184184,0.0,0.1500065876128725,145.31020066249746,0.0006875502043718236,34.5595564266284,0.0,0,0,0,0
0.6499999999999773,0.0,1,1,1,1,1,1,1,1,0.0,0.0,0.0,0.054653008844088934,-0.011908336914552498,0.008310841040989381,-0.006872700572488752,-0.006699821504282331,0.0018731817512747811,0,0.06813671453259176,0.0,0.15082622760178913,144.81051191051623,0.0014699385730302453,34.56157160009077,0.0,0,0,0,0
0.6619999999999777,0.0,1,1,1,1,1,1,1,1,0.0,0.0,0.0,0.05523058617563959,-0.011446194294907862,0.00802393963477683,-0.008692323452148624,-0.004454991281697326,0.008921230201772441,0,0.07221139645580554,0.0,0.15163034862125005,144.77570651996245,0.0013417372381144543,34.56413988202306,0.0,0,0,0,0
0.6720000000000255,0.0,1,1,1,1,1,1,1,1,0.0,0.0,0.0,0.05524190600803869,-0.012094194621186896,0.008148360652283812,-0.00025470815870590733,-0.005339889488085744,0.013010258317622597,0,0.07978809537108796,0.0,0.15096289312529876,144.7291963945735,0.0028198704205425855,34.56867320742017,0.0,0,0,0,0
0.6820000000000164,0.0,1,1,1,1,1,1,1,1,0.0,0.0,0.0,0.056133900540391746,-0.011930095648076507,0.007927546469871557,-0.007943314990621954,-0.0033069845448608364,0.0025858961387775466,0,0.07428939585158814,0.0,0.1504873199472994,144.87838547664438,0.00321142815519055,34.5715113537972,0.0,0,0,0,0
0.6899999999999977,0.0,1,1,1,1,1,1,1,1,0.0,0.0,0.0,0.05718123184029085,-0.01235276011328783,0.007491076594976556,-0.004583512024099283,-0.006553114262631137,0.0015308281596243308,0,0.07073001503190746,0.0,0.15073982496651528,144.51746908914515,0.00032734170466793347,34.57295982659427,0.0,0,0,0,0
0.6999999999999886,0.0,1,1,1,1,1,1,1,1,0.0,0.0,0.0,0.05752178189369338,-0.012676304019647524,0.007684964467609739,0.003432858875819899,-0.007426856619282938,0.008594325955363635,0,0.07422569435954687,0.0,0.15208685943468883,145.17274915082538,0.0004915198356339606,34.57395944021404,0.0,0,0,0,0
0.7119999999999891,0.0,1,1,1,1,1,1,1,1,0.0,0.0,0.0,0.05782705643208748,-0.012954657019709997,0.00835902327932683,-0.003509619615925891,0.001880118764384349,-0.0012322126419018315,0,0.07705226568165906,0.0,0.14941640909315773,145.76607010246332,0.001855039118724599,34.575754983897035,0.0,0,0,0,0
0.72199999999998,0.0,1,1,1,1,1,1,1,1,0.0,0.0,0.0,0.05817026460097323,-0.0135269109751722,0.007896255375565563,-0.004654290053014623,0.0007310784835063036,0.0010088848299142387,0,0.07534596367888888,0.0,0.15083052433865865,145.46880306454662,0.0014742084871586965,34.576241949906944,0.0,0,0,0,0
0.7320000000000277,0.0,1,1,1,1,1,1,1,1,0.0,0.0,0.0,0.0577788504525989,-0.013806632324672875,0.007789102332708284,-0.0020066066502800596,0.00219811530193467,-0.004979161339021493,0,0.0745769573981595,0.0,0.15150010155989538,145.182408699041,0.0016718514268319468,34.5773234168933,0.0,0,0,0,0
0.7420000000000186,0.0,1,1,1,1,1,1,1,1,0.0,0.0,0.0,0.057855148759068116,-0.014428602204152608,0.0075797604284563265,0.0006885432035840112,0.005333224994776269,0.0002739929391274787,0,0.0750649285485704,0.0,0.1496151350143441,145.20672148944158,0.0032103316163928884,34.58067115312207,0.0,0,0,0,0
0.7520000000000095,0.0,1,1,1,1,1,1,1,1,0.0,0.0,0.0,0.05811267870908528,-0.014661826003497861,0.007549502740492725,0.0007249845690716749,-0.0030707328938637288,-0.0056300723431392564,0,0.07538267414058421,0.0,0.14900947625368136,145.04064704592693,0.00171553831205817,34.582294830514,0.0,0,0,0,0
0.7599999999999909,0.0,1,1,1,1,1,1,1,1,0.0,0.0,0.0,0.05870828978251814,-0.014987980597303836,0.007444827655785074,-0.005629423483870444,-0.002855942071202285,-0.0006432229582772945,0,0.07521259992449057,0.0,0.15032846243555112,144.89239918230405,0.0017033132955408536,34.58441646127846,0.0,0,0,0,0
0.7719999999999914,0.0,1,1,1,1,1,1,1,1,0.0,0.0,0.0,0.05785824114194606,-0.014110084028294266,0.0073266259884646745,-0.004388001711306173,0.002559288153311048,0.004419815395271259,0,0.07499952549369214,0.0,0.14981691549468412,145.2047285009317,0.0013764405085429018,34.58397816183346,0.0,0,0,0,0
0.7819999999999823,0.0,1,1,1,1,1,1,1,1,0.0,0.0,0.0,0.05807798263052711,-0.013432712631264214,0.007245684361407648,-0.0052540214983187155,0.0014561088440256096,0.004946368016749291,0,0.07793178176032603,0.0,0.14979760153463845,145.34663172716964,0.0011421949434913606,34.584209163081894,0.0,0,0,0,0
0.7900000000000205,0.0,1,1,1,1,1,1,1,1,0.0,0.0,0.0,0.05887198260634307,-0.01309520988762841,0.007125163850167865,-0.004227852782188227,0.0018914312649673237,-0.007458428946857998,0,0.07674010160110291,0.0,0.15102264239999716,144.76062095364367,0.0016551817242285646,34.58593906768477,0.0,0,0,0,0
0.8000000000000114,0.0,1,1,1,1,1,1,1,1,0.0,0.0,0.0,0.0585916226244915,-0.013056205533599307,0.006829115917894019,-0.0030302959596606423,-0.0032576661453667063,-0.0026138024186841326,0,0.07457250385698072,0.0,0.15012566032812233,145.3014481384775,0.0014612379719354043,34.58567086282868,0.0,0,0,0,0
0.8100000000000023,0.0,1,1,1,1,1,1,1,1,0.0,0.0,0.0,0.05806571871937365,-0.013302135133702113,0.006624956748985071,0.004946345649149214,0.0009820886747151849,-0.007112700103899261,0,0.07765902171365406,0.0,0.15124726253281207,145.00417127043613,0.0023413212502261423,34.58757289848258,0.0,0,0,0,0
0.8220000000000027,0.0,1,1,1,1,1,1,1,1,0.0,0.0,0.0,0.05789118616992884,-0.013496509735408783,0.005981475921716332,-0.004346890891052579,-0.0017546401396006587,-0.008349213514433351,0,0.07995484480479506,0.0,0.14922327773801017,145.07484304233571,0.001033080556412505,34.58806757998885,0.0,0,0,0,0
0.8319999999999936,0.0,1,1,1,1,1,1,1,1,0.0,0.0,0.0,0.058387620952111814,-0.013628221241786385,0.005992077120250608,-0.00042514640019721044,0.0024421639278510736,-0.0011323193625961611,0,0.0737763269171012,0.0,0.14975285198662877,145.06756091357593,0.0012851977557367979,34.588688959104374,0.0,0,0,0,0
0.839999999999975,0.0,1,1,1,1,1,1,1,1,0.0,0.0,0.0,0.05757344216508544,-0.013353670724101393,0.005825467798124113,-0.006778271506440324,-0.0012715688958434613,0.0044973623770316285,0,0.07392480058931723,0.0,0.15052870062402515,145.5814824179779,0.001011749711002631,34.588043662459526,0.0,0,0,0,0
0.8500000000000227,0.0,1,1,1,1,1,1,1,1,0.0,0.0,0.0,0.05796758864738735,-0.013350420739101263,0.006140600429802889,0.0016426473528694337,0.0018284887027398607,-0.00047045063934348134,0,0.07233467883384728,0.0,0.15053101010874953,145.6485081909413,0.0019971273274462034,34.58892165832738,0.0,0,0,0,0
0.8600000000000136,0.0,1,1,1,1,1,1,1,1,0.0,0.0,0.0,0.05780486568196592,-0.014141456860992779,0.006624068480439041,-0.0006840728843179331,-0.003709765820341999,0.0025607280796873296,0,0.07407940178329961,0.0,0.14964356623649308,145.19604123864542,0.002410394028068405,34.59053547341305,0.0,0,0,0,0
0.8700000000000045,0.0,1,1,1,1,1,1,1,1,0.0,0.0,0.0,0.057304000408137094,-0.014214767904469912,0.006649500819615484,0.0009746511192858257,-0.0016146354695044734,-0.0016121918521074937,0,0.07317294958755757,0.0,0.15004535154447113,144.78501941539855,0.001318610514042775,34.59234710106231,0.0,0,0,0,0
0.8799999999999955,0.0,1,1,1,1,1,1,1,1,0.0,0.0,0.0,0.05752357396718364,-0.014338779380908943,0.006698426781973431,-0.0017461475266596829,0.0010163812230126433,-0.0019220959789927677,0,0.072321363534441,0.0,0.14970396740816141,145.17422830949786,0.0014663085226361249,34.593166069405406,0.0,0,0,0,0
0.8899999999999864,0.0,1,1,1,1,1,1,1,1,0.0,0.0,0.0,0.0574259468244387,-0.013886664941707497,0.006720571362116085,0.007832043944255062,0.001765349337195337,-0.006216300328679633,0,0.07643981545112206,0.0,0.15149300685809455,145.6037280713269,0.0008791114973177028,34.59487777592774,0.0,0,0,0,0
0.8999999999999773,0.0,1,1,1,1,1,1,1,1,0.0,0.0,0.0,0.0576463174040894,-0.013653826505920263,0.006217745609410763,-0.004140829149431869,-0.003041595077166284,-0.004127794894083402,0,0.07758285930002733,0.0,0.15016626942192038,145.19919072991877,0.0005668165731270922,34.59453918623697,0.0,0,0,0,0
0.910000000000025,0.0,1,1,1,1,1,1,1,1,0.0,0.0,0.0,0.0576160461591276,-0.013959096731124217,0.0061294426660474565,-0.00043731657380726915,-0.0012925657975294158,-0.00015122572084592131,0,0.0723831263895608,0.0,0.14989955240543734,144.90159730690067,0.0020345400405544466,34.59479189051514,0.0,0,0,0,0
0.9220000000000255,0.0,1,1,1,1,1,1,1,1,0.0,0.0,0.0,0.05792614379322023,-0.013766166147209498,0.006846986938970616,-0.0032380511912352577,0.0019307101425918047,-0.0008065718209908987,0,0.07457068146440286,0.0,0.15023899890888767,145.63394248894573,0.004433938873562457,34.59924884941683,0.0,0,0,0,0
0.9300000000000068,0.0,1,1,1,1,1,1,1,1,0.0,0.0,0.0,0.05723048514351194,-0.013549747470004824,0.0063737905414235465,0.0012600019516427975,0.004564860038140601,0.0019704446853706452,0,0.0736105491691237,0.0,0.15038998330507072,145.39757317464858,0.0011839602688719433,34.600108287973555,0.0,0,0,0,0
0.9420000000000073,0.0,1,1,1,1,1,1,1,1,0.0,0.0,0.0,0.05680638542637425,-0.013471128309848836,0.006221338730975755,0.0008371369881166904,0.004858938320514173,0.002639499062096886,0,0.07156703092997371,0.0,0.14993424343544143,145.76101989349405,0.0012638519251546056,34.59773681640738,0.0,0,0,0,0
0.9519999999999982,0.0,1,1,1,1,1,1,1,1,0.0,0.0,0.0,0.05728300676542608,-0.012910286656809598,0.006645509527437142,-0.005543804011318869,-0.005462823596419246,-0.0014194559393551265,0,0.07462861473166818,0.0,0.15083052423210988,145.57146013801326,0.0024517208007409606,34.597874404157395,0.0,0,0,0,0
0.9619999999999891,0.0,1,1,1,1,1,1,1,1,0.0,0.0,0.0,0.057076875270892426,-0.012907892180793403,0.006531487534689939,-0.0009666026606665373,0.006702130358243222,0.00029210678219263346,0,0.07119604030868056,0.0,0.15072345242455865,145.6359872573451,0.0021618123613851153,34.59970909579834,0.0,0,0,0,0
0.9700000000000273,0.0,1,1,1,1,1,1,1,1,0.0,0.0,0.0,0.05703359069629234,-0.013138184194334972,0.006180726369992336,-0.0028526526289231985,0.0006525782343156182,-5.269686722775284e-06,0,0.0706261795582497,0.0,0.1509416204333394,145.95895678543746,0.0010065002543668856,34.60074267790344,0.0,0,0,0,0
0.9820000000000277,0.0,1,1,1,1,1,1,1,1,0.0,0.0,0.0,0.05666587814806506,-0.013107781608842371,0.006204667647104536,0.0009132383292280605,0.001357932161408831,-0.007034510201845834,0,0.07475292138896177,0.0,0.15050533962488327,145.83111908240235,0.0017591034106024944,34.60200330593959,0.0,0,0,0,0
0.9920000000000186,0.0,1,1,1,1,1,1,1,1,0.0,0.0,0.0,0.056718673859239184,-0.012965565456286503,0.006292191129331606,-0.0008595485449479506,0.0012673545925021065,-0.00713236842468197,0,0.07664906320366724,0.0,0.15055543475669944,145.42247843052024,0.0014120943828786238,34.60350580520988,0.0,0,0,0,0
1.0,0.0,1,1,1,1,1,1,1,1,0.0,0.0,0.0,0.05721245249822799,-0.013012739753746555,0.006045666122388072,0.004017443255832244,0.0004815631027237624,-0.005210683183764638,0,0.07665210971497424,0.0,0.1508941994428508,145.42344615690732,0.0004197857870939792,34.604304850925224,0.0,0,0,0,0
1.0120000000000005,0.0,1,1,1,1,1,1,1,1,0.0006851251734599824,0.0,0.011333090717607519,0.05767914296420143,-0.012848283390701633,0.005893015641401387,0.006753586374070085,0.000703842731815098,0.0005691159272940919,0,0.08149895781005016,102.96558492656482,0.15021416376970592,145.52523373111433,0.00023276768310100115,34.604002016665035,0.0,0,0,0,0
1.0219999999999914,0.0,1,1,1,1,1,1,1,1,0.010275437251742717,0.0,0.022664725778255,0.05761141070095704,-0.013182408670747466,0.0056335305493778395,-0.007541846420827702,0.0010666668191559607,0.0038338651098723756,0,0.07995575763253546,44.54028371122002,0.14948145863622017,145.40600165308302,0.0006349118807080119,34.60404811207803,0.0,0,0,0,0
1.0319999999999823,0.0,1,1,1,1,1,1,1,1,0.019900560422213585,0.0,0.033993449711951444,0.05753306702985298,-0.013353591774312692,0.005406193325441977,0.0012189207746022166,-0.000707537589592694,0.0016077134221087143,0,0.08209024451857412,25.02223632972119,0.14857405161910114,145.29230906954055,0.0006331938092851604,34.60420292654838,0.0,0,0,0,0
1.04200000000003,0.0,1,1,1,1,1,1,1,1,0.029548009791663336,0.0,0.04531780742261994,0.0576665499345471,-0.01326200896326838,0.005444650697087796,-0.004332051417464571,-0.0043341424789893924,-0.0006807276892593564,0,0.08512985148510692,17.773335127764227,0.1501555130195876,145.2777023140716,0.0006660328378936646,34.60384843721877,0.0,0,0,0,0
1.052000000000021,0.0,1,1,1,1,1,1,1,1,0.039206906594307894,0.0,0.05663634437499468,0.05870397567533234,-0.01315376545121385,0.006486237880743632,-0.0013848111711279006,-0.001998593031068936,0.011094090549126837,3,0.08480780232836241,13.814787568437703,0.15040850759558336,145.6136226589421,0.0027473496551046993,34.60669822820529,0.0,0,0,0,0
1.0620000000000118,0.0,1,0,0,1,1,1,1,1,0.04879451476205026,0.0,0.06794760678144589,0.05939784610805703,-0.012441335592295658,0.0070341928024038915,-0.0036037911654296937,-0.00619018730825308,0.010708815498327057,3,0.07786102354215499,11.145658672770573,0.15020937774306412,145.60532140365152,0.0018475131470937767,34.6115995282779,40.0,0,0,0,0
1.0720000000000027,0.0,1,0,0,1,1,1,1,1,0.05843818466256187,0.0,0.07925014178870882,0.06288770063679319,-0.012394885083968509,0.005769213276702679,0.00650159523104767,-0.01941356772138293,0.014017646639096264,3,0.08012350479855765,9.687885638568416,0.14543401325044752,146.46971961295816,0.0004391087597171335,34.61476489164861,50.0,0,0,0,0
1.0819999999999936,0.0,1,0,0,1,1,1,1,1,0.06806780905185295,0.0,0.09054249766449267,0.07936082079547095,-0.004975394989844584,-0.0003823244603027231,0.0331436764696123,-0.010133060028830885,0.053824225636000075,3,0.0663311129461072,12.384122123314597,0.13261136451385938,147.086494357694,0.00802588729707052,34.64731431218257,50.0,0,0,0,0
1.0919999999999845,0.0,1,0,0,1,1,0,1,1,0.07769111650461412,0.0,0.1018232239839455,0.08472231586344467,0.005768286826159638,0.0013812634881620507,0.03831385153394358,0.21679318761645228,0.08579483389261625,3,0.043697246543646075,10.523454047672894,0.13760975434882972,150.5787614108474,0.020353561688949903,34.69292729428119,40.0,0,0,0,0
1.1019999999999754,0.0,1,0,0,1,1,0,1,1,0.08732248099199197,0.0,0.11309087181595134,0.09199078040408273,0.015391657604133057,-0.009773769588786336,0.27570083833771264,0.3088576548455148,0.13374432555419635,3,0.025822067046221385,7.273019068900737,0.11710888560599779,150.23825860645348,0.06420464593343722,34.76834083596499,25.0,0,0,0,0
1.1120000000000232,0.0,1,0,0,1,1,0,1,1,0.09693337966814977,0.0,0.12434399390923524,0.10019706457146758,0.016930278056876812,-0.023732964453416494,0.20231703777778337,0.14916793825267008,0.2045427916203753,3,0.07850276756236094,10.633587939482014,0.13718392694226783,138.9417740988035,0.1034010393410992,34.926193641277806,25.0,0,0,0,0
1.122000000000014,0.0,1,0,0,1,1,0,0,1,0.10656409355836718,0.0,0.13558114487825274,0.10551747726975837,0.005236351126147915,-0.033009767638547724,-0.010588740796700014,0.049122125220700565,0.27688839824850203,3,0.12629148824151967,10.35839940114753,0.14153064992169698,133.93981228094012,0.17212618955549258,35.1671435100529,5.0,0,0,0,0
1.132000000000005,0.0,1,0,0,1,1,0,0,1,0.11617808502887518,0.0,0.1468008813888396,0.08403354755885872,-0.0015497653030359657,-0.022898569805964806,-0.32872849390289244,0.0817395133952155,0.3046529342996192,3,0.1804178983201194,8.279733554749296,0.12398358395473434,150.49770520742618,0.08179581659045088,35.39202724742246,0.0,0,0,0,0
1.141999999999996,0.0,1,0,0,1,1,0,0,1,0.12576704346412934,0.0,0.1580017623435981,0.07610578997657347,0.002338175743661075,-0.020713411865797275,-0.43099205291938214,-0.0022959427093426823,0.26956909833216686,3,0.17782858146818445,5.1116588300343455,0.09455276065193473,164.56962227515643,0.14547165053962963,35.32884027664621,0.0,0,0,0,0
1.1519999999999868,0.0,1,0,0,1,1,0,0,1,0.1353595353984634,0.0,0.169182349066996,0.06568764772929414,0.01790508667571219,-0.017345742529277324,-0.22365600457083784,-0.13723056983334556,0.22220900634907786,3,0.15142882639019345,3.228920295625658,0.08533493961002375,164.0959103800611,0.16443427521080028,35.204981785194924,0.0,0,0,0,0
1.1619999999999777,0.0,1,0,0,1,1,0,0,1,0.14500215588167495,0.0,0.18034120549015434,0.04695996522362461,0.022992604402308207,0.007983971561784263,-0.14978442840851341,-0.12367893351264617,0.16101574172905805,3,0.12828017478623116,2.7461957188175687,0.0933329995374515,167.6383875330458,0.18548679096465998,35.06577033120011,0.0,0,0,0,0
1.1720000000000255,0.0,1,0,0,1,1,0,0,1,0.15458587151358527,0.0,0.19147689833530074,0.021512353622149094,0.020901105873970267,0.03668587038296795,-0.18212579918762928,-0.10348244078976757,0.12186465681970471,3,0.19814774472826904,2.3377055760899594,0.09356253376083698,173.3692731056129,0.12278207734790522,34.97298925685574,0.0,0,0,0,0
1.1820000000000164,0.0,1,0,0,1,1,0,0,1,0.16417515152327078,0.0,0.20258799729986382,0.016509693654993406,0.02105836845859306,0.04446721974604428,-0.15772740327263213,-0.1908768007849165,0.1547462674067796,3,0.21667158664589606,2.756871828293076,0.09681256760417119,167.77984076830032,0.028373745798613348,35.047565331127366,0.0,0,0,0,0
1.1920000000000073,0.0,1,0,0,1,1,0,0,1,0.17376213162770202,0.0,0.21367307524018572,0.01586161306117441,0.020971949421333156,0.04310751378020986,-0.30608314845424245,-0.3324121542315313,0.13396714954578962,3,0.24428055882329067,2.9945697314538426,0.09706520666632559,161.7789191951206,0.08680353976934808,35.0904579127607,0.0,0,0,0,0
1.2019999999999982,0.0,1,0,0,1,1,0,0,1,0.18332800354758685,0.0,0.22473070835482883,-0.001349120947765923,0.03338407395923655,0.044522007527922104,-0.3198905749850396,-0.37830913338799566,0.12343288589477097,3,0.29809618808298133,3.0638052362247303,0.0997106624553374,158.94278432319953,0.06117006643128575,35.11693230828493,0.0,0,0,0,0
1.211999999999989,0.0,1,0,0,1,1,0,0,1,0.19288754963275426,0.0,0.23575947636745317,-0.020184613360498562,0.03748370124360796,0.05017313362994041,-0.5081041293258446,-0.293456624813328,0.18885691778128996,3,0.30764196025633617,3.2669048360476567,0.10887234613001058,160.18539094467275,0.07607524562071317,35.24230328264646,0.0,0,0,0,0
1.22199999999998,0.0,1,0,0,1,1,0,0,1,0.20247011017913888,0.0,0.2467579627092411,-0.031204743563483944,0.04002253168623424,0.059508734786692566,-0.7517066551471344,-0.18324613391269656,0.21099154181881613,3,0.30003975023824137,3.9562732430993117,0.12095766840843351,162.7834834544874,0.0369713500157009,35.40724653037975,0.0,0,0,0,0
1.2320000000000277,0.0,1,0,0,1,1,0,0,1,0.21203270426298698,0.0,0.2577247547008456,-0.0370887057754226,0.04832544828431919,0.06096683497432505,-0.9036118387141688,-0.2615751767704279,0.2867641422775205,3,0.30748847847002503,3.8439101133362668,0.11548583451847716,166.26708224194576,0.1773967638267661,35.6085155421941,0.0,0,0,0,0
1.2420000000000186,0.0,1,0,0,1,1,0,1,1,0.22159736911233716,0.0,0.2686584437338395,-0.03450269370680508,0.05791081090803968,0.06623967675852517,-0.5600215290893743,-0.332181707125235,0.3717055748854212,3,0.3795963769024467,3.717259172446435,0.12155243102602908,179.60527947651704,0.29278393323843976,35.98797548801076,15.0,0.0,0.0,0.11999999999999998,0.0
1.2520000000000095,0.0,1,0,0,1,1,0,1,1,0.23114420877314243,0.0,0.27955762545164115,-0.029993589995496017,0.049591752159390906,0.0805166995198026,-0.03917691880495054,-0.07502350875218451,0.4945153887922248,3,0.483775949033587,3.4007247709435022,0.12708778231083553,217.0842115897824,0.6667272592273034,36.53184204514444,25.0,0,0,0,0
1.2620000000000005,0.0,0,1,1,0,1,0,1,1,0.24066884862567342,0.0,0.29042089992989434,0.04137469920690223,0.02625505398343667,0.10899494244441622,-0.023072478080955895,-0.1473101884012237,0.4950185065766518,3,0.48800835933986386,7.878957748911674,0.16396712015120796,212.89364296036865,0.310230521157018,36.92767566066611,75.0,0,0,0,0
1.2719999999999914,0.0,0,1,1,0,1,0,1,1,0.25020850295762115,0.0,0.301246871856279,0.12313481660948875,0.011116390871497689,0.1278461417202054,0.35744956435315794,-0.3618982456638246,0.40475234899241574,3,0.3163405498133633,5.424849597408579,0.15094186881440447,226.71307627020056,0.4624417437825121,36.64150634977004,75.0,0,0,0,0
1.2819999999999823,0.0,0,1,1,0,1,0,1,1,0.25974147246854723,0.0,0.31203415070972934,0.17010875565021458,0.018768344237471857,0.1256471827254276,0.5171297708140083,-0.47386392382902176,0.2688536576912873,3,0.15287304830201467,4.276395924500122,0.1361316804667542,219.23356245221711,0.5357664787186772,36.17631073730126,75.0,0,0,0,0
1.29200000000003,0.0,0,1,1,0,0,1,1,1,0.26924794411853553,0.0,0.3227813509390366,0.19608031537294296,0.001199007499411073,0.09115250724364982,0.8479036415637455,-0.4003296825384983,0.2331360681932417,3,0.16290286086942624,2.5494108051173052,0.09508204717864417,188.23255939929172,0.10378350301147088,36.04966450867088,50.0,0.0,0.20000000000000004,0.0,0.0
1.302000000000021,0.0,0,1,1,0,0,1,1,1,0.27876799090731624,0.0,0.33348709214081335,0.20254243585356216,-0.0264809134351754,0.05542935113534676,-0.029233466993148216,-0.313027132683194,0.152299477103743,3,0.2325780389372781,2.1951593420469293,0.08200124487097156,172.18169229597453,0.11078223209440041,35.91309416920874,25.0,0,0,0,0
1.3120000000000118,0.0,0,1,1,0,0,1,1,0,0.28824827859393765,0.0,0.3441499992367973,0.20506577205624035,-0.03971680865402554,0.02387987636059009,-0.1355675909792666,-0.23835052826483502,0.19193429143175517,3,0.28570349283863045,2.2308137981550535,0.09055906886195765,128.2135930995544,0.07281931961479693,35.876836453153985,20.0,0,0,0,0
1.3220000000000027,0.0,0,1,1,0,0,1,1,0,0.2977543952490681,0.0,0.35476870265046984,0.2025058426408777,-0.034607556010223736,-0.0066872529330594295,0.362484167155341,-0.12798108175628192,0.23257754241087886,3,0.256488354890469,3.732901027010333,0.10423729670022677,118.31396759343654,0.10292536124121021,36.01716748857809,0.0,0,0,0,0
1.3319999999999936,0.0,0,1,1,0,0,1,1,0,0.3072357815771749,0.0,0.36534183848296914,0.20667102712595556,-0.02547574176118203,-0.02958691006272671,0.5565801807549094,0.011260956880355916,0.27548353924336716,3,0.22588117448879902,4.032110171066853,0.09872573144675334,130.55437346687592,0.21101325648066216,36.10441493017788,0.0,0,0,0,0
1.3419999999999845,0.0,0,1,1,0,0,1,1,0,0.3167005288318485,0.0,0.3758680486882735,0.18869488931877307,-0.019110787406380145,-0.03988523155301529,0.6009772261230285,0.13930042828456013,0.3284466678073662,3,0.20005570339479065,1.7709010309120026,0.08948477765327509,129.4605053042992,0.2451202575200393,36.14702784186532,0.0,0,0,0,0
1.3519999999999754,0.0,0,1,1,0,0,1,1,0,0.32616616226996137,0.0,0.3863459812476326,0.1705432394942612,-0.027071660784627923,-0.03415026630245329,0.42297555238563117,0.22525542597026824,0.36150415302146793,3,0.20819061116624646,1.4830582783114035,0.08536265997952527,128.31815900465818,0.16500926326897214,36.16795568460631,0.0,0,0,0,0
1.3620000000000232,0.0,0,1,1,0,0,1,1,0,0.3355967666582077,0.0,0.3967742903432252,0.16921279498735642,-0.03528042311608378,-0.028937854240627465,0.20765618099359084,0.2908330368568628,0.3915847048596941,3,0.20731688628406766,1.2123565883060199,0.08297128982219247,137.63072159576998,0.2123286165032905,36.26587148480916,0.0,0,0,0,0
1.372000000000014,0.0,0,1,1,0,0,1,1,0,0.3450514957252261,0.0,0.40715163653102027,0.18223742164547846,-0.030606015035976267,-0.01108186181006428,0.09894610694139903,0.21838287085660513,0.3961884150561702,3,0.20781444229870538,1.5626856183920712,0.0982508732304161,138.6350982569014,0.11046770520977223,36.27309991468691,0.0,0,0,0,0
1.382000000000005,0.0,0,1,1,0,0,1,1,0,0.3544632090815464,0.0,0.41747668691281886,0.2033741017081614,-0.01811459905445846,-0.0028722409064734235,0.12857675235393087,0.026022591915502824,0.35632899298419723,3,0.21586373152635022,2.5090009153719577,0.11919791606902315,135.79794852951466,0.11184184344452008,36.18277774416822,0.0,0,0,0,0
1.391999999999996,0.0,0,1,1,0,0,1,1,0,0.36388175034648607,0.0,0.42774811530745593,0.2289649894183735,-0.015456856207029857,0.007939658225666476,0.17431172023469033,-0.15664452810409873,0.3032133859963857,3,0.2570476619008816,2.9780810282632824,0.12167750444997125,141.07260664336985,0.13040943796798432,36.00050925173737,0.0,0,0,0,0
1.4019999999999868,0.0,0,1,1,0,0,1,1,0,0.37329733909898444,0.0,0.4379646024211392,0.24181376154537812,-0.019025834281644463,0.014774488138353562,0.32783896707044335,-0.27730048886722064,0.29188238017655066,3,0.2945760753461729,4.112499008533047,0.12644279902330796,145.12839302398328,0.07473671516174707,35.895170589352645,0.0,0,0,0,0
1.4119999999999777,0.0,0,1,1,0,0,1,1,0,0.38268972268183854,0.0,0.448124836016903,0.26037298803675735,-0.01831556435467996,0.027471168520529263,0.35572161412309256,-0.3917831689106796,0.3364016851684219,3,0.2698729058593493,4.096099506555692,0.11632888982143323,150.2356564529662,0.21234736441998336,36.07128770723567,0.0,0,0,0,0
1.4220000000000255,0.0,0,1,1,0,0,1,1,0,0.39205573758171736,0.0,0.45822751108315624,0.2780916335356286,-0.022998223649600653,0.04104915226365071,0.26345703754467115,-0.5418695705943835,0.3744418339535952,3,0.2330590930600862,3.760634263462122,0.10716521512023494,162.74670787531676,0.1938291781272261,36.324015125606685,0.0,0,0,0,0
1.4320000000000164,0.0,0,1,1,0,0,1,1,0,0.40143598217693327,0.0,0.46827133000130206,0.29284466521882035,-0.02747904896480575,0.06466287291571718,0.10159186994329833,-0.5760916947465032,0.41560042507526973,3,0.2071471038430615,3.5338908442855916,0.10939372020645174,175.38518945074344,0.19431684659783666,36.58958796182884,0.0,0,0,0,0
1.4420000000000073,0.0,0,1,1,0,0,1,1,0,0.4107892597878257,0.0,0.47825500271240795,0.3042577280752473,-0.03625013474332749,0.07411142168113889,0.14732800187608003,-0.5444720560698091,0.44357784600716965,3,0.17829079607508208,3.3283478348626803,0.1148394323187393,187.6332006764136,0.11784601329265243,36.935001176953755,0.0,0,0,0,0
1.4519999999999982,0.0,0,1,1,0,0,1,1,1,0.4201309075698921,0.0,0.4881772468829048,0.3033326560585414,-0.04665275332172601,0.07519080181637199,0.15771804666205488,-0.34838708470040425,0.4519328543567003,3,0.18358181448848526,2.704098054593899,0.11081283103548026,198.19579176959172,0.11522376182942451,37.138773376136726,5.0,0.0,0.0,0.0,0.13999999999999999
1.461999999999989,0.0,1,0,0,1,0,1,1,1,0.4294475074445167,0.0,0.4980367880692938,0.2449612119210928,-0.04228066125846738,0.1152186171963108,-0.39572801749230985,0.3623151010442359,0.30074079677883453,3,0.3139414264639764,2.2581601364985353,0.10656511698059927,246.9130553204389,0.998242490221566,36.7401762080105,75.0,0,0,0,0
1.47199999999998,0.0,1,0,0,1,0,1,1,1,0.4387758681242576,0.0,0.50783235988184,0.23365154200790736,-0.018045809500125402,0.14159726578151463,-0.5447593999401703,1.0061133514291627,0.10440518622762227,3,0.5709296746941134,3.933163963401936,0.12778535897932594,256.6873783489754,0.657206615140135,35.966108220567,75.0,0,0,0,0
1.4820000000000277,0.0,1,0,0,1,1,1,1,1,0.4480725927546883,0.0,0.517562704147231,0.3960526175770404,0.0024723489009004385,0.18603582360059828,0.3911963080455013,0.5178589514119432,0.08605433568198209,3,0.5551500973760847,11.668143201602517,0.18660425204662334,242.17980260857422,0.3956808518897942,36.33819706690962,55.0,0.19000000000000003,0.0,0.0,0.0
1.4920000000000186,0.0,1,0,0,1,1,0,1,1,0.4573476390555673,0.0,0.527226571070181,0.4926386754298582,0.018943061149787534,0.25488364454538975,0.9757078152256702,0.36149400127619596,0.20072278143113584,3,0.436122649564072,12.066138404250985,0.28610518819425695,302.93363027374863,0.5250591375578637,37.29208096314969,35.0,0,0,0,0
1.5020000000000095,0.0,1,0,0,1,1,0,1,1,0.4666186334383343,0.0,0.5368227193939581,0.5347771917540881,0.008495101607522492,0.33537909319263826,0.7238169794017169,0.3190196594637813,0.6246145255943482,3,0.192303848044099,9.024212678458628,0.21579933905025844,311.6713844389938,2.0582327073760753,39.290988180759875,25.0,0,0,0,0
1.5120000000000005,0.0,1,0,0,1,1,0,0,1,0.4758746435325106,0.0,0.546349916559815,0.5163901271672737,-0.030154968084742006,0.3276055430065513,0.08026124507295314,0.3416161647694945,0.9710464116484825,3,0.362992538543031,3.9849516947474273,0.1717928708285407,343.1552322645513,2.9659946480751582,42.71645135319474,15.0,0,0,0,0
1.5219999999999914,0.0,1,0,0,1,1,0,0,1,0.4851136110916733,0.0,0.5558069388653027,0.5483679024263407,-0.05422731967754262,0.2890262138974162,-0.4829613089897021,-0.14240444133688687,1.0340409881757333,3,0.5860458724203308,1.6882132103635534,0.09086770323382998,174.76055446613975,1.0620538324824809,45.3352192550933,0.0,0,0,0,0
1.5319999999999823,0.0,1,0,0,1,1,0,0,1,0.49435085072816476,0.0,0.5651925716214471,0.558041566745017,-0.04247890760532141,0.23184709017314079,-0.3251499960193288,-0.268490172847523,0.9081964606198165,3,0.5064714695888317,1.4991561802064948,0.061452738631940305,84.05709683607978,1.7940805238484705,44.85375482733285,0.0,0,0,0,0
1.54200000000003,0.0,1,0,0,1,1,0,0,1,0.5035460689257688,0.0,0.5745056093087666,0.5283358113769915,-0.035217075390365525,0.18452085171294985,-0.4030121570183072,-0.06538474318245155,0.7310045220581098,3,0.32206521548907985,0.8878873451104905,0.07193075540052515,76.87838272012708,2.2796952692009764,43.485829265178964,0.0,0,0,0,0
1.552000000000021,0.0,1,0,0,1,1,0,0,1,0.5127523199266488,0.0,0.583744855732113,0.5091871904836871,-0.03169122920246577,0.13969495769164877,-0.17498586550702155,-0.006024625440562446,0.5362321601416157,3,0.09770081167270331,0.2652318495909797,0.05091548681732785,75.39226601806999,1.8666284806219742,41.75838920334285,0.0,0,0,0,0
1.5620000000000118,0.0,1,0,0,1,1,0,0,1,0.5219180137828661,0.0,0.5929091241743148,0.5073825999693095,-0.037876031239358,0.0674415022378439,0.18845607170976605,0.16223668981178688,0.4403539113426657,3,0.1629024063419358,0.2175972967151099,0.04312455829069174,62.054980578027404,0.7422842126379514,40.90692515773849,0.0,0,0,0,0
1.5720000000000027,0.0,1,0,0,1,1,0,0,1,0.5310772420261048,0.0,0.6019972375486027,0.5156636657635852,-0.042237322814325774,-0.00761991970267219,0.33712373118359495,0.28434203644065775,0.39603714606130425,3,0.24105701151432188,0.35976549411556735,0.044737697638430635,56.991591804452334,0.22680232346913298,40.70852182544876,0.0,0,0,0,0
1.5819999999999936,0.0,1,0,0,1,1,0,0,1,0.5402152808340072,0.0,0.6110080285497975,0.523781086197054,-0.05291843678971961,-0.07016069219309366,0.31881791877218907,0.4084472931659405,0.4468575415271525,3,0.25661455944643635,0.8186536091253087,0.07297915183007529,55.14571374676552,0.35395824883461335,40.782385792983725,0.0,0,0,0,0
1.5919999999999845,0.0,1,0,0,1,1,0,0,1,0.5493559867717264,0.0,0.6199403398042436,0.5455572420164256,-0.048423036268899065,-0.09220245777809187,0.13380885270752066,0.3414147955598412,0.5146627212209599,3,0.1877360558298006,1.242526390438249,0.08664535743175901,63.88091700982297,0.6294516317181276,41.234288783938226,0.0,0,0,0,0
1.6019999999999754,0.0,1,0,0,1,1,0,0,1,0.5584618551586195,0.0,0.6287930240184645,0.5604370453064094,-0.048512032269014634,-0.11959469205749074,0.021926402689543732,0.34865262417132337,0.627960095146054,3,0.09287656795331739,1.5492473175377282,0.09670521406638642,79.90157097514907,0.998587619650098,41.89693573814767,0.0,0,0,0,0
1.6120000000000232,0.0,1,0,0,1,1,0,0,1,0.567540488173991,0.0,0.6375649441265254,0.5842073451652262,-0.04807801759840992,-0.13367061298382737,-0.03913896213827862,0.3361864050343776,0.6842334869833333,3,0.09253021724199012,1.4454841475884668,0.10070692437488393,98.02042053426993,0.7598649303956178,42.58426955506112,0.0,0,0,0,0
1.622000000000014,0.0,1,0,0,1,1,0,0,1,0.5766097997394116,0.0,0.6462549734360812,0.5924746972805585,-0.044833615122791694,-0.15023803184746323,-0.13235474770555533,0.33042627270760516,0.7033420392886892,3,0.11348558041994605,1.4553476415986442,0.09130837655344219,100.39101382003109,0.375405384925771,42.76312214587777,0.0,0,0,0,0
1.632000000000005,0.0,1,0,0,1,1,0,0,1,0.585667719981121,0.0,0.6548619957730923,0.6041747049397819,-0.03849574208024237,-0.15544219175349228,-0.08652536380033739,0.26408763158002424,0.6894056078436687,3,0.11339831013480714,1.6417039971369198,0.10360889545507863,107.35964745977067,0.33959331469678933,42.81823174817472,0.0,0,0,0,0
1.641999999999996,0.0,1,0,0,1,1,0,0,1,0.5947106861914818,0.0,0.6633849056251895,0.6196690998665034,-0.034090193403787654,-0.1485412589715435,0.1353296290869431,0.23376350918986705,0.6121859225343137,3,0.07924441736776773,1.1646379062116317,0.09617195075299594,129.86078533172238,0.42219612946681817,42.33704016757721,0.0,0,0,0,0
1.6519999999999868,0.0,1,0,0,1,1,0,0,1,0.6037147654230673,0.0,0.6718226082836692,0.6500859068924001,-0.032702346970842594,-0.11285889156288594,0.384387993757778,0.4442134084543799,0.556188762656181,3,0.1623629516201339,1.564896505688012,0.12849313806945173,137.2654044995655,0.18272458400366176,41.905455793202954,0.0,0,0,0,0
1.6619999999999777,0.0,0,1,1,0,1,1,1,1,0.6127117176135282,0.0,0.6801740199841014,0.6597137105864208,-0.022440375270861818,-0.12858039060516452,0.11757241714470185,0.8512931172780668,0.5498265261330573,3,0.2196984935902561,1.18593230091265,0.089499848815255,135.68448706414375,0.4456362178342417,41.61481972770809,85.0,0.0,0.17,0.15,0.0
1.6720000000000255,0.0,0,1,1,0,1,1,1,1,0.6216998915416028,0.0,0.6884380680455319,0.6506171182663227,-0.013408464535323341,-0.06496343453102525,-0.12748417101320722,1.0618404570103133,0.6379012860694168,3,0.13515742151910728,0.5784166813094127,0.06371011450123745,195.77655210065936,0.7719748698769253,41.94813426231694,50.0,0,0,0,0
1.6820000000000164,0.0,0,1,1,0,1,1,1,1,0.6306546106906964,0.0,0.6966136910082599,0.6583354147421648,-0.003978415103386486,-0.05783459398358538,-0.07840728244531738,0.8037238415725285,0.658008911259005,3,0.0715796549575521,0.5002675828879792,0.07902722135981811,198.03754558271368,0.4715202163242127,42.08855730973409,50.0,0,0,0,0
1.6920000000000073,0.0,0,1,1,0,0,1,1,0,0.6395784446170024,0.0,0.7046998387701762,0.6665007638746497,-0.017272687107787347,-0.06540162157480693,-0.4357162728243525,0.4079640445045201,0.6466087020959115,3,0.09105662539091117,1.6364692723470142,0.1153686146257102,115.64502752115352,0.16783729230352407,41.97287843156594,15.0,0,0,0,0
1.7019999999999982,0.0,0,1,1,0,0,1,1,0,0.6485045129332987,0.0,0.7126954727216407,0.6677508070510597,-0.03309933050149741,-0.04879863572141758,-0.9738320236050273,0.08282715152455812,0.6969026669982364,3,0.08442861216697087,1.681680811774692,0.10584818889806527,139.23669976868655,0.48863116738062384,42.23029924481284,0.0,0,0,0,0
1.711999999999989,0.0,0,1,1,0,0,1,1,0,0.657387466577734,0.0,0.7205995658788853,0.6616505025830278,-0.04279783867826761,-0.04435780657616205,-0.8200387863426044,0.09448350949191875,0.7456880221111806,3,0.06656201947759854,1.7896937016175383,0.09980722249783688,174.9109595804054,0.4621253763787143,42.632917317701676,0.0,0,0,0,0
1.72199999999998,0.0,0,1,1,0,0,1,1,0,0.6662715519574177,0.0,0.7284111030159222,0.6446621310929713,-0.040001034247855415,-0.020492375505659934,-0.648897968952808,0.2674720703992117,0.8160696291683285,3,0.11618061686210204,1.3769600522259284,0.10543667937553496,189.84656577195935,0.6088676427582085,43.00471437195424,0.0,0,0,0,0
1.7320000000000277,0.0,0,1,1,0,0,1,1,0,0.6751238620409733,0.0,0.7361290807949432,0.6397241260222665,-0.03342332583360917,-0.0026937771565399386,-0.23320353114363968,0.3627039573360369,0.835799729325857,3,0.16727633033621456,1.3976334782535282,0.11942531442444912,190.76235477501248,0.20412312486506767,43.27740280611535,0.0,0,0,0,0
1.7420000000000186,0.0,0,1,1,0,0,1,1,0,0.6839431366852073,0.0,0.743752507895191,0.6609453400680521,-0.03423221578667881,0.02100691837974425,0.11106695390273649,0.3479747860137799,0.7702808364225888,3,0.12476304055876072,1.3311355495762087,0.1251440863634145,184.78708200146193,0.4393515861172981,43.05310111880228,0.0,0,0,0,0
1.7520000000000095,0.0,0,1,1,0,0,1,1,0,0.6927518297498739,0.0,0.7512804051402879,0.6748594051453315,-0.03815794918465703,0.032019935633980055,0.31142872525103543,0.15866189516688622,0.7042833867485403,3,0.08135715558040701,1.3786186302353307,0.13011889296935958,171.41088137114508,0.4552928478684759,42.408762111714665,0.0,0,0,0,0
1.7620000000000005,0.0,0,1,1,0,0,1,1,0,0.7015514558408339,0.0,0.758711805624004,0.7030783830435795,-0.04796704559625453,0.04016616154093753,0.44086654197379616,-0.0808874313128111,0.6253723404447473,3,0.15608140268318257,1.2013373408854224,0.12096520690520682,160.74966204605624,0.3912048855787855,41.93271393678957,0.0,0,0,0,0
1.7719999999999914,0.0,0,1,1,0,0,1,1,0,0.7103155472529964,0.0,0.7660457548344495,0.7126318482605681,-0.059034423872846686,0.03733893958641953,0.4190987223972604,-0.2176454032978013,0.6274085639914384,3,0.19474266986805575,1.140501330873381,0.10280925979831461,153.11924808340046,0.1460087997470776,41.86088428452536,0.0,0,0,0,0
1.7819999999999823,0.0,0,1,1,0,0,1,1,0,0.7190428824509911,0.0,0.7732813107766754,0.7063743391642644,-0.0655706154875572,0.03145371055867242,0.13633105451387442,-0.1632835599920212,0.6469917473340225,3,0.2046292942658814,1.4119343887475124,0.09085165156892963,142.35098791225994,0.15713544654457223,41.90799472252008,0.0,0,0,0,0
1.79200000000003,0.0,0,1,1,0,0,1,1,0,0.7277608983154249,0.0,0.780417544093666,0.6918059409968819,-0.05994424614300929,0.03533223358351128,0.0167460349590826,-0.11644577603155568,0.7439900484354351,3,0.16072596694793156,1.580070850466289,0.09062187719239381,130.67844958686163,0.7295416556851233,42.35208984812824,0.0,0,0,0,0
1.802000000000021,0.0,0,1,1,0,0,1,1,0,0.7364638230755455,0.0,0.7874535381857087,0.6850160726111966,-0.04983678005747351,0.04772622150054553,0.03239933324105752,-0.06782024084540345,0.8212183535915567,3,0.11598015670969464,2.194149893435604,0.10689610560132867,133.53777738800127,0.6733551536624631,43.03776568820912,0.0,0,0,0,0
1.8120000000000118,0.0,0,1,1,0,0,1,1,0,0.7451257110709212,0.0,0.7943883893281246,0.6787034517333863,-0.052786116546928157,0.05397772108776789,-0.04360328796612596,-0.054802549904724565,0.8342438867398785,3,0.1654773833102805,1.6193736976098916,0.10878175053939984,141.55735042004636,0.5607745455872433,43.56085809819515,0.0,0,0,0,0
1.8220000000000027,0.0,0,1,1,0,0,1,1,0,0.7537690727585536,0.0,0.8012212067873453,0.6623104267960198,-0.05040475476167441,0.0427470272185365,0.13610053070434142,-0.059346940065926994,0.7490400045228205,3,0.15582921074378284,1.0734936940714825,0.1199607934906747,142.39684878088548,0.9831112589847208,42.86995716966288,0.0,0,0,0,0
1.8319999999999936,0.0,0,1,1,0,0,1,1,0,0.7623946124906604,0.0,0.8079511129353224,0.6580681104658656,-0.05888092883556535,0.026492388046643257,0.21740942491091644,0.04211928177407846,0.668625832425654,3,0.26440364364364577,0.812582432025281,0.1106486821874482,137.98983779644485,0.7352242439310555,41.955630175819444,0.0,0,0,0,0
1.8419999999999845,0.0,0,1,1,0,0,1,1,0,0.7710058883428837,0.0,0.814577243362252,0.6573286407194341,-0.06901075760755132,0.0051994966010076304,0.14846270113534385,0.1449303133802992,0.6735204148640899,3,0.33174155871741356,0.7311387494244126,0.10172194808858645,138.33369778966454,0.4690691264644462,41.569157920166425,0.0,0,0,0,0
1.8519999999999754,0.0,0,1,1,0,0,1,1,1,0.7795635510846237,0.0,0.8210987469876023,0.6543205239797795,-0.08143937092840245,0.008706344770386912,-0.07570007530839615,0.2286265730666296,0.7498452161478828,3,0.29580672727601137,0.5470338874440077,0.10028007782634885,140.9461516377189,0.7254355654312201,42.08126469558364,5.0,0.0,0.0,0.0,0.16
1.8620000000000232,0.0,1,0,0,1,0,1,1,1,0.7881267975657715,0.0,0.8275147861694291,0.6419393095298638,-0.07759598065027878,0.01799083604814681,-0.4190273121679518,0.5118049780766813,0.7511388509433794,3,0.276880143284703,0.511595844780896,0.09550966674523641,161.0294034882093,0.4713004043420739,42.37623357156576,75.0,0,0,0,0
1.872000000000014,0.0,1,0,0,1,1,1,1,1,0.7966502415414589,0.0,0.8338245368119652,0.6360717555192152,-0.050337224289321095,0.04353897782873216,-0.511554660476045,0.8272305446552334,0.6362108812208092,3,0.36769105157783855,0.7127898252308675,0.09143482491932291,192.77061972063697,0.9593001709757667,41.436284196921136,60.0,0.18000000000000002,0.0,0.0,0.0
1.882000000000005,0.0,1,0,0,1,1,1,1,1,0.8051220059814173,0.0,0.8400271884714695,0.6842837085365303,-0.042500980173701984,0.06248849117750013,0.31317115431341025,0.5381247708924646,0.5972810776163838,3,0.41122717599803427,1.6729215005748188,0.1215873360437173,176.70912234893808,0.2532858102579256,40.946040013198605,50.0,0,0,0,0
1.891999999999996,0.0,1,0,0,1,1,0,0,1,0.8136059854902817,0.0,0.8461219444603231,0.7358718837717576,-0.05391752751368448,0.10967828867594544,0.06763958030694368,0.08269941410998734,0.5899809032146437,3,0.406778567458442,2.9776340043042624,0.17372600369106855,149.9440793562892,0.32152947574794233,41.23404024554016,35.0,0,0,0,0
