time,trans_flag,des_cont_state_fl,des_cont_state_fr,des_cont_state_rl,des_cont_state_rr,cont_state_fl,cont_state_fr,cont_state_rl,cont_state_rr,vel_cmd_x,vel_cmd_y,vel_cmd_yaw,base_vel_x,base_vel_y,base_vel_z,base_vel_roll,base_vel_pitch,base_vel_yaw,gait_id,base,CoT,musculoskeletal,foot_force,MWE,WEXT,stability,FL_stride_t,FR_stride_t,RL_stride_t,RR_stride_t
0.007999999999981355,0.0,1,1,1,1,1,1,1,1,0.0,0.0,0.0,0.009411040031598424,0.0004314230022727155,0.01475928695313965,-0.00816757325083017,-0.012064078822731968,0.005734847858548159,42,0.00311546217848386,0.0,0.016055279356060607,33.65999999999998,5.116323660438197,6.617186464638737,0.0,0,0,0,0
0.01999999999998181,0.0,1,1,1,1,1,1,1,1,0.0,0.0,0.0,0.005003831337785817,0.003309880970611501,0.005278140480535945,0.006005263084175733,-0.00256304091167831,-0.003770312278349181,0,0.012768625921895815,0.0,0.08053613178055755,168.18511212212593,0.0031510098001983552,33.08587609590288,0.0,0,0,0,0
0.02800000000002001,0.0,1,1,1,1,1,1,1,1,0.0,0.0,0.0,-0.00042064068880204655,0.0017115928363916867,0.03484983035597275,-0.0004459235182537305,0.014608315298599206,0.007963562714380774,0,0.011324675017850203,0.0,0.11626204976076933,168.1483611903391,0.041903910149040546,33.098249757560964,0.0,0,0,0,0
0.038000000000010914,0.0,1,1,1,1,1,1,1,1,0.0,0.0,0.0,-0.023948758208481077,-0.0005104964899820987,0.08148228449407215,0.024197624495016654,0.12806175059570807,-0.012099670612597422,0,0.019157747223136897,0.0,0.16291620132778462,186.13484919523034,0.12223503593064712,33.21181466918362,0.0,0,0,0,0
0.04800000000000182,0.0,1,1,1,1,1,1,1,1,0.0,0.0,0.0,-0.030878939339358105,-0.0016639002231216451,0.0643076954146388,0.044963722056958415,0.18167305857181282,0.000318473503049171,0,0.043854073204133766,0.0,0.14673181994962797,207.13705806997223,0.18263316533844834,33.38085950012235,0.0,0,0,0,0
0.057999999999992724,0.0,1,1,1,1,1,1,1,1,0.0,0.0,0.0,-0.001418207518255757,-0.004973140375664618,0.0740770078282492,0.07166060411405394,0.14626507325239899,0.007291920535476152,0,0.028863980463217902,0.0,0.14682403924327292,186.47050109477982,0.07186608784106961,33.48180528132788,0.0,0,0,0,0
0.06799999999998363,0.0,1,1,1,1,1,1,1,1,0.0,0.0,0.0,0.020021903657650872,-0.0005949074065305355,0.08275756294615245,0.04199072908804573,0.05907588172232682,0.000856306651111487,0,0.016744032595558983,0.0,0.15620972492329813,176.95530684457628,0.077095713947261,33.55407704649541,0.0,0,0,0,0
0.07799999999997453,0.0,1,1,1,1,1,1,1,1,0.0,0.0,0.0,0.02613958072929631,0.0006085415884285125,0.0778306004033885,0.0505375936818859,0.04706533108954012,0.006201739066136299,0,0.03156631186042913,0.0,0.14238367910361627,173.3447444135036,0.045279939155334036,33.61664962334006,0.0,0,0,0,0
0.08800000000002228,0.0,1,1,1,1,1,1,1,1,0.0,0.0,0.0,0.026624438927129183,0.0003523553083820625,0.0630841126827967,0.04065235955144892,0.046604018386107574,-0.006345678547428259,0,0.029971729736401304,0.0,0.13614449166006248,159.0456191903711,0.04351410178206894,33.65759989244536,0.0,0,0,0,0
0.09800000000001319,0.0,1,1,1,1,1,1,1,1,0.0,0.0,0.0,0.03652064328878733,-0.0015153385917044979,0.05458793596347866,0.040347010826726704,0.07152790934979746,-0.022640933610080922,0,0.04727279440821095,0.0,0.13820529270574658,153.27308358029558,0.05110136739486548,33.71451176229645,0.0,0,0,0,0
0.10800000000000409,0.0,1,1,1,1,1,1,1,1,0.0,0.0,0.0,0.046453626920740544,-0.0016424338677562928,0.05374479736254793,0.0564231670008377,0.0788375756448744,-0.03621175730895953,0,0.07520709549202663,0.0,0.14074094479691882,158.69126571603888,0.0416063360154427,33.78127252213663,0.0,0,0,0,0
0.117999999999995,0.0,1,1,1,1,1,1,1,1,0.0,0.0,0.0,0.05243021592036101,0.0002169656285593132,0.05077065911220957,-0.014740037552121495,0.09905033629325458,-0.05559879886446667,0,0.10064641588728458,0.0,0.13862046108349171,160.10150464855911,0.02937034609782027,33.841347346456836,0.0,0,0,0,0
0.1279999999999859,0.0,1,1,1,1,1,1,1,1,0.0,0.0,0.0,0.055787342871082744,0.001814171697360981,0.0414302286391179,0.0028811023227792287,0.10190254081636153,-0.04887124633677452,0,0.10676779417871293,0.0,0.139159009127161,156.20222153380777,0.036396088906715335,33.88201018581406,0.0,0,0,0,0
0.1379999999999768,0.0,1,1,1,1,1,1,1,1,0.0,0.0,0.0,0.05926097039520236,0.0024613681450931326,0.03531928251153689,0.04639745202693452,0.12060591889371189,-0.036198844224458904,0,0.10232137451472718,0.0,0.137374341989488,155.03906469265695,0.038926342056260034,33.9133696248602,0.0,0,0,0,0
0.14800000000002456,0.0,1,1,1,1,1,1,1,1,0.0,0.0,0.0,0.06031615785561885,0.0039837233453016326,0.036221432150280716,0.030718911910976834,0.12873185650099142,-0.013310038486934888,0,0.08914244921081656,0.0,0.13810953636785092,158.7252094348061,0.04069537171156429,33.944688524860375,0.0,0,0,0,0
0.15800000000001546,0.0,1,1,1,1,1,1,1,1,0.0,0.0,0.0,0.06090890592318575,0.0036265351994317677,0.03313276325303127,0.015875533591290875,0.14087975391702692,0.011541282248571922,0,0.07096014277661142,0.0,0.13815933049631424,159.65778606527846,0.026503839723002465,33.9690820136456,0.0,0,0,0,0
0.16800000000000637,0.0,1,1,1,1,1,1,1,1,0.0,0.0,0.0,0.0615450774358688,0.0025987443081863975,0.03064075292711701,0.011578816146977446,0.15718129955707735,0.031673332953556815,0,0.0861629421118999,0.0,0.13843975164643404,159.00213596738917,0.027083886928321407,34.002966543071054,0.0,0,0,0,0
0.17799999999999727,0.0,1,1,1,1,1,1,1,1,0.0,0.0,0.0,0.06494995933650816,0.001873917797096028,0.02879459102900885,0.008250012075088624,0.17470773184236482,0.034607817103129324,0,0.10067797017364948,0.0,0.13703599893186527,160.44847684772347,0.025726254327357465,34.04084939781414,0.0,0,0,0,0
0.18799999999998818,0.0,1,1,1,1,1,1,1,1,0.0,0.0,0.0,0.06596956070658118,0.002348738636841129,0.02833191395628788,-0.007354657030747774,0.1482563138566365,0.029315632671893768,0,0.1022930045914638,0.0,0.13847571481826781,161.3046740827405,0.025115599898545928,34.06872239908357,0.0,0,0,0,0
0.19799999999997908,0.0,1,1,1,1,1,1,1,1,0.0,0.0,0.0,0.0669888189455673,0.0041893285485543235,0.02756055438397159,-0.0038655913376784735,0.13003620299225746,0.0018261745074884162,0,0.08124590259498672,0.0,0.13844789852304576,159.87760490168557,0.026147629799681712,34.08453392688995,0.0,0,0,0,0
0.20800000000002683,0.0,1,1,1,1,1,1,1,1,0.0,0.0,0.0,0.06830613908411891,0.005690856138277556,0.025551227872979157,0.02123170086908471,0.09301316815453488,-0.017635437220268217,0,0.0832777553937731,0.0,0.13771290896937846,158.9910423741882,0.02263921908001394,34.109893900986876,0.0,0,0,0,0
0.21800000000001774,0.0,1,1,1,1,1,1,1,1,0.0,0.0,0.0,0.06682893041332602,0.00649423686842061,0.023520140796834035,0.03269376665845314,0.08353832182512289,-0.023839672839406634,0,0.09821733151289964,0.0,0.13686172424524523,158.16606003696012,0.019906077069640343,34.13683918556367,0.0,0,0,0,0
0.22800000000000864,0.0,1,1,1,1,1,1,1,1,0.0,0.0,0.0,0.0651313157472058,0.0059948476571859794,0.022173561344796526,0.015661343623102612,0.07893484543631497,-0.014951193199160221,0,0.09164350617289482,0.0,0.13657941544875352,157.32504185706358,0.023597463414917592,34.15192166324793,0.0,0,0,0,0
0.23799999999999955,0.0,1,1,1,1,1,1,1,1,0.0,0.0,0.0,0.06431785760893576,0.006850670475689874,0.02058547542036381,0.0024537073422959106,0.0857118699960802,0.013775869856861916,0,0.07857997390828685,0.0,0.13647776763792827,156.9755639109969,0.020802113634073922,34.16989233168739,0.0,0,0,0,0
0.24799999999999045,0.0,1,1,1,1,1,1,1,1,0.0,0.0,0.0,0.06263026576651562,0.007287819726161375,0.01817739273579396,0.025243232757436,0.0801751513714014,0.01835619522853734,0,0.08875368146656071,0.0,0.1368700800431213,157.1734965172859,0.012244120374193698,34.1861098091873,0.0,0,0,0,0
0.25799999999998136,0.0,1,1,1,1,1,1,1,1,0.0,0.0,0.0,0.06159106122129247,0.008244591998702666,0.019012834744566158,0.013691414067753264,0.055125442878944,0.03227350146454391,0,0.09775418686251883,0.0,0.13784287766150596,157.50224760274781,0.01188282579513434,34.20118567913026,0.0,0,0,0,0
0.2699999999999818,0.0,1,1,1,1,1,1,1,1,0.0,0.0,0.0,0.05935337609144194,0.007556610698850962,0.01799480171547267,0.014693294798408538,0.033324698951635576,0.018289408561272827,0,0.09518561518991804,0.0,0.13825220203264824,157.92008863851342,0.019810966197187405,34.21485932460446,0.0,0,0,0,0
0.27800000000002,0.0,1,1,1,1,1,1,1,1,0.0,0.0,0.0,0.05684574490242543,0.008288229108252306,0.016830437224506525,0.006823152005656353,0.025357445549067523,0.007958992328139717,0,0.07550916882500412,0.0,0.13594420605393612,157.613899287145,0.0158029495917184,34.22129233978209,0.0,0,0,0,0
0.2880000000000109,0.0,1,1,1,1,1,1,1,1,0.0,0.0,0.0,0.05396385919665747,0.008935233325580428,0.01365067995696151,0.018905968173888933,0.014485381910919165,-0.015622123400448645,0,0.07200091500173633,0.0,0.13621171094621792,156.37592157685287,0.011421378820810502,34.23083218050071,0.0,0,0,0,0
0.2980000000000018,0.0,1,1,1,1,1,1,1,1,0.0,0.0,0.0,0.052209154453293626,0.009246557681127459,0.011423493590295737,0.027513364821351225,0.02074365841344252,-0.008030846734321459,0,0.07185465144772192,0.0,0.13531322587297687,156.47991898982198,0.012693811746438962,34.24035406953969,0.0,0,0,0,0
0.3079999999999927,0.0,1,1,1,1,1,1,1,1,0.0,0.0,0.0,0.05094988381939441,0.009145630305449428,0.01134973492571524,0.030343316375515805,0.021331514635528955,-0.027913997872188494,0,0.08329053137108286,0.0,0.13645794299746358,157.9574562083465,0.007932460643223248,34.25293200941896,0.0,0,0,0,0
0.31799999999998363,0.0,1,1,1,1,1,1,1,1,0.0,0.0,0.0,0.05007654044247199,0.009282425395178937,0.010809519673653534,0.027665467125958028,0.01735446792827062,-0.0056346964810751726,0,0.07341176799002837,0.0,0.1368186842262082,158.36061096992222,0.011320019585762377,34.25861575404143,0.0,0,0,0,0
0.3299999999999841,0.0,1,1,1,1,1,1,1,1,0.0,0.0,0.0,0.05129015226538655,0.009113099739243883,0.010997346997711691,0.022410344659421804,0.010754952486992524,0.00017616635331059265,0,0.06437323784150309,0.0,0.1361073697348987,159.22078877107808,0.006619806698668625,34.26434680539887,0.0,0,0,0,0
0.3380000000000223,0.0,1,1,1,1,1,1,1,1,0.0,0.0,0.0,0.05140196257411214,0.010144707824226868,0.010832469016704566,0.004688568025118406,-0.007602320018078381,0.016621800283225612,0,0.07357147598506472,0.0,0.1374717852423905,158.54019040795538,0.006106643940483471,34.27351848667963,0.0,0,0,0,0
0.3480000000000132,0.0,1,1,1,1,1,1,1,1,0.0,0.0,0.0,0.050560294566269606,0.011914987333164678,0.008228411185871401,0.0019253803457353934,-0.02092616488175028,0.026297767650762468,0,0.08553205980144629,0.0,0.13699540532668145,158.19265861657018,0.0035553403678099046,34.282531046989725,0.0,0,0,0,0
0.3580000000000041,0.0,1,1,1,1,1,1,1,1,0.0,0.0,0.0,0.049377573117467585,0.013384168929341415,0.007144222370901045,0.01710546775199565,-0.01934669889067219,0.010378262432448401,0,0.07990690131415204,0.0,0.1361259632457928,158.7434549827431,0.007814269859215742,34.28506385392035,0.0,0,0,0,0
0.367999999999995,0.0,1,1,1,1,1,1,1,1,0.0,0.0,0.0,0.04854603707911202,0.01364276242579823,0.007059196459789123,0.018026720259198038,-0.007021287687538552,-0.00473094754623268,0,0.06712941859452347,0.0,0.13672080486374819,159.2091830340298,0.00454987881592938,34.28630295700359,0.0,0,0,0,0
0.3779999999999859,0.0,1,1,1,1,1,1,1,1,0.0,0.0,0.0,0.048667390964931515,0.01393033960221673,0.007180186933416628,0.005107303314967034,-0.008013916897075646,-0.0301918836839178,0,0.08450885652389525,0.0,0.13713804784392244,160.45651667334414,0.002240120795643376,34.29305188537344,0.0,0,0,0,0
0.3879999999999768,0.0,1,1,1,1,1,1,1,1,0.0,0.0,0.0,0.048981941861643466,0.014966423290688497,0.007370721966235883,0.00995162603173226,-0.006237790797706847,-0.022820159748788926,0,0.09004226947597622,0.0,0.13737070272924862,161.27948040761413,0.005165076375231878,34.29816396219495,0.0,0,0,0,0
0.39800000000002456,0.0,1,1,1,1,1,1,1,1,0.0,0.0,0.0,0.05012601434581867,0.016082499258275394,0.006430430152622077,0.0004906646288295015,-0.011116787943330373,-0.014788489532119361,0,0.08432096414337524,0.0,0.1372100013374113,161.5289421250297,0.002154977889912219,34.297935634835746,0.0,0,0,0,0
0.40800000000001546,0.0,1,1,1,1,1,1,1,1,0.0,0.0,0.0,0.052658452920300886,0.017730571301182628,0.006017810151031399,-0.002722451262389832,-0.017063919462222854,-0.008375295361990467,0,0.07887769290706377,0.0,0.13755919789781143,160.77497124010262,0.005501017418520191,34.303269479936944,0.0,0,0,0,0
0.41800000000000637,0.0,1,1,1,1,1,1,1,1,0.0,0.0,0.0,0.053789366492945946,0.018375156966449115,0.0060842426964509005,-0.01945386749287418,-0.01902473962605118,-0.0011254604157145656,0,0.0753772406260523,0.0,0.1360045561441086,161.34320194168194,0.0006068767076530777,34.30630786866881,0.0,0,0,0,0
0.42799999999999727,0.0,1,1,1,1,1,1,1,1,0.0,0.0,0.0,0.05542743578656678,0.018535460856439482,0.006646234809076679,-0.03701692056764583,-0.023606774266866904,-0.0026579496265285297,0,0.07496502694244533,0.0,0.13625787451096277,161.67599750508532,0.0018541057825827503,34.309685239421334,0.0,0,0,0,0
0.4379999999999882,0.0,1,1,1,1,1,1,1,1,0.0,0.0,0.0,0.05689600018043188,0.018900493652446858,0.007885452825264164,-0.02992783079709871,-0.02399905929510022,-0.016339254553122715,0,0.08492503696913689,0.0,0.1357182349021488,162.85601417362335,0.00286794668794213,34.31521970530718,0.0,0,0,0,0
0.4479999999999791,0.0,1,1,1,1,1,1,1,1,0.0,0.0,0.0,0.057480455409980064,0.018815604644629044,0.008580486723186247,-0.021856641450576038,-0.014622450379002134,-0.01661152331862639,0,0.09345705425329544,0.0,0.13504349560987725,163.64386920675122,0.005930455522190306,34.323856466919345,0.0,0,0,0,0
0.45800000000002683,0.0,1,1,1,1,1,1,1,1,0.0,0.0,0.0,0.0588680240314378,0.018097439650672578,0.008411386776656763,-0.0004982380652335697,-0.014855202209451262,-0.02608747566787509,0,0.10075405941347781,0.0,0.13419037279103074,163.20303859137522,0.001492072586547915,34.33182572610406,0.0,0,0,0,0
0.46800000000001774,0.0,1,1,1,1,1,1,1,1,0.0,0.0,0.0,0.06053771137244261,0.01805380813915225,0.008160445932490771,0.010486656769634013,0.0014947375604528494,-0.013327587657570989,0,0.09717280661248029,0.0,0.1358944087119499,162.26872745719137,0.0052222098912694005,34.335285143920466,0.0,0,0,0,0
0.47800000000000864,0.0,1,1,1,1,1,1,1,1,0.0,0.0,0.0,0.062192253208840316,0.01809636185608586,0.006826738663154327,0.006215287000064932,-0.007464462360713283,-0.013339401414574324,0,0.09084314654852421,0.0,0.13603681801622386,161.16743298734582,0.0012252234840812795,34.337566629397294,0.0,0,0,0,0
0.48799999999999955,0.0,1,1,1,1,1,1,1,1,0.0,0.0,0.0,0.06364147141111894,0.018372710989295757,0.005256807346343497,0.006083570438286796,-0.0032133990169965244,0.002482630827381015,0,0.08708087571785736,0.0,0.13537120190717936,160.74146490782817,0.0021202155595204837,34.34068384760111,0.0,0,0,0,0
0.49799999999999045,0.0,1,1,1,1,1,1,1,1,0.0,0.0,0.0,0.06493812757905802,0.018189395734698,0.0034947731370837225,0.007803350615358551,0.003548010019178319,0.00022497060250169384,0,0.08394581875622988,0.0,0.13502765924228105,160.48629448168975,0.0009081119586890306,34.34193289003862,0.0,0,0,0,0
0.5079999999999814,0.0,1,1,1,1,1,1,1,1,0.0,0.0,0.0,0.06551001290810554,0.018604396237358434,0.003230069713249765,0.006279077410910909,-0.0011593862703674815,0.005428831167126418,0,0.08916376239376525,0.0,0.13626554304615165,160.94428957090784,0.00243513699430745,34.34174993741725,0.0,0,0,0,0
0.5180000000000291,0.0,1,1,1,1,1,1,1,1,0.0,0.0,0.0,0.06630745763968711,0.018624637782646794,0.0036676874794265763,0.009134925497250824,-0.002690477403341032,-0.003122718528324772,0,0.08741698758747261,0.0,0.13524400160885433,161.75400226968196,0.0013394679803470921,34.342749012035156,0.0,0,0,0,0
0.52800000000002,0.0,1,1,1,1,1,1,1,1,0.0,0.0,0.0,0.06704669129194957,0.01905246726663925,0.004013893367389198,0.001984346530054722,-0.004495091675906264,-0.014902823884590804,0,0.09609790832671088,0.0,0.13489531204985614,162.4716330223975,0.0023479167730282823,34.344010364213624,0.0,0,0,0,0
0.5380000000000109,0.0,1,1,1,1,1,1,1,1,0.0,0.0,0.0,0.0676151474304854,0.0189949921358454,0.004786069639481408,0.01760860405773115,-0.013015101551587869,-0.016658407093920042,0,0.10230783325526857,0.0,0.1354895620123481,163.03885397323134,0.0010648030728023991,34.34532450479325,0.0,0,0,0,0
0.5480000000000018,0.0,1,1,1,1,1,1,1,1,0.0,0.0,0.0,0.06714890259688572,0.019292683391973826,0.004891658420345706,0.005974102708213174,-0.006480107917462335,-0.012541033560846187,0,0.10151120881625597,0.0,0.13564350744415057,163.15003031008413,0.00211499291001304,34.34547911634251,0.0,0,0,0,0
0.5579999999999927,0.0,1,1,1,1,1,1,1,1,0.0,0.0,0.0,0.06742330059555308,0.01968131806301053,0.005856944400747866,0.01638995631756101,-0.0034707187397609975,-0.0013476561038169301,0,0.09054981422548448,0.0,0.1360921029246598,163.45144938180562,0.0032999958425090105,34.34633927077474,0.0,0,0,0,0
0.5679999999999836,0.0,1,1,1,1,1,1,1,1,0.0,0.0,0.0,0.06877788228090945,0.020497974986462976,0.005773152007492902,0.0006790582865401017,-0.003549295653817847,-0.008478194222933872,0,0.0974149916210863,0.0,0.13394985015124455,163.02025208546638,0.0011644191645910178,34.350358187652134,0.0,0,0,0,0
0.5779999999999745,0.0,1,1,1,1,1,1,1,1,0.0,0.0,0.0,0.0705428882112697,0.02063445830502074,0.006193368993723747,0.0008632158740394696,-0.003449323386130452,0.0038741347059742855,0,0.09380242943765223,0.0,0.13614907298829157,162.93421263984152,0.0006575515893379111,34.35407830394088,0.0,0,0,0,0
0.5880000000000223,0.0,1,1,1,1,1,1,1,1,0.0,0.0,0.0,0.07052410684110194,0.021117761430978887,0.006182222198356695,-0.003626101519748445,-0.008806552973769798,-0.005917712585336228,0,0.09431477003402061,0.0,0.13521111878971928,162.5426288137238,0.0031088645289907776,34.3571302307166,0.0,0,0,0,0
0.5980000000000132,0.0,1,1,1,1,1,1,1,1,0.0,0.0,0.0,0.07072596022692602,0.02117526577411572,0.0067325027251392095,-0.019096721096911545,-0.011736394751839515,-0.01221829870642762,0,0.10311846652400225,0.0,0.1350116877789158,162.498938057323,0.001965772289720391,34.361058312383705,0.0,0,0,0,0
0.6080000000000041,0.0,1,1,1,1,1,1,1,1,0.0,0.0,0.0,0.07115615420970156,0.02051086980828673,0.007059431257081177,-0.008755379585140284,-0.013928798419963957,-0.019164525184684474,0,0.10609435328340718,0.0,0.13470922486079165,163.01945371583756,0.0031667555657468593,34.365673707153526,0.0,0,0,0,0
0.617999999999995,0.0,1,1,1,1,1,1,1,1,0.0,0.0,0.0,0.07078470219795498,0.01953448684114597,0.007614855607288335,-0.0016554709495490095,-0.013453641871060903,-0.02694357944349971,0,0.11559295258260135,0.0,0.13586225621623002,163.47018712851602,0.0018477774786697654,34.37295528939781,0.0,0,0,0,0
0.6279999999999859,0.0,1,1,1,1,1,1,1,1,0.0,0.0,0.0,0.06991182199006706,0.019588628707550817,0.006649493313356684,0.004533285903274144,-0.0036466688155496222,-0.021096810772226096,0,0.11348288218956026,0.0,0.1345088096320561,163.05956176116013,0.00538655654123011,34.37396947119078,0.0,0,0,0,0
0.6379999999999768,0.0,1,1,1,1,1,1,1,1,0.0,0.0,0.0,0.07000436819372846,0.019317506323455903,0.0044835390882869315,0.01781095695497541,0.00027137805996111004,-0.009526986390785284,0,0.10659151027157854,0.0,0.13528471687099045,162.1542121866468,0.0031364910945912913,34.374409930005,0.0,0,0,0,0
0.6480000000000246,0.0,1,1,1,1,1,1,1,1,0.0,0.0,0.0,0.07148661177323641,0.018884459732236878,0.003970532492907302,0.012245232242291256,0.014144456133964499,0.005316390630355237,0,0.09311178101397506,0.0,0.13556151696784502,161.20370227208275,0.0010467690201936969,34.37379877790191,0.0,0,0,0,0
0.6580000000000155,0.0,1,1,1,1,1,1,1,1,0.0,0.0,0.0,0.07270824520649631,0.019227783270484477,0.003863233586920637,0.006406303153392519,0.0027003744801383854,0.013991491562305185,0,0.10129572985706561,0.0,0.13745107569639464,161.56406339537588,0.0015960286941164928,34.375499941309414,0.0,0,0,0,0
0.6680000000000064,0.0,1,1,1,1,1,1,1,1,0.0,0.0,0.0,0.07320301937302987,0.019523015536731164,0.003395171325748546,-0.0036673199400617798,-0.0017848368067037118,0.008323293620899341,0,0.10600281664885716,0.0,0.13510023220668946,161.46330100367294,0.0019475813925129148,34.37824939589651,0.0,0,0,0,0
0.6779999999999973,0.0,1,1,1,1,1,1,1,1,0.0,0.0,0.0,0.07255049170312626,0.01946437019653458,0.003410309446719613,0.019644055399579963,-0.0031307046773557377,0.001314268511542441,0,0.09710187941782586,0.0,0.13452570226804506,161.95813498046135,0.0008758774557054913,34.37736448664011,0.0,0,0,0,0
0.6879999999999882,0.0,1,1,1,1,1,1,1,1,0.0,0.0,0.0,0.07094984027770021,0.019380746936703327,0.003907175314435404,0.012568228532842876,-0.0008975713761242344,-0.00853092394367514,0,0.09745356769429299,0.0,0.13481245822792726,162.7857637420114,0.002611431681418648,34.37433761205357,0.0,0,0,0,0
0.6979999999999791,0.0,1,1,1,1,1,1,1,1,0.0,0.0,0.0,0.07104019128260718,0.01947524692413422,0.005261382205207513,0.018331282508698594,-0.009968465411811553,0.001351628820996135,0,0.09281502666886661,0.0,0.13490425074920692,163.6266654727679,0.0015558374744134018,34.37081624961134,0.0,0,0,0,0
0.7080000000000268,0.0,1,1,1,1,1,1,1,1,0.0,0.0,0.0,0.07135557847398204,0.01897932005402289,0.006115254536836175,0.0189575619685356,-0.0070319673586123135,-0.015431468330188616,0,0.09944321117978996,0.0,0.13424492372074784,163.49773297311313,0.0014514916717583773,34.3741894763029,0.0,0,0,0,0
0.7180000000000177,0.0,1,1,1,1,1,1,1,1,0.0,0.0,0.0,0.07201645676390786,0.019084872256645163,0.007035382804829832,0.007120522821060734,-0.010073091964756958,-0.0204498471627829,0,0.11049163125204431,0.0,0.13540452248311546,163.2346765380064,0.00268220371654921,34.38032500954755,0.0,0,0,0,0
0.7280000000000086,0.0,1,1,1,1,1,1,1,1,0.0,0.0,0.0,0.07281432616563398,0.019160436870701084,0.00642597552488453,0.017363490972716545,-0.011325141950917925,-0.017726847650223473,0,0.11080021998934839,0.0,0.13527421050169816,163.09339759333199,0.0016161256336156907,34.38389588865151,0.0,0,0,0,0
0.7400000000000091,0.0,1,1,1,1,1,1,1,1,0.0,0.0,0.0,0.0744606182207741,0.019033094168183568,0.005531253251692731,0.005799569936152743,-0.006098510362924414,-0.007713820607218702,0,0.10555156629993678,0.0,0.13462276032711756,162.12412591871424,0.0012060569456528447,34.384893725787556,0.0,0,0,0,0
0.75,0.0,1,1,1,1,1,1,1,1,0.0,0.0,0.0,0.07621294288748459,0.01999129791552581,0.0045158998328490435,-0.0005059695871684475,-0.006179177052462974,-0.005324535717182832,0,0.09958203514990993,0.0,0.1354258919686725,161.2732677286032,0.001067230134571391,34.38778950636909,0.0,0,0,0,0
0.7599999999999909,0.0,1,1,1,1,1,1,1,1,0.0,0.0,0.0,0.0780325871403662,0.021044466254040516,0.004474163167335447,0.00926144459407415,-0.007380372404743254,-0.0025380643281980734,0,0.10126112277584032,0.0,0.13529374960551485,162.0137333184179,0.001105405086027418,34.391890847261024,0.0,0,0,0,0
0.7699999999999818,0.0,1,1,1,1,1,1,1,1,0.0,0.0,0.0,0.07881782741010253,0.021555891413762945,0.004854882759573263,-0.0061073893247280756,-0.009999290035265436,-0.01781871193461934,0,0.11222559294297804,0.0,0.13346245414589872,163.3177042425936,0.0013909030284172605,34.39626205866678,0.0,0,0,0,0
0.7800000000000296,0.0,1,1,1,1,1,1,1,1,0.0,0.0,0.0,0.07903094476684056,0.02185928155139749,0.005743392129624663,0.0040394097801991595,-0.006345938581437066,-0.02658150963429974,0,0.121277083062032,0.0,0.1351362391823694,164.64005511398045,0.002701417093646012,34.40007407115988,0.0,0,0,0,0
0.7900000000000205,0.0,1,1,1,1,1,1,1,1,0.0,0.0,0.0,0.07944427213539136,0.02191373359967199,0.007440948946512385,-0.005187970928165968,-0.0025071112640985844,-0.028863151207142345,0,0.1329280740084415,0.0,0.13507233549837996,164.53291644396717,0.00687714487393222,34.40687546941612,0.0,0,0,0,0
0.8000000000000114,0.0,1,1,1,1,1,1,1,1,0.0,0.0,0.0,0.07946467154359287,0.02191933785810135,0.008079397199191624,-0.0026049857252260014,0.010925068030693067,-0.028053233606274906,0,0.1284647391899076,0.0,0.13585533761670196,163.61598156149088,0.004364057570826356,34.41036621851431,0.0,0,0,0,0
0.8100000000000023,0.0,1,1,1,1,1,1,1,1,0.0,0.0,0.0,0.07964659273536953,0.021720162344666574,0.00856537873602041,-0.013415779527320494,0.00943104036760932,-0.014373480828636064,0,0.12390690487819582,0.0,0.13533018736682095,163.07377993915443,0.009294398298992916,34.41405980881534,0.0,0,0,0,0
0.8199999999999932,0.0,1,1,1,1,1,1,1,1,0.0,0.0,0.0,0.08076732712883908,0.02181914194293924,0.008504096799747457,-0.01495224345422981,0.009305905398041317,-0.01211506273889514,0,0.11219291873926118,0.0,0.13500931454818474,162.509460105718,0.005150118904256824,34.418075359441545,0.0,0,0,0,0
0.8299999999999841,0.0,1,1,1,1,1,1,1,1,0.0,0.0,0.0,0.08170686680621943,0.02234233173278511,0.007752392805118299,-0.01338969602805886,0.007050380692636895,0.005591832424877751,0,0.10980769571572455,0.0,0.13446332176317044,162.54801939651185,0.0038723991786956194,34.42417257021943,0.0,0,0,0,0
0.839999999999975,0.0,1,1,1,1,1,1,1,1,0.0,0.0,0.0,0.08213398620148842,0.02153171784757254,0.007365209478177288,-0.012922971753399822,-0.007117002201721698,-0.002836879748282295,0,0.1077518215333314,0.0,0.13496720988406347,162.1689653383465,0.0015014093655258617,34.42682486702322,0.0,0,0,0,0
0.8500000000000227,0.0,1,1,1,1,1,1,1,1,0.0,0.0,0.0,0.08136806817625794,0.020583516552950775,0.006941447103007904,-0.02760682559994227,0.00014876191603191273,-0.006153858184249227,0,0.10814302268762532,0.0,0.13417744846179858,162.3237137014127,0.005055810116701212,34.4296681979297,0.0,0,0,0,0
0.8600000000000136,0.0,1,1,1,1,1,1,1,1,0.0,0.0,0.0,0.08084179962100334,0.02022476297021041,0.0072233877493450525,-0.005990040593990636,-0.002612151524447671,-0.005535082050856188,0,0.10891428658621463,0.0,0.1353455156478497,162.84542615399232,0.001545849282143262,34.431072551624176,0.0,0,0,0,0
0.8700000000000045,0.0,1,1,1,1,1,1,1,1,0.0,0.0,0.0,0.08036034539997342,0.01949707041422601,0.006949682532716716,0.0054919728299397345,-0.003932746837566551,-0.011554320133707866,0,0.10811980258001264,0.0,0.135498931132016,162.9089071248062,0.0027975188415569133,34.43243161878386,0.0,0,0,0,0
0.8799999999999955,0.0,1,1,1,1,1,1,1,1,0.0,0.0,0.0,0.08048078502547626,0.019662624481144773,0.007168621990166534,0.005114716082599006,-0.005473069133458229,-0.007206266195407216,0,0.109804235411218,0.0,0.1332457366722339,163.04029035755178,0.0031612914902785297,34.43558671706188,0.0,0,0,0,0
0.8899999999999864,0.0,1,1,1,1,1,1,1,1,0.0,0.0,0.0,0.08094643448430454,0.020553328792026492,0.007006132502624373,0.004767506588871009,0.0008817116355783349,-0.012246183661466258,0,0.11138429338845228,0.0,0.13454172152730504,162.36850475947432,0.0007074996943233422,34.4377441018766,0.0,0,0,0,0
0.8999999999999773,0.0,1,1,1,1,1,1,1,1,0.0,0.0,0.0,0.08083908236715193,0.020735576042290996,0.006706212263902569,0.009572821139032194,-0.010395622620330076,-0.008348673581457893,0,0.11020266559667516,0.0,0.134534532907799,162.95452636265108,0.00101576808425409,34.438567770382136,0.0,0,0,0,0
0.9080000000000155,0.0,1,1,1,1,1,1,1,1,0.0,0.0,0.0,0.08066772862306686,0.02095555935809386,0.006688708448825189,0.0044855414124384185,-0.0019128396661558201,0.0009219671604524156,0,0.1063051177951829,0.0,0.13431618086446,163.55740118092774,0.0012322724004582009,34.43777148674081,0.0,0,0,0,0
0.9180000000000064,0.0,1,1,1,1,1,1,1,1,0.0,0.0,0.0,0.08075815964040937,0.021482291780016066,0.006729565374535647,-0.013034754323661796,-0.004522440689975084,-0.004389612716065721,0,0.10381276876599213,0.0,0.13570132169859978,163.8139567657412,0.0011947083819009788,34.436697339646074,0.0,0,0,0,0
0.9279999999999973,0.0,1,1,1,1,1,1,1,1,0.0,0.0,0.0,0.08145395677189161,0.021922590741223585,0.0070369143362022666,-0.013899524438392458,0.002625190392528975,0.0006916365695027317,0,0.10700599467188876,0.0,0.13431063788512193,163.3932729658906,0.0007378036518410139,34.43924512969914,0.0,0,0,0,0
0.9379999999999882,0.0,1,1,1,1,1,1,1,1,0.0,0.0,0.0,0.08141771831694745,0.021783432614990918,0.007167774205203929,-0.02584665604769533,-0.007745424380356707,-0.002806409622279419,0,0.10699350221852029,0.0,0.13440901426008467,164.18036250423575,0.0016284194821309939,34.440112137397946,0.0,0,0,0,0
0.9479999999999791,0.0,1,1,1,1,1,1,1,1,0.0,0.0,0.0,0.08145419959011062,0.02179800398253236,0.007726563353830808,-0.017750146286548283,0.007191237575701788,-0.014984833508452455,0,0.11806544105480969,0.0,0.1348835981237722,164.68626247602035,0.0018559633251514634,34.44375811763369,0.0,0,0,0,0
0.9580000000000268,0.0,1,1,1,1,1,1,1,1,0.0,0.0,0.0,0.08146497132606233,0.021967856421908124,0.008011998328666236,-0.01072169061134596,0.0015812539047977362,-0.011962722226003746,0,0.11485794571110644,0.0,0.1350268022369789,164.9899991138165,0.0027596198045742315,34.445250951442986,0.0,0,0,0,0
0.9680000000000177,0.0,1,1,1,1,1,1,1,1,0.0,0.0,0.0,0.08117183917923426,0.022038675292228024,0.007510165216120324,0.004532974969603165,0.006862179689064981,-0.0014460829823111445,0,0.11076093075775095,0.0,0.13561495687988717,163.7719717748731,0.0024786541461468137,34.446621823017225,0.0,0,0,0,0
0.9780000000000086,0.0,1,1,1,1,1,1,1,1,0.0,0.0,0.0,0.08098061733177737,0.022170808299795005,0.007544792033213901,0.011806831225281606,0.007328710327671419,-0.003836695094119118,0,0.10457257160148618,0.0,0.13471455197519408,163.99439205863774,0.0018161950582662803,34.4464547507102,0.0,0,0,0,0
0.9879999999999995,0.0,1,1,1,1,1,1,1,1,0.0,0.0,0.0,0.08144080599932221,0.022670652370203187,0.00835215512397166,0.00043120649842753303,0.002050927460925155,-0.002536942420645198,0,0.10850844412000786,0.0,0.1348723854447005,163.0799027940556,0.007225186870272703,34.45298767386216,0.0,0,0,0,0
0.9979999999999905,0.0,1,1,1,1,1,1,1,1,0.0,0.0,0.0,0.08150186616059939,0.022671962359750834,0.007580913514910698,-0.002121914023200086,-0.0049020009597023385,0.0031231682795653535,0,0.10575088621086456,0.0,0.13471388206974544,163.36019548310233,0.0017211628808565527,34.457211568201714,0.0,0,0,0,0
1.0079999999999814,0.0,1,1,1,1,1,1,1,1,2.3365020749827204e-05,0.0,0.0,0.08201754380674783,0.022720591332617557,0.00741662461564206,-0.012013809206127135,6.902301424247003e-05,-0.0075709849636024845,0,0.10970639677040202,6906.05816557417,0.13528465409582444,163.22135887760945,0.002265041294993643,34.46033672538549,0.0,0,0,0,0
1.0199999999999818,0.0,1,1,1,1,1,1,1,1,0.005062439275492138,0.0,0.0,0.08138720165215749,0.023147575567326363,0.006870475465720409,-0.012442400808496906,0.011627250537555993,-0.004051274922242213,0,0.10672557103453875,337.48000110149457,0.13458966655856758,163.33643261466392,0.00143502913212281,34.46212452861866,0.0,0,0,0,0
1.0300000000000296,0.0,1,1,1,1,1,1,1,1,0.01005656456644511,0.0,0.0,0.08039837353126907,0.02312401156516056,0.005715414076119193,0.003972109366138095,0.004619791826452475,-0.013559428875608615,0,0.10641361259198272,95.48027600828406,0.13516320881605165,162.58575022517152,0.002321340930158705,34.4599088704857,0.0,0,0,0,0
1.0400000000000205,0.0,1,1,1,1,1,1,1,1,0.015061524226699069,0.0,0.0,0.08051060242105666,0.022543778536953198,0.005815375309428881,0.0008021511055619182,0.003983168231211584,-0.016460771863566894,0,0.10366269125331004,58.54245612497302,0.1348446941158893,163.4434725096325,0.0010945974800388725,34.45993722404465,0.0,0,0,0,0
1.0500000000000114,0.0,1,1,1,1,1,1,1,1,0.0200672983948174,0.0,0.0,0.08181125627248864,0.022996566009144993,0.0067605964142545315,0.00013858334578849973,-0.0014390351497810781,-0.0032995487448066905,0,0.09331583607415996,43.0159256852187,0.1351178817957205,164.0379215980799,0.0037669847868876116,34.462259651313545,0.0,0,0,0,0
1.0600000000000023,0.0,1,1,1,1,1,1,1,1,0.02505076111795004,0.0,0.0,0.08289823917068818,0.023234321088474362,0.008184025983049677,0.018756816489920412,-0.005772006365805088,0.008291359148382764,0,0.08733710583144876,34.00773644755061,0.1363376251793888,164.4892029604468,0.00445830136669443,34.46891061595905,0.0,0,0,0,0
1.0699999999999932,0.0,1,1,1,1,1,1,1,1,0.030053857822186954,0.0,0.0,0.08384653447109336,0.02312690612620294,0.009740576930688048,0.002651942165730378,-0.006219422355335011,0.004014287597093326,0,0.0855880953366783,27.707741332771764,0.13473397964208828,164.58241465948853,0.005228304805166666,34.47566209702426,0.0,0,0,0,0
1.079999999999984,0.0,1,1,1,1,1,1,1,1,0.035048219563262976,0.0,0.0,0.0850104089447516,0.022454629292583093,0.01101890142131967,-0.003895655903220394,-0.0073455385892727005,0.0021920436901019867,0,0.07995546108603277,23.579031240965357,0.13438568971652232,164.7671082368393,0.004743058120768626,34.48246682636064,0.0,0,0,0,0
1.089999999999975,0.0,1,1,1,1,1,1,1,1,0.04004158703286318,0.0,0.0,0.08633224147084463,0.02233496650720136,0.011130505681026429,0.004590908110931472,-0.0006718631042167235,-0.005465619261999029,0,0.07411097372166246,20.413720764883102,0.1356296496074742,165.26746710923072,0.002560187170422175,34.488738689233955,0.0,0,0,0,0
1.1000000000000227,0.0,1,1,1,1,1,1,1,1,0.045043481773135156,0.0,0.0,0.08749762365078154,0.02188642424529582,0.010786084838857941,0.008965835500903512,-0.002762455592493292,-0.018395437085831894,0,0.08010778276483993,18.121882224717087,0.13558724535077765,164.48204578395314,0.002043218744781347,34.49416242753695,0.0,0,0,0,0
1.1100000000000136,0.0,1,1,1,1,1,1,1,1,0.05002996033383942,0.0,0.0,0.08894482755867768,0.02221054681814576,0.009926926965939144,0.0143543607152332,-0.002866127442497531,-0.009225610417030761,0,0.07437520092224834,16.290027166830747,0.13642427973948631,164.21497340077767,0.004411302543721865,34.50052632537354,0.0,0,0,0,0
1.1200000000000045,0.0,1,1,1,1,1,1,1,1,0.05502602369661022,0.0,0.0,0.09059600080843565,0.022057062921395695,0.0092799505004038,0.0195850014281673,-0.0019287437887037756,-0.011885626213648803,0,0.06878815464649961,14.869111946444198,0.13735258466358627,163.33552615397943,0.0012267510524868602,34.50543333916194,0.0,0,0,0,0
1.1299999999999955,0.0,1,1,1,1,1,1,1,1,0.0600165449703894,0.0,0.0,0.09230262215483702,0.021867048704725715,0.008783511626509807,0.009872267186905778,0.009219679007567417,-0.005865340565528256,0,0.0645119633823031,13.570573793886615,0.13724127435784295,163.41331157255738,0.00201382043803202,34.50993995783085,0.0,0,0,0,0
1.1399999999999864,0.0,1,1,1,1,1,1,1,1,0.06500699403763117,0.0,0.0,0.09414438378388654,0.022004315842438345,0.009044678786928412,0.009658643856961741,0.011001095942993436,0.008756639637091012,0,0.056520112054992654,12.673063591138948,0.13793946328430326,164.1081319957923,0.003426597409015207,34.516656359295,0.0,0,0,0,0
1.1499999999999773,0.0,1,1,1,1,1,1,1,1,0.06999415294477476,0.0,0.0,0.09705049310328126,0.021782692633492567,0.009884582606269683,0.020342100202564446,0.011814033171090959,0.01160115117934853,0,0.060834149108861105,11.590475700945015,0.13742894721932356,164.788270648995,0.0017510238581132584,34.525541300445724,0.0,0,0,0,0
1.160000000000025,0.0,1,1,1,1,1,1,1,1,0.07496922098819894,0.0,0.0,0.1000906407021838,0.022317985615367204,0.010706537250270837,0.008094760377337192,0.008008227663155287,0.011583647052285926,0,0.06155137253592056,10.665060062961944,0.1367269762309784,164.54312319027707,0.0029103481448955054,34.535836661509656,0.0,0,0,0,0
1.170000000000016,0.0,1,1,1,1,1,1,1,1,0.07996666448477331,0.0,0.0,0.1011806421713337,0.022074914370302238,0.011296437881946016,0.01517123965705928,0.007722823750091328,0.013632905634755433,0,0.05616481035575477,10.255868817577193,0.13845830910212634,164.98365914366278,0.006853120286931372,34.54652050694185,0.0,0,0,0,0
1.1800000000000068,0.0,1,1,1,1,1,1,1,1,0.08495022096972459,0.0,0.0,0.10296382778169641,0.02192725059087282,0.011504876929889399,0.014548826683885907,0.0049369750734843355,0.004972076544744249,0,0.05136531237022511,9.604380229143727,0.13877375747889362,164.54391659872027,0.006901530152710139,34.55591218521069,0.0,0,0,0,0
1.1899999999999977,0.0,1,1,1,1,1,1,1,1,0.08992227382381318,0.0,0.0,0.10362902333889021,0.02126695245527054,0.012067341306353794,0.02355670759165077,0.007939729568634733,0.004079913571929979,0,0.039072652698798345,9.026660629961297,0.13788942135462778,165.22712853119606,0.0071062264898347355,34.56465209104935,0.0,0,0,0,0
1.1999999999999886,0.0,1,1,1,1,1,1,1,1,0.0949030043153784,0.0,0.0,0.10494975445171578,0.020905120575425637,0.013527766444863597,0.036934154319773205,0.007835648241874264,0.008002751649205877,0,0.0399355321523454,8.626668594642812,0.13934351743353,165.41338977852996,0.006289778428127946,34.574151660322386,0.0,0,0,0,0
1.2099999999999795,0.0,1,1,1,1,1,1,1,1,0.09988847699188841,0.0,0.0,0.10744487666530488,0.02028907875129403,0.014648686704050303,0.029588999096172436,0.011160064395712592,0.013154784499138487,0,0.037543607983806564,8.197723620707857,0.1398183086170371,165.5368774909944,0.006971770725726606,34.58618356130773,0.0,0,0,0,0
1.2200000000000273,0.0,1,1,1,1,1,1,1,1,0.10484891827361316,0.0,0.0,0.11040974921342495,0.019224523529484016,0.015501457199865808,0.02317191784421009,-2.9158142654856943e-05,0.012555207854419206,0,0.04159958684176709,7.804807188473629,0.13966600121320277,164.98300528514142,0.0066574201818548895,34.601607407511516,0.0,0,0,0,0
1.2300000000000182,0.0,1,1,1,1,1,1,1,1,0.10982689533272871,0.0,0.0,0.11241038267967322,0.018490552787792745,0.01548361669440612,0.02797190264153899,0.010874946813147109,0.011783344774876322,0,0.03266952536808059,7.271121852234181,0.1389989946891999,164.94852366511677,0.007446618825133186,34.61398391266464,0.0,0,0,0,0
1.240000000000009,0.0,1,1,1,1,1,1,1,1,0.11478696121451158,0.0,0.0,0.11408490480145918,0.017486650506572294,0.014675448452149811,0.029669394695614092,0.022362332293163804,0.014786557232452997,0,0.03315692082772541,6.96825039882877,0.13910185944136805,165.42224906811657,0.007368955603687236,34.62669085969035,0.0,0,0,0,0
1.25,0.0,1,1,1,1,1,1,1,1,0.11976369498727207,0.0,0.0,0.116098994875151,0.01687950361279336,0.0132138267030203,0.03333363346068939,0.03011445935336854,0.015948507894101918,0,0.035238649146179954,6.763531947416228,0.14031518466527923,164.08859844693637,0.006121930142419574,34.63886901554001,0.0,0,0,0,0
1.259999999999991,0.0,1,1,1,1,1,1,1,1,0.12471944278829995,0.0,0.0,0.11819090500978417,0.016731158487197775,0.011979612011908261,0.03553378442005229,0.026358260913404628,-0.002745860157320647,0,0.02870549729036063,6.4665459034048425,0.14091085466253092,163.31629278814881,0.0050755916546010305,34.6488671322429,0.0,0,0,0,0
1.2699999999999818,0.0,1,1,1,1,1,1,1,1,0.12970127711927154,0.0,0.0,0.12167561575875753,0.016270977543809066,0.010658345049306314,0.022852046600765886,0.009588824376345841,0.0032226335163154365,0,0.026327278217646195,6.229400552218584,0.14092417892071468,162.60435320910446,0.0010258544701004235,34.658092706410464,0.0,0,0,0,0
1.2800000000000296,0.0,1,1,1,1,1,1,1,1,0.1346403862344288,0.0,0.0,0.12436440836123701,0.016665837604106445,0.009043258813030558,0.023263765637402137,0.0004511103373536475,0.0012215306200938593,0,0.028010102158762318,6.026380932061284,0.1405840951500963,162.22900281169387,0.0006085549982906419,34.66801943423965,0.0,0,0,0,0
1.2900000000000205,0.0,1,1,1,1,1,1,1,1,0.13959680981405861,0.0,0.0,0.12630014669162876,0.01804175528908596,0.008551531095979071,0.016749564694704514,0.0014528958666410066,0.006315838367834139,3,0.03533176380649542,5.824016935742417,0.13993260355621345,163.07191322712228,0.0024640737855088357,34.676063561700985,0.0,0,0,0,0
1.3000000000000114,0.0,1,0,0,1,1,1,1,1,0.14454230701284115,0.0,0.0,0.12877857086623712,0.019114052278231725,0.008269157044285448,0.01921470042749545,0.006442885781649962,0.021974891537196443,3,0.04999584744255208,5.514532302250259,0.14015261937279325,163.73402644466756,0.0024430588850329893,34.687546144459986,40.0,0,0,0,0
1.3100000000000023,0.0,1,0,0,1,1,1,1,1,0.14948113156281104,0.0,0.0,0.13278724681609463,0.02016746846119444,0.007310520383811872,0.034500824214921635,0.01107229079810655,0.021763684626941022,3,0.05906881925986875,5.541142330512105,0.1375033541969754,164.01937774431505,0.0018119523275921673,34.699039185951186,50.0,0,0,0,0
1.3199999999999932,0.0,1,0,0,1,1,1,1,1,0.15443201185810104,0.0,0.0,0.1693245644033855,0.01908521488634258,-0.008733664810366663,0.053395938582646366,-0.08061517249151358,0.03583837464116623,3,0.05908102758999365,10.761120198622894,0.1337718323507016,162.14920849001544,0.04982252859573007,34.75607582452448,50.0,0,0,0,0
1.329999999999984,0.0,1,0,0,1,1,0,1,1,0.15933912185225205,0.0,0.0,0.20422335469976688,0.015263205410209368,-0.018640826281983967,0.077522846076119,-0.13500055047709025,0.015653812287848495,3,0.08044440450354226,8.033038387988109,0.12496594758793211,156.66375496564052,0.07696424199474408,34.85578495256518,40.0,0,0,0,0
1.339999999999975,0.0,1,0,0,1,1,0,1,1,0.16427945664293891,0.0,0.0,0.19120937482236136,0.013578029110244768,-0.027037294811311112,0.11409234991988224,0.09674458758129678,-0.019050486196629576,3,0.0585275554881212,5.760490146355898,0.11310766461397839,163.27873499863995,0.031392978817441825,34.82819086257935,25.0,0,0,0,0
1.3500000000000227,0.0,1,0,0,1,1,0,1,1,0.16920263265321156,0.0,0.0,0.18564536095100667,0.022605285903086053,-0.04257945940177824,-0.055801529681789946,0.23138928445123663,-0.023284576475145577,3,0.06949981979893996,8.373731887719146,0.1239393171390804,153.88746215836892,0.056109811049562114,34.739079208129475,25.0,0,0,0,0
1.3600000000000136,0.0,1,0,0,1,1,0,0,1,0.1741256988931535,0.0,0.0,0.19826097535498693,0.017432051671798263,-0.054763098089781824,-0.0350465800829755,0.20565099933227404,0.10108619458184356,3,0.08857748163757295,10.872561038959534,0.14967119546856295,145.87827109421636,0.06389962110606218,34.825399496528206,0.0,0,0,0,0
1.3700000000000045,0.0,1,0,0,1,1,0,0,1,0.1790495772297692,0.0,0.0,0.1864645129809748,0.005311990100529386,-0.024226375502016274,-0.36959398618952055,0.17527704973530678,0.21098543088848537,3,0.20148198420218164,10.840745322733675,0.14514599061654848,168.49292745592282,0.13393780490254814,35.05468471495017,0.0,0,0,0,0
1.3799999999999955,0.0,1,0,0,1,1,0,0,1,0.1839659283200988,0.0,0.0,0.1701480456841287,0.017597997557413165,-0.013501952569564948,-0.4857888475417704,0.03950623732866094,0.19755448932639358,3,0.21948213024597168,6.478143095696512,0.10390152056097801,185.96556418294105,0.10994387062613165,35.119877769783635,0.0,0,0,0,0
1.3899999999999864,0.0,1,0,0,1,1,0,0,1,0.18887697899539832,0.0,0.0,0.16552997314689927,0.02689568439035975,-0.013768304668328134,-0.04527243265486233,-0.06902433876596532,0.1919101196205728,3,0.24951190350250693,3.776365040042143,0.08142236903414486,176.56100692040417,0.08927244077675811,35.13832692241646,0.0,0,0,0,0
1.3999999999999773,0.0,1,0,0,1,1,0,0,1,0.19378436278777195,0.0,0.0,0.13909129227548564,0.015438553992999053,0.025273506548160164,0.034138644745969234,-0.0093719209168194,0.09621966521502316,3,0.19168483867965264,3.0169577452972574,0.09461677871095914,168.55829856254542,0.27361147301421246,34.98529410218726,0.0,0,0,0,0
1.410000000000025,0.0,1,0,0,1,1,0,0,1,0.19869005693201164,0.0,0.0,0.11700158708644956,0.0004195360530393458,0.04132979679726726,-0.19789365315769555,0.08695216342616684,-0.026732292098098034,3,0.11634251142474342,3.5217244509946504,0.09666590062502692,173.46636040227395,0.18130346900973832,34.911028433968355,0.0,0,0,0,0
1.420000000000016,0.0,1,0,0,1,1,0,0,1,0.2035945127225365,0.0,0.0,0.12908402625994317,-0.007389914282723107,0.031219230802326362,-0.15115875005456547,0.024014862143344397,-0.10737575938794651,3,0.1579465512691434,4.886685958787714,0.10748461001869185,175.88795634307903,0.04281962420987348,35.02103943723445,0.0,0,0,0,0
1.4300000000000068,0.0,1,0,0,1,1,0,0,1,0.20848698604102736,0.0,0.0,0.13689918460385292,-0.00420537273795304,0.050540920296248085,-0.13627041297166007,-0.1233036797307796,-0.16428687907338074,3,0.22259238301654988,6.398660449785897,0.12852280499084773,174.39995289826874,0.039891233240193225,35.20577215099453,0.0,0,0,0,0
1.4379999999999882,0.0,1,0,0,1,1,0,0,1,0.21336842450075214,0.0,0.0,0.12913717166152458,-0.0023961799348751014,0.08234022339266342,-0.08422832064838745,-0.13432886422640242,-0.10509874947998321,3,0.22222878180947214,7.959040838325706,0.1402019285153023,178.79295772238893,0.22225397385551937,35.29431775080069,0.0,0,0,0,0
1.4499999999999886,0.0,1,0,0,1,1,0,0,1,0.21825861857955062,0.0,0.0,0.12530348531949215,0.0031326256004806674,0.08297589921299317,0.10801067855156694,-0.04249438025904315,0.016538396018930937,3,0.13194443116594484,8.189494193479302,0.14261636624389257,184.5655657012203,0.18861701731277694,35.28779708666017,0.0,0,0,0,0
1.4599999999999795,0.0,1,0,0,1,1,0,0,1,0.22313148547334585,0.0,0.0,0.10986233130718176,0.006442967873963998,0.09356391413142716,0.006341096785545602,0.02203858164708056,0.14010122029223726,3,0.20566981398435993,7.793190452565176,0.1348266889861238,181.7940410886486,0.03374983791118133,35.42355068887358,0.0,0,0,0,0
1.4700000000000273,0.0,1,0,0,1,1,0,0,1,0.2280044702774653,0.0,0.0,0.1051907817521663,0.014083556544376376,0.09568028855060945,-0.2581895014827099,-0.00849646975063416,0.168342360347908,3,0.2932221377427696,7.029887025153707,0.12542943999396755,174.06809138292425,0.0670253906479554,35.62467610054785,0.0,0,0,0,0
1.4800000000000182,0.0,1,0,0,1,1,0,0,1,0.232860853027578,0.0,0.0,0.10370522541083693,0.02403177655439252,0.09163044753212156,-0.40621939205872937,0.04073514473763398,0.15768022565574788,3,0.3096005748813647,6.9450056591236065,0.1302503446285387,178.718501409588,0.1330993502166205,35.74233591634034,0.0,0,0,0,0
1.490000000000009,0.0,1,0,0,1,1,0,1,1,0.2377203519049698,0.0,0.0,0.09489591477616652,0.02488273877652261,0.07956695671678889,-0.3709964616607221,0.2012423078316726,0.10558134034160663,3,0.28623249312773624,4.3656043971402045,0.11098828012464541,214.32390076428686,0.1417441443896629,35.739174196306145,20.0,0.0,0.0,0.12999999999999998,0.0
1.5,0.0,0,1,1,0,1,0,1,1,0.2425758741107345,0.0,0.0,0.10517044521097349,0.005780125318919785,0.07989582055842105,0.09631122415167229,0.44098399255049514,0.11859046864730469,3,0.27300936192905184,3.469056572646619,0.09865023215214844,232.48056574701567,0.06765183683618564,35.7127950626316,75.0,0,0,0,0
1.509999999999991,0.0,0,1,1,0,1,1,1,1,0.2474250963107921,0.0,0.0,0.16627555205836556,0.0032929172062155935,0.10381234101237503,-0.07795514593185807,0.1288619800566965,0.039154082169516095,3,0.17991168221256662,5.957900815573811,0.12708752936829823,197.53024378814703,0.03226236626910975,35.7160876587088,50.0,0.0,0.18000000000000002,0.0,0.0
1.5199999999999818,0.0,0,1,1,0,1,1,1,1,0.25226224573229955,0.0,0.0,0.21626651621976103,0.006720728671962007,0.1087275327242894,-0.08369848506097968,-0.33600027132426497,-0.01596452367495427,3,0.07117540006762813,6.1328879490290955,0.13638899771387528,187.86832640056173,0.057106158791411066,35.856355834874066,50.0,0,0,0,0
1.5300000000000296,0.0,0,1,1,0,1,1,1,1,0.2571069239899769,0.0,0.0,0.23593085043395423,-0.0029206069868755293,0.08846883387239696,0.14313985618976138,-0.4768193461997871,-0.00046874958879760146,3,0.03376437874161018,4.047665246168687,0.11049984185080368,181.07224813660756,0.02725085024351548,35.97757823594523,50.0,0,0,0,0
1.5400000000000205,0.0,0,1,1,0,0,1,1,1,0.26192858235386696,0.0,0.0,0.23818765687106006,-0.011003394467741106,0.051833756121576674,0.05940523487800771,-0.33129138498250366,-0.06570761155670464,3,0.06624425782090934,3.170207241312437,0.08428732983922213,162.52270978070783,0.08361271121080749,35.982689560731494,45.0,0,0,0,0
1.5500000000000114,0.0,0,1,1,0,0,1,1,0,0.26674888161012816,0.0,0.0,0.23621998062951655,-0.014262897287476225,0.010504736831150342,0.04486364786582571,-0.1921260643704295,-0.13401718634042076,3,0.14691928946939467,4.993250304274584,0.10202103644005704,114.73529866995086,0.05313836920041248,36.055668992897935,10.0,0,0,0,0
1.5600000000000023,0.0,0,1,1,0,0,1,1,0,0.2715644676587388,0.0,0.0,0.21948498811157774,-0.01389675863325098,-0.0020951324069464518,0.03207270260168057,-0.05715147726367666,-0.15077895651362677,3,0.2059921937277493,5.741805770308814,0.0893284692305256,127.79640509613452,0.09026771019424973,36.12941474693425,0.0,0,0,0,0
1.5699999999999932,0.0,0,1,1,0,0,1,1,0,0.2763745245262349,0.0,0.0,0.21353924943299496,-0.010261552009068527,-0.008063412991570675,0.14618210287856526,0.029889868666177863,-0.10186650661078751,3,0.1956746966433612,6.3093751524615165,0.09203829717876263,149.16323841747422,0.11167306750763834,36.104515514463934,0.0,0,0,0,0
1.579999999999984,0.0,0,1,1,0,0,1,1,0,0.2811767529049266,0.0,0.0,0.20530881959263222,-0.002859623407438758,-0.0075214747762773464,0.15716897976803942,0.13925820439625025,-0.028289910357985566,3,0.13114688695815482,3.6611694700665964,0.07893464209505059,148.35653075732847,0.09473140913646638,36.02418196870745,0.0,0,0,0,0
1.589999999999975,0.0,0,1,1,0,0,1,1,0,0.2859778905517751,0.0,0.0,0.20291119925558015,-0.00197437322273481,-0.005763498302268251,0.06050159450008416,0.21717388796757375,0.03331018376033057,3,0.10004561365967271,2.150990646788312,0.08234086509497025,149.53630320849948,0.013039938193573075,36.00045262997424,0.0,0,0,0,0
1.6000000000000227,0.0,0,1,1,0,0,1,1,0,0.29076410368561123,0.0,0.0,0.20371221884210433,-0.00425869149097469,0.003974209008635915,0.05960466938109449,0.21274538303082302,0.05541029447254235,3,0.13790800177476953,2.1638916320367736,0.09399958823341913,150.87097781242062,0.009183439152890605,36.01739251188156,0.0,0,0,0,0
1.6100000000000136,0.0,0,1,1,0,0,1,1,0,0.29554794891887076,0.0,0.0,0.21304615504344912,-0.0016886452691233852,0.014915219025277954,0.00040124057041122235,0.09236756164007218,0.08071278545356064,3,0.15959484220225842,2.9088009635540666,0.10470350519326636,151.46084380123858,0.021421372372648184,36.07216552540747,0.0,0,0,0,0
1.6200000000000045,0.0,0,1,1,0,0,1,1,0,0.3003192777715905,0.0,0.0,0.22987840267664703,0.0033958359002262584,0.018639976648299902,-0.05719351742157559,-0.1366265129281667,0.029909974972638483,3,0.13574434721287065,4.284687420098214,0.11831239621009124,150.60441834017712,0.02538130333562022,36.12867366377516,0.0,0,0,0,0
1.6299999999999955,0.0,0,1,1,0,0,1,1,0,0.3050776544270411,0.0,0.0,0.2388728463855197,0.005144733103155799,0.03509119164147849,-0.004501490543421022,-0.30735343627220263,0.02457179259792458,3,0.09521993689832815,6.15198939375413,0.13223503118470586,148.51192045254683,0.009879350262614717,36.16656101392764,0.0,0,0,0,0
1.6399999999999864,0.0,0,1,1,0,0,1,1,0,0.3098424812379097,0.0,0.0,0.24461138064210236,0.004319338742216641,0.038724014280303115,0.16066638096365005,-0.43405666767353895,0.004107650836778491,3,0.08449450477323892,7.434259203506779,0.12734182357818294,151.6027609014124,0.03584202738413261,36.2257436306747,0.0,0,0,0,0
1.6499999999999773,0.0,0,1,1,0,0,1,1,0,0.3145928628664481,0.0,0.0,0.2662395463046733,-0.0020931658340367244,0.04164323002833524,0.1776781814598436,-0.5973314255356522,-0.049735347962934426,3,0.08531880841164285,6.40552246858509,0.11794978681281872,159.77596805747655,0.03302980973570535,36.33121781947743,0.0,0,0,0,0
1.660000000000025,0.0,0,1,1,0,0,1,1,0,0.31933526561199066,0.0,0.0,0.273263819839838,-0.007387334801941549,0.03827431383972939,0.198092475024419,-0.6627828241607716,-0.11113634654343978,3,0.13571432780930612,5.332701345369818,0.10120870942049187,169.81283764218526,0.03813345547151892,36.4747855601172,0.0,0,0,0,0
1.670000000000016,0.0,0,1,1,0,0,1,1,0,0.32408716446287555,0.0,0.0,0.24603968888878763,-0.017193258236709388,0.032491375311065315,0.318180178445293,-0.4471037966280015,-0.0661483093280969,3,0.17285813984658466,3.925704363754373,0.08292684932241529,178.6083482369319,0.17911286646903868,36.47920354811414,0.0,0,0,0,0
1.6800000000000068,0.0,0,1,1,0,0,1,1,0,0.32882200656981364,0.0,0.0,0.23893978137355307,-0.027695867703644177,0.02669123147407941,0.3742338010981312,-0.22108803605651842,0.00013207861916549914,3,0.13905457542605842,3.2680075615084476,0.09308404581792482,180.6593716678643,0.08913871038624832,36.42434996700357,0.0,0,0,0,0
1.6899999999999977,0.0,0,1,1,0,0,1,1,1,0.33350780238913347,0.0,0.0,0.23692062811701378,-0.037165641212145,0.026674798499637015,0.1860562997298894,-0.06371859969446775,0.052405241505433645,3,0.17215007065064708,3.178972358880267,0.10195320187759842,199.85573204249187,0.03143274967882115,36.46663668059294,10.0,0.0,0.0,0.0,0.13999999999999999
1.6999999999999886,0.0,1,0,0,1,0,1,1,1,0.3382232918667832,0.0,0.0,0.1961227193735935,-0.026726997767070926,0.0678123038839797,-0.6886136899782211,0.5415928742751009,-0.19293772798847758,3,0.24660109205830033,2.458033217082593,0.09784706311259057,272.8052982994774,0.26739336203418557,36.46627439753314,75.0,0,0,0,0
1.7099999999999795,0.0,1,0,0,1,1,1,1,1,0.3429176505811457,0.0,0.0,0.22711140682796144,0.0009057568655715751,0.06472646356368256,-0.3637862374737812,0.7925885116994168,-0.37791349098538585,3,0.46580116895196666,5.984356726391037,0.1100927890392088,240.71002029364178,0.7296025323180229,36.96812155207678,65.0,0.17,0.0,0.0,0.0
1.7200000000000273,0.0,1,0,0,1,1,1,1,1,0.3476176563586491,0.0,0.0,0.326174087402597,0.013083614788415732,0.02224267220810537,0.5431799140113599,0.1871176809206228,-0.34145148897798133,3,0.44495529660228134,12.243549489483604,0.15670153263599662,219.81811247684954,0.40037143130563035,37.565699159607426,50.0,0,0,0,0
1.7300000000000182,0.0,1,0,0,1,1,0,1,1,0.35229332464872626,0.0,0.0,0.36086046606509026,0.015593537081512659,0.06286522205761269,0.8678866463034207,-0.01531777322276719,-0.11663205940949734,3,0.24845969196830783,14.170920765708084,0.22205029606256624,263.9156576800713,0.49094669520448586,37.24336539279784,40.0,0,0,0,0
1.740000000000009,0.0,1,0,0,1,1,0,1,1,0.35696812251575794,0.0,0.0,0.3460677458871772,-0.006099428261538981,0.0947429291850296,0.368032815715055,-0.013336648746496357,0.2936298364896862,3,0.1599267665321375,8.173127367058147,0.15349368518049658,290.2024980405846,0.5417442642360741,37.17741613860835,25.0,0,0,0,0
1.75,0.0,1,0,0,1,1,0,0,1,0.36164244378443017,0.0,0.0,0.3431335241313321,-0.04331537292187679,0.06785960308524452,0.002082606096246116,-0.07019627256034414,0.4533661441893945,3,0.4424445079838254,5.0580386306798015,0.14032335078799518,280.53486890045485,0.659767695783966,38.013707526050645,15.0,0,0,0,0
1.759999999999991,0.0,1,0,0,1,1,0,0,1,0.3662895005734612,0.0,0.0,0.3489120118458885,-0.05495481896571816,0.012070614842207283,-0.46873976510646126,-0.1948248115818288,0.42920506273766756,3,0.5473117358154423,3.6799887140767398,0.07926454518712055,163.05856828137902,0.7104247458450628,38.526440461609305,0.0,0,0,0,0
1.7699999999999818,0.0,1,0,0,1,1,0,0,1,0.37094083469863726,0.0,0.0,0.36180143897432393,-0.03837289531158878,-0.04088968605296228,-0.6727705670069564,-0.20570280376867048,0.19669787750279777,3,0.3599134748153624,3.8545345909621105,0.08969601075012637,125.23484936765166,0.9333556237108027,37.83537828555116,0.0,0,0,0,0
1.7800000000000296,0.0,1,0,0,1,1,0,0,1,0.3755782413850791,0.0,0.0,0.3536603668491927,-0.011348311943468001,-0.023669409173401195,-0.586242525965082,-0.10417204930764587,-0.010089986273031416,3,0.11202072191751748,1.8598163421083633,0.08366854680654097,157.35210841658972,0.34062812132014875,37.335341248974785,0.0,0,0,0,0
1.7900000000000205,0.0,1,0,0,1,1,0,0,1,0.3802043892095565,0.0,0.0,0.3317894263695408,0.003920678841537397,-0.03769550227221779,-0.002722134334497431,0.27156885264057185,-0.20996017635232564,3,0.18619839648791606,1.0107845524935217,0.06802167526245764,169.68316572830005,0.11844786155839371,37.42822146793766,0.0,0,0,0,0
1.8000000000000114,0.0,1,0,0,1,1,0,0,1,0.3848322675910036,0.0,0.0,0.32343023550025546,-0.01173987764046301,-0.047677220022772276,0.18067361651393582,0.6884884349368044,-0.22540622632013652,3,0.3045593472005298,1.5488158058573331,0.07656539520311932,156.58915009724308,0.1482699649891268,37.62015436719546,0.0,0,0,0,0
1.8079999999999927,0.0,1,0,0,1,1,0,0,1,0.3894352293335089,0.0,0.0,0.3384677698275753,-0.00728519488820849,-0.05042005513644803,0.0966155505437747,0.6903002759190776,-0.1497489254971932,3,0.2554340138194645,2.857153684259944,0.10977494272263486,144.59163311533175,0.1492778087557538,37.55765386527761,0.0,0,0,0,0
1.8199999999999932,0.0,1,0,0,1,1,0,0,1,0.39403801752426937,0.0,0.0,0.3705818774228111,-0.009346577450486676,-0.056696148644982576,0.1914370202565412,0.45757455516740475,0.009303508395914442,3,0.10008766571315172,4.837563188170951,0.13270871151353555,134.3303141840252,0.10935690820298383,37.49741991292951,0.0,0,0,0,0
1.829999999999984,0.0,1,0,0,1,1,0,0,1,0.3986283205887161,0.0,0.0,0.4034203602653122,-0.009847875249466665,-0.04491771517094842,-0.016346770437322695,0.1774320149151824,0.12563202505930893,3,0.10526523490356773,3.6241205660693097,0.11507602383534568,149.8868484489844,0.22355445004842023,37.727363250376264,0.0,0,0,0,0
1.8380000000000223,0.0,1,0,0,1,1,0,0,1,0.4032157497330673,0.0,0.0,0.4095193913387824,-0.007156390192550741,-0.04523906780400354,-0.11358562993285105,-0.007827128838023483,0.17992511757622803,3,0.18253778861871087,3.1289327927361272,0.09667169308604584,158.61869484766447,0.1217521316301331,37.94126095073504,0.0,0,0,0,0
1.8480000000000132,0.0,1,0,0,1,1,0,0,1,0.4077851223764573,0.0,0.0,0.4102845739662919,0.001165536249888363,-0.037731656021824926,-0.1329213430541702,0.01753455057216918,0.15824852889600866,3,0.18140939167386816,2.4471212018442157,0.072380822732651,152.12787943689287,0.05961661621406811,37.966927978284524,0.0,0,0,0,0
1.8600000000000136,0.0,1,0,0,1,1,0,0,1,0.41233941815162006,0.0,0.0,0.3985255492237705,8.313746279085945e-06,-0.048131653328764956,-0.2063079941886567,0.06658736388523086,0.07197322939867382,3,0.11628860183290879,2.2644621585564435,0.07138681366079588,142.10898677516502,0.20224190617425486,37.832036549674605,0.0,0,0,0,0
1.8700000000000045,0.0,1,0,0,1,1,0,0,1,0.4168898255211434,0.0,0.0,0.38272564225915323,0.005278680675127833,-0.04257189089335296,-0.15738211504400582,0.2463957786230511,-0.023203671628369803,3,0.049914006678179905,2.3758860883921513,0.08948615161683722,152.4789196586797,0.1506394980508654,37.70958330104279,0.0,0,0,0,0
1.8799999999999955,0.0,1,0,0,1,1,0,0,1,0.4214348896861783,0.0,0.0,0.3784688634970996,0.009281848883275979,-0.046680806582800785,0.051890053609762066,0.4834888173742534,-0.030799249879913827,3,0.08442607852348272,2.163041635922976,0.10645503520910851,186.78466815691283,0.04736939545137164,37.71355850801249,0.0,0,0,0,0
1.8879999999999768,0.0,1,0,0,1,1,0,0,1,0.42595429288711156,0.0,0.0,0.39722033210789887,0.003544891053843681,-0.039559777067494174,0.19954552431408604,0.5688394444479159,-0.04296199323383387,3,0.07764041413630263,1.5062379134403934,0.09852710519126706,197.77626727795777,0.12531877629199561,37.750974967664575,0.0,0,0,0,0
1.8999999999999773,0.0,0,1,1,0,1,0,1,1,0.4304742827092229,0.0,0.0,0.44581898251959234,0.008031297854109465,-0.04079385555195394,0.22316898406929006,0.29363552114895564,-0.07950539872969142,3,0.07989016812094492,1.8859815220630556,0.09449165431960732,180.02011301116084,0.35143491529832627,37.89678466420473,95.0,0.0,0.0,0.15,0.0
1.910000000000025,0.0,0,1,1,0,1,1,1,1,0.4349903728057105,0.0,0.0,0.4650537211345884,0.00999380324862707,-0.021866198507112612,0.2653593815456658,0.08245289993019184,-0.013180607615827221,3,0.08638670874463714,1.444119579044576,0.07398228492422541,210.95846091435465,0.13196811024396493,38.03183950836892,50.0,0.0,0.18000000000000002,0.0,0.0
1.920000000000016,0.0,0,1,1,0,1,1,1,1,0.43948644543472043,0.0,0.0,0.464699971500878,0.006731132086165365,0.001378571390826578,-0.15726443544672447,-0.027618770091153655,0.036120891543581723,3,0.05841469903509154,1.1226920514762009,0.060048647782634315,212.65448436544725,0.09797527741237477,37.9472210424356,50.0,0,0,0,0
1.9300000000000068,0.0,0,1,1,0,1,1,1,1,0.4439641637431755,0.0,0.0,0.4634013464893439,-0.006914209118193769,-0.005369487362978823,-0.3113736412377247,-0.2845103196788342,0.04301757748667384,3,0.07287191138800034,2.294523571743042,0.09360475662582726,136.89188995770752,0.10786554517680824,37.95836398310259,50.0,0,0,0,0
1.9399999999999977,0.0,0,1,1,0,0,1,1,0,0.4484471249322158,0.0,0.0,0.416792194768426,-0.02274914025414997,-0.002435587043241953,-0.4507588851527977,-0.2523438382799829,-0.06806249503082766,3,0.06257802467466181,2.341420333851013,0.09717149609607759,110.87108778322727,0.296941475267297,37.84826639826137,15.0,0,0,0,0
