time,trans_flag,des_cont_state_fl,des_cont_state_fr,des_cont_state_rl,des_cont_state_rr,cont_state_fl,cont_state_fr,cont_state_rl,cont_state_rr,vel_cmd_x,vel_cmd_y,vel_cmd_yaw,base_vel_x,base_vel_y,base_vel_z,base_vel_roll,base_vel_pitch,base_vel_yaw,gait_id,base,CoT,musculoskeletal,foot_force,MWE,WEXT,stability,FL_stride_t,FR_stride_t,RL_stride_t,RR_stride_t
0.009999999999990905,0.0,1,1,1,1,1,1,1,1,0.0,0.0,0.0,-0.013722941955594247,-0.0011465438429897608,0.011627709326887167,0.0013633231865242117,-0.00039360817754641143,-0.012280376628041264,0,0.005429972485325054,0.0,0.014477687026515154,36.989999999999995,4.651165235862305,6.710763134273941,0.0,0,0,0,0
0.01999999999998181,0.0,1,1,1,1,1,1,1,1,0.0,0.0,0.0,-0.002756061960090025,-0.0010896247686084937,0.011309868424568121,0.006725934501225526,0.0022876972600383554,-0.008928744510568321,0,0.020793468500899505,0.0,0.07250277500885431,185.16993313356483,0.006409230975562454,33.554293885185665,0.0,0,0,0,0
0.030000000000001137,0.0,1,1,1,1,1,1,1,1,0.0,0.0,0.0,0.007515287121640305,-0.0012453472217303536,0.012220488898784252,0.008512392396678583,0.0031614151652951178,-0.004539027845946073,0,0.012302777600711795,0.0,0.07256359052885751,185.8841930310112,0.006450697723629954,33.559545393271485,0.0,0,0,0,0
0.03999999999999204,0.0,1,1,1,1,1,1,1,1,0.0,0.0,0.0,0.007172283911426244,0.00031185409421723755,0.026102198718609165,-0.009859930810401945,0.008507093638139625,0.0057495835074552895,0,0.010568446818385438,0.0,0.10210578189549362,185.97218587722674,0.0263700224661374,33.57090517339537,0.0,0,0,0,0
0.04999999999998295,0.0,1,1,1,1,1,1,1,1,0.0,0.0,0.0,0.004816967717576287,0.011926701108250832,0.07397754752796092,0.04276077647305933,0.08176158628276899,9.397316024680998e-05,0,0.0188394884472885,0.0,0.1440486295478016,199.16789648099592,0.23806845142539018,33.714702862712684,0.0,0,0,0,0
0.060000000000002274,0.0,1,1,1,1,1,1,1,1,0.0,0.0,0.0,-0.006379335396563102,0.008008567562435558,0.06405327669269491,0.05591604520623644,0.14189043128559314,0.0038379645603142313,0,0.01756492650961713,0.0,0.13144442361778413,221.06083629096634,0.15165807912664014,33.92638061536785,0.0,0,0,0,0
0.06999999999999318,0.0,1,1,1,1,1,1,1,1,0.0,0.0,0.0,0.00976144913042734,-0.0012086856493649985,0.0650663540863691,-0.019772415192949096,0.13015172143731796,-0.001506342251109809,0,0.00973574684263825,0.0,0.13251476696357334,204.70366204575276,0.11230193113317447,34.044512714053134,0.0,0,0,0,0
0.07999999999998408,0.0,1,1,1,1,1,1,1,1,0.0,0.0,0.0,0.028373612942573442,-0.0002794967948321357,0.0739852943869973,0.003371631050202831,0.055256003326014144,0.019615251319291677,0,0.032603745007518156,0.0,0.13832189037320286,191.851723129841,0.08275364043279514,34.148812104696226,0.0,0,0,0,0
0.08999999999997499,0.0,1,1,1,1,1,1,1,1,0.0,0.0,0.0,0.030415931773594064,0.0017314148811576307,0.06647817825513447,0.05475448558655074,0.038784200634700956,0.009545108819323453,0,0.04709134986801236,0.0,0.1310639763536313,190.190400832943,0.0577768885118498,34.22426265676761,0.0,0,0,0,0
0.09999999999999432,0.0,1,1,1,1,1,1,1,1,0.0,0.0,0.0,0.029821679737827445,0.0014327402714668595,0.05451877367783948,0.015542175301042495,0.0400781892105596,-0.0007459616744974131,0,0.036742915103846384,0.0,0.1234917949189827,178.07874339989073,0.013477038842405777,34.25034757673798,0.0,0,0,0,0
0.10999999999998522,0.0,1,1,1,1,1,1,1,1,0.0,0.0,0.0,0.03477372649449122,0.0010556920153375093,0.045943865424553,0.03852837696138726,0.055494310861936416,-0.016937333394691508,0,0.04329384250733874,0.0,0.1239190647124688,168.65740662123167,0.019639594813309673,34.26925494495468,0.0,0,0,0,0
0.11999999999997613,0.0,1,1,1,1,1,1,1,1,0.0,0.0,0.0,0.04142283966292039,-0.0005092709692628706,0.04145438720458513,0.04585201354720913,0.0773239922742651,-0.039840431488971324,0,0.0709317882444241,0.0,0.12542753247074695,172.9571667046427,0.01221424480566349,34.30378101711982,0.0,0,0,0,0
0.12999999999999545,0.0,1,1,1,1,1,1,1,1,0.0,0.0,0.0,0.04628728154120318,-0.001173395123007801,0.03995420415271812,-0.004774762344601143,0.09191339355727718,-0.053574294132566924,0,0.09451718726987815,0.0,0.1256142645724782,178.0118365219878,0.0032938311181000234,34.33087043148643,0.0,0,0,0,0
0.13999999999998636,0.0,1,1,1,1,1,1,1,1,0.0,0.0,0.0,0.05147635109483309,-0.0003604637506932424,0.03467240789523157,-0.006361682764564691,0.07866283534722454,-0.04893930861090533,0,0.10418320827782157,0.0,0.12632725732615338,177.0683473230254,0.01093744968092555,34.34434207674656,0.0,0,0,0,0
0.14999999999997726,0.0,1,1,1,1,1,1,1,1,0.0,0.0,0.0,0.05482390413063822,0.0022948690660004514,0.029334779265308544,0.035241069935191736,0.07110149287221983,-0.0406349363018,0,0.09794269219718077,0.0,0.12655070432165783,175.6489474675612,0.012173196221761117,34.350368899408686,0.0,0,0,0,0
0.1599999999999966,0.0,1,1,1,1,1,1,1,1,0.0,0.0,0.0,0.056195617281699174,0.004096357886965489,0.02759629551992752,0.044332892064615936,0.05920250129504813,-0.02761556499617882,0,0.09249376108669911,0.0,0.12636318227675644,177.27941792212272,0.011035743714009828,34.355261880763564,0.0,0,0,0,0
0.1699999999999875,0.0,1,1,1,1,1,1,1,1,0.0,0.0,0.0,0.057388560286682454,0.004883242949653591,0.025721324793734048,0.021640536288561746,0.061968793033788605,-0.020252922233601502,0,0.08242785616594313,0.0,0.1255784145614387,178.3668133417011,0.011535797450914154,34.35985767674599,0.0,0,0,0,0
0.1799999999999784,0.0,1,1,1,1,1,1,1,1,0.0,0.0,0.0,0.05679584467517427,0.00630551066118177,0.023845615131775178,0.007876272213088729,0.08348584014885378,0.00013045582899873145,0,0.07476052966514928,0.0,0.12430168694730633,178.83728213880175,0.014493293034014525,34.370757677089316,0.0,0,0,0,0
0.18999999999999773,0.0,1,1,1,1,1,1,1,1,0.0,0.0,0.0,0.05578848864568342,0.008457828623188479,0.021855009090660814,0.002634423295467034,0.08396398620595596,0.004004263932525819,0,0.06819843680713863,0.0,0.12468736767060266,177.84353330460596,0.028086632666894915,34.383761893619315,0.0,0,0,0,0
0.19999999999998863,0.0,1,1,1,1,1,1,1,1,0.0,0.0,0.0,0.0541950703643087,0.008836695033864568,0.020197487832506106,0.02972254859763587,0.09092825478170558,0.002394923461636605,0,0.06667128391098276,0.0,0.12467257143261579,177.74693928570977,0.0596835654288654,34.43549401407163,0.0,0,0,0,0
0.20999999999997954,0.0,1,1,1,1,1,1,1,1,0.0,0.0,0.0,0.052332227788372536,0.007817051685626901,0.02013856612766511,0.018176736510781014,0.08097360082027592,-0.0040182478859104335,0,0.06421787212899845,0.0,0.12369684324202757,178.93131001765624,0.053015561876489245,34.48871387035905,0.0,0,0,0,0
0.21999999999999886,0.0,1,1,1,1,1,1,1,1,0.0,0.0,0.0,0.05057504613026206,0.0074653627133156545,0.021603342479051664,-0.0036356352222090636,0.07162674522034682,-0.013693777680078652,0,0.06727033529796327,0.0,0.1253559174540027,180.40092513641844,0.06842380825305204,34.5459910232305,0.0,0,0,0,0
0.22999999999998977,0.0,1,1,1,1,1,1,1,1,0.0,0.0,0.0,0.0487744904915189,0.007728198371370225,0.021459396190217656,-0.023711192407654368,0.06258036366881294,-0.01402652132359482,0,0.0715288464909545,0.0,0.12368700734883523,180.468644359258,0.06317431085641162,34.61791636406308,0.0,0,0,0,0
0.23999999999998067,0.0,1,1,1,1,1,1,1,1,0.0,0.0,0.0,0.04686239598653316,0.009440747116859244,0.020000887592001287,0.007413280810957421,0.05910924428224068,-0.020781704878588565,0,0.07514103883387006,0.0,0.12401879094020378,179.92612634260905,0.029732580392282597,34.6570050393173,0.0,0,0,0,0
0.25,0.0,1,1,1,1,1,1,1,1,0.0,0.0,0.0,0.04538798089677935,0.010617305108582446,0.01811908804274906,0.016470127061996184,0.05671829500965497,-0.0079255029876401,0,0.06902471693738362,0.0,0.12247472361797573,178.69866605472663,0.02866194566724524,34.682043868164264,0.0,0,0,0,0
0.2599999999999909,0.0,1,1,1,1,1,1,1,1,0.0,0.0,0.0,0.04442700094420172,0.010435387648887011,0.016106946566434605,0.006158353037167038,0.04342692320661463,-0.0008521865388235936,0,0.05836536234656411,0.0,0.12321812342684288,177.23303192780696,0.0269918641742996,34.70652223235572,0.0,0,0,0,0
0.2699999999999818,0.0,1,1,1,1,1,1,1,1,0.0,0.0,0.0,0.04266707463115405,0.010713551005474045,0.015072965453317674,-0.00949346620389488,0.029827301453099926,-0.010034330747073775,0,0.06324639656148548,0.0,0.12333821112916513,176.69244582197834,0.023083763093848898,34.73036492173443,0.0,0,0,0,0
0.28000000000000114,0.0,1,1,1,1,1,1,1,1,0.0,0.0,0.0,0.040393840384253164,0.010946765613771699,0.01400068915027154,-0.0014931887464750219,0.03070837302363033,0.0021702315772137077,0,0.055099432065646395,0.0,0.12342327713752663,177.82049093200857,0.02508569037303595,34.75121827072521,0.0,0,0,0,0
0.28999999999999204,0.0,1,1,1,1,1,1,1,1,0.0,0.0,0.0,0.03853400003663619,0.010399530433229841,0.012205282104697304,-0.0014952336563815241,0.02928655163585228,-0.012189587078084903,0,0.05608757237481314,0.0,0.12398813638786273,178.2261829888077,0.028990581530664944,34.78085679351422,0.0,0,0,0,0
0.29999999999998295,0.0,1,1,1,1,1,1,1,1,0.0,0.0,0.0,0.03645844550477849,0.010668886545274384,0.011651149383543126,-0.01791838064588114,0.02679193563593822,-0.007287918380822271,0,0.05854326609860215,0.0,0.12355562888791127,178.05429147757621,0.013897579882121546,34.79611002417516,0.0,0,0,0,0
0.3100000000000023,0.0,1,1,1,1,1,1,1,1,0.0,0.0,0.0,0.03499596801896633,0.01223837019748451,0.010145268520570577,0.0019415157720230058,0.01504135387244782,-0.005197437036311233,0,0.05223115906834728,0.0,0.12292993398301418,177.46701802658302,0.012851157636731404,34.806511233346825,0.0,0,0,0,0
0.3199999999999932,0.0,1,1,1,1,1,1,1,1,0.0,0.0,0.0,0.03396106181003196,0.013335226894419643,0.009295559000152597,-0.0022702316293772055,0.022321844687344064,-0.003284751050717813,0,0.05257315710240081,0.0,0.12321319394681632,178.19135174582544,0.032913023121191494,34.8323489005721,0.0,0,0,0,0
0.3299999999999841,0.0,1,1,1,1,1,1,1,1,0.0,0.0,0.0,0.032036186528483425,0.013777982413097283,0.009256246006120189,-0.01095726840892882,0.016589667126825698,-0.0019919774487542436,0,0.049101859471117025,0.0,0.12434317330919194,178.74387176247274,0.008155924551455331,34.84823156421916,0.0,0,0,0,0
0.339999999999975,0.0,1,1,1,1,1,1,1,1,0.0,0.0,0.0,0.0299129762752565,0.014024310453510616,0.00862873627721181,-0.013466844401575749,0.013794115621105031,-0.004382330350765161,0,0.047218359084406115,0.0,0.12420057675005129,178.6392447384833,0.022137252338128074,34.860306244750134,0.0,0,0,0,0
0.3499999999999943,0.0,1,1,1,1,1,1,1,1,0.0,0.0,0.0,0.02795815656197199,0.014225327395761014,0.008842448484693748,-0.0070588954285035425,0.009605111970329082,-0.011896134541808486,0,0.05178922638526369,0.0,0.125530088643088,179.6236511445805,0.02807744506141804,34.88883148002434,0.0,0,0,0,0
0.3599999999999852,0.0,1,1,1,1,1,1,1,1,0.0,0.0,0.0,0.026276198751908904,0.014511058488992656,0.009421541862859598,-0.013309562984298674,-0.0046174096752231485,-0.020883096122139084,0,0.058766317543425116,0.0,0.12520851189925725,179.8037517331242,0.024559576530061848,34.91607408539712,0.0,0,0,0,0
0.3699999999999761,0.0,1,1,1,1,1,1,1,1,0.0,0.0,0.0,0.025220745584427773,0.014213798092385505,0.009274016382946613,0.010575655612285092,-0.0013513659740873123,-0.015694399247913642,0,0.05871964269343914,0.0,0.12394814052102346,179.7970661596105,0.02283461898718637,34.93893649957299,0.0,0,0,0,0
0.37999999999999545,0.0,1,1,1,1,1,1,1,1,0.0,0.0,0.0,0.02375714107608622,0.014149110749298406,0.009284911775715846,0.012318892437154965,-0.011971382177702801,-0.012370720262720474,0,0.0518330331335136,0.0,0.12384944885357148,179.64296721526287,0.019483623929866044,34.95732270647399,0.0,0,0,0,0
0.38999999999998636,0.0,1,1,1,1,1,1,1,1,0.0,0.0,0.0,0.022557797741595116,0.013988923587730477,0.009088997748020237,0.003308711239473777,-0.009909949113464942,-0.009670980379808925,0,0.04803013108681805,0.0,0.12294754463983952,179.31214527338074,0.01640759044345981,34.97315036731261,0.0,0,0,0,0
0.39999999999997726,0.0,1,1,1,1,1,1,1,1,0.0,0.0,0.0,0.021748362015928523,0.0135862931933383,0.008266528267105996,0.002555724584305845,-0.014515033513577573,-0.0067602508916183406,0,0.04464173691987603,0.0,0.12333496736235468,179.23385200081466,0.009736038315315103,34.98409191701319,0.0,0,0,0,0
0.4099999999999966,0.0,1,1,1,1,1,1,1,1,0.0,0.0,0.0,0.0212006658632257,0.01372950688466279,0.007467018813238645,0.011920643342426483,-0.01992772663620203,-0.012127776393387149,0,0.044674031115346124,0.0,0.12386184387106647,179.2715382925293,0.011185180328861177,34.97745133800784,0.0,0,0,0,0
0.4199999999999875,0.0,1,1,1,1,1,1,1,1,0.0,0.0,0.0,0.020853191026788242,0.013850422608578456,0.00640282080001503,0.0041024281439640195,-0.011713395326870588,-0.0029778427730796546,0,0.042289167083259534,0.0,0.124376829108321,179.32971753333342,0.00930935751421199,34.96679700479069,0.0,0,0,0,0
0.4299999999999784,0.0,1,1,1,1,1,1,1,1,0.0,0.0,0.0,0.021172555465876045,0.01463335863730636,0.005885761524071475,0.012076363767613122,-0.015445573052138195,-0.011169583987260371,0,0.04201578483769878,0.0,0.12365634807863121,179.76245642065277,0.010971763126647115,34.9567558322837,0.0,0,0,0,0
0.4399999999999977,0.0,1,1,1,1,1,1,1,1,0.0,0.0,0.0,0.02150844235697431,0.014968363542826513,0.005679467333126114,0.009355217633071868,-0.01590249152663361,-0.0032685280384599264,0,0.04451584032626101,0.0,0.12464092488491034,179.80843319852642,0.009572109753662534,34.94693916364314,0.0,0,0,0,0
0.44999999999998863,0.0,1,1,1,1,1,1,1,1,0.0,0.0,0.0,0.022957545321896894,0.015242858757665408,0.005958358742793937,0.004965742213085266,-0.022277611830248355,-0.013324775779300363,0,0.0444340120472977,0.0,0.12515703006666246,180.34055297975874,0.01040666588955907,34.93756721388386,0.0,0,0,0,0
0.45999999999997954,0.0,1,1,1,1,1,1,1,1,0.0,0.0,0.0,0.023107737890490792,0.01582066889163759,0.006323530564985501,0.004420910884394608,-0.010259689059255278,-0.011400258787233174,0,0.05351034614748749,0.0,0.12429231078868304,181.36869634291116,0.006249215243008668,34.93152364725768,0.0,0,0,0,0
0.46999999999999886,0.0,1,1,1,1,1,1,1,1,0.0,0.0,0.0,0.0239808830126382,0.016236474299560225,0.007397003959163827,0.010139585441102902,-0.024409252289968427,-0.021020465480175932,0,0.05307280240788577,0.0,0.12353209459976919,181.8061405011942,0.006860144385361465,34.92620141645087,0.0,0,0,0,0
0.47999999999998977,0.0,1,1,1,1,1,1,1,1,0.0,0.0,0.0,0.025398136599040264,0.015921438186355642,0.0071256155273969396,0.0021243277399036107,-0.008635485939844149,-0.011806428430857632,0,0.06122569299225568,0.0,0.12405451861996672,181.93220784064235,0.003233694588092386,34.924052564616815,0.0,0,0,0,0
0.4899999999999807,0.0,1,1,1,1,1,1,1,1,0.0,0.0,0.0,0.026623991173997007,0.01642350939053419,0.007051412435120802,0.007493792263998125,-0.013381118765841554,-0.004610846944975209,0,0.0468536922816253,0.0,0.1224342762842429,181.99031460769896,0.004872036964416745,34.91645871023785,0.0,0,0,0,0
0.5,0.0,1,1,1,1,1,1,1,1,0.0,0.0,0.0,0.02817712765789237,0.016318503291190833,0.007247796186904101,-0.0009388059689448406,-0.007006716853122454,-0.008177093744678291,0,0.05202838108866261,0.0,0.12367458008353456,181.5817591275889,0.0038845468061314524,34.91301917019411,0.0,0,0,0,0
0.5099999999999909,0.0,1,1,1,1,1,1,1,1,0.0,0.0,0.0,0.028867572882158236,0.016885166986860493,0.007024103344185336,-0.016135398144031192,-0.0011463442454474517,-0.010364311530590253,0,0.05357496080256691,0.0,0.12287864907358106,180.85630696207198,0.0017070987230829778,34.912258761189854,0.0,0,0,0,0
0.5199999999999818,0.0,1,1,1,1,1,1,1,1,0.0,0.0,0.0,0.030375473012384243,0.01711879984126414,0.006103133428859612,-0.003096488761457571,-0.0033041041268622295,-0.009211045048075071,0,0.05742043332675595,0.0,0.12133607380010321,180.96513420817615,0.0036609945020005244,34.910376510512336,0.0,0,0,0,0
0.5300000000000011,0.0,1,1,1,1,1,1,1,1,0.0,0.0,0.0,0.03162845018820565,0.0168707228211238,0.005645445700623078,-0.0059105558433287875,-0.000582296546810765,-0.020356819304086195,0,0.06461700999846787,0.0,0.1232551788080829,180.6427432347669,0.005593863480658403,34.90903104714339,0.0,0,0,0,0
0.539999999999992,0.0,1,1,1,1,1,1,1,1,0.0,0.0,0.0,0.033583405745324334,0.01781592084179566,0.005069627928682174,0.0006465142580877211,-0.0041103981427634,-0.017638457589602363,0,0.06850187991957371,0.0,0.12372127411144906,181.1335901622984,0.003047532123090741,34.90701858291123,0.0,0,0,0,0
0.549999999999983,0.0,1,1,1,1,1,1,1,1,0.0,0.0,0.0,0.03447258997411304,0.017966127393291446,0.00435369913198211,0.005452417603439874,0.0016856795606152754,-0.009705304168494567,0,0.06630269429082646,0.0,0.12291887608779177,181.22152269724992,0.0037836705067875575,34.903173189450925,0.0,0,0,0,0
0.5600000000000023,0.0,1,1,1,1,1,1,1,1,0.0,0.0,0.0,0.03475063081582697,0.017531868822083102,0.004491112424876863,-0.006864883130445427,0.008004079909532284,-0.008519914587546928,0,0.06083168026651126,0.0,0.12290550665238802,181.56358233542792,0.0021430988996797174,34.89914224069292,0.0,0,0,0,0
0.5699999999999932,0.0,1,1,1,1,1,1,1,1,0.0,0.0,0.0,0.03565310249806701,0.0175883631112458,0.004994788172221696,-0.01266388144701769,0.011126865365238138,0.00024828712362097384,0,0.05479974307044402,0.0,0.12196007976432537,182.01883946005472,0.0028320206498574276,34.89585296653695,0.0,0,0,0,0
0.5799999999999841,0.0,1,1,1,1,1,1,1,1,0.0,0.0,0.0,0.036479806878521794,0.017570752775611945,0.005019562602851894,-0.0035630265489396424,0.007006192748945721,-0.008390255009451914,0,0.06067386444765545,0.0,0.12271093427345821,182.09198264170453,0.0010156393905929647,34.89620127268719,0.0,0,0,0,0
0.589999999999975,0.0,1,1,1,1,1,1,1,1,0.0,0.0,0.0,0.03717893576362801,0.01745358491977828,0.005714261497014664,0.0012703631227440997,0.004757124085818265,0.003494447570889792,0,0.057382402581080016,0.0,0.12265918133920702,181.3993193307961,0.00038167159825982025,34.89578004557911,0.0,0,0,0,0
0.5999999999999943,0.0,1,1,1,1,1,1,1,1,0.0,0.0,0.0,0.037027243881581934,0.017925852643038778,0.006162221782246701,-0.00437363183787949,-0.002875665103867342,-0.010323976908754218,0,0.059549935564466874,0.0,0.1222789385542326,181.13958054638834,0.0005974698249674153,34.89605350877855,0.0,0,0,0,0
0.6099999999999852,0.0,1,1,1,1,1,1,1,1,0.0,0.0,0.0,0.036709320350962575,0.018226156775452217,0.00594846316931236,0.0020327713980967735,0.002957846429865402,0.0009778768166534711,0,0.06149463140920832,0.0,0.1217921667778217,181.53309240652692,0.000666970697937419,34.89610669154023,0.0,0,0,0,0
0.6199999999999761,0.0,1,1,1,1,1,1,1,1,0.0,0.0,0.0,0.036357885620919156,0.01838694271244091,0.0056176121263507755,-0.003084867504555908,3.1923992738583395e-05,-0.0080746601644197,0,0.058680045250869964,0.0,0.12141730501567236,181.18029274907695,0.001115291972207796,34.89555879090365,0.0,0,0,0,0
0.6299999999999955,0.0,1,1,1,1,1,1,1,1,0.0,0.0,0.0,0.036440600589763866,0.018718098149734505,0.005538415820643362,0.00939868228533167,0.004670922708748451,-0.0038968235218209265,0,0.06147163968460123,0.0,0.1215999747476646,180.99383802289427,0.0029222207602446204,34.8987214940488,0.0,0,0,0,0
0.6399999999999864,0.0,1,1,1,1,1,1,1,1,0.0,0.0,0.0,0.036175586790489836,0.01887671579552128,0.005390547881009268,-0.001732792979007075,0.0031081826545618857,-0.008269432891709224,0,0.060303585164016835,0.0,0.12156243696510809,180.40885869180426,0.0010731590669189987,34.90013818190988,0.0,0,0,0,0
0.6499999999999773,0.0,1,1,1,1,1,1,1,1,0.0,0.0,0.0,0.03521809921205313,0.019065451605616957,0.0053228502274758685,-0.0018063012634263798,-0.002379210104935514,-0.0029621546274000974,0,0.05983770043366967,0.0,0.1226405141857212,180.6574990615699,0.0007714745916892335,34.90015181628068,0.0,0,0,0,0
0.6599999999999966,0.0,1,1,1,1,1,1,1,1,0.0,0.0,0.0,0.03459032952713606,0.018976488818521556,0.005162192993451653,-0.003987552562938676,-0.001564951801724247,-0.011878398045938822,0,0.061919299445849216,0.0,0.12152856877602933,180.9214612056307,0.00046889818939168174,34.90043642663503,0.0,0,0,0,0
0.6699999999999875,0.0,1,1,1,1,1,1,1,1,0.0,0.0,0.0,0.03399513984725051,0.01905790469641651,0.005484607809517663,-0.003882959392442111,-0.0034246277553907456,-0.007636474507033821,0,0.062347545216506185,0.0,0.12203798499165126,180.84924761935153,0.0016254996151127757,34.90140952856431,0.0,0,0,0,0
0.6799999999999784,0.0,1,1,1,1,1,1,1,1,0.0,0.0,0.0,0.03362963047479165,0.01890935648224574,0.005996272190831534,-0.0010559746888656543,-0.002591178764848966,-0.012612027390747661,0,0.06343506637759788,0.0,0.12282272152195006,180.60028453161553,0.0019956581203391353,34.90112972259594,0.0,0,0,0,0
0.6899999999999977,0.0,1,1,1,1,1,1,1,1,0.0,0.0,0.0,0.03345573470903246,0.018961704379366628,0.0064163204105786124,-0.0034517325218666943,-0.00602737449044613,-0.009893601541274243,0,0.06374791666131512,0.0,0.1232593049622478,181.21760569870293,0.003543430486162402,34.904753946830894,0.0,0,0,0,0
0.6999999999999886,0.0,1,1,1,1,1,1,1,1,0.0,0.0,0.0,0.03307564626177258,0.01880089916208801,0.006453849724020919,-0.0027410569385931723,-0.006149792643024833,-0.0012637468172598482,0,0.0580085851630055,0.0,0.12096517149653403,180.6353326470281,0.0020284148048060734,34.90551473462436,0.0,0,0,0,0
0.7099999999999795,0.0,1,1,1,1,1,1,1,1,0.0,0.0,0.0,0.033063144687894105,0.018695999628693824,0.005724918895505528,0.002766881397618537,-0.0016050632254075436,-0.012727864027690718,0,0.05913775187730659,0.0,0.12246346471910405,180.901930502625,0.0007892450761098138,34.9070638684188,0.0,0,0,0,0
0.7199999999999989,0.0,1,1,1,1,1,1,1,1,0.0,0.0,0.0,0.03319214039941226,0.01860795196390932,0.005264955744437353,0.002116608803802107,-0.0064169303832781,-0.0032452599208705963,0,0.06051200634861318,0.0,0.12167967764844032,180.49974910849323,0.0006160732984754353,34.90717773777369,0.0,0,0,0,0
0.7299999999999898,0.0,1,1,1,1,1,1,1,1,0.0,0.0,0.0,0.033171017617530954,0.018462185524994127,0.005407698516200879,0.006619817574634153,-0.0026597657194799744,-0.004064301723846225,0,0.053100521096328915,0.0,0.12222580072735907,180.98990317971973,0.000874140130320028,34.906736706862326,0.0,0,0,0,0
0.7399999999999807,0.0,1,1,1,1,1,1,1,1,0.0,0.0,0.0,0.033410956425295575,0.018559951726404848,0.005142816091714835,0.004772963838997855,-0.0019018061987968358,-0.005401143517125987,0,0.05629903481609335,0.0,0.12176189456708778,181.13148305551573,0.0005601976828228765,34.90766684528952,0.0,0,0,0,0
0.75,0.0,1,1,1,1,1,1,1,1,0.0,0.0,0.0,0.033457310786298454,0.01856174279814736,0.0053240282923035925,0.0020778134151506825,-0.004273916837230203,-0.015103763817458954,0,0.06569497105544868,0.0,0.12171051519150085,181.43557659446992,0.0012491211476083949,34.90938099305687,0.0,0,0,0,0
0.7599999999999909,0.0,1,1,1,1,1,1,1,1,0.0,0.0,0.0,0.033167012078872404,0.01867631583833889,0.005500012714614936,0.011821370719370144,-0.00651846257838456,-0.005193533946738889,0,0.06154479455071926,0.0,0.12108094125017514,180.96708246621859,0.0012844250337606423,34.90843485239153,0.0,0,0,0,0
0.7699999999999818,0.0,1,1,1,1,1,1,1,1,0.0,0.0,0.0,0.0330376575504105,0.018560774711676938,0.005661568736796751,0.004139005528377867,-0.005645420285744217,-0.008241066753037768,0,0.05653261347721829,0.0,0.12154412623891933,181.32754768657236,0.0011787589485763531,34.906105172961105,0.0,0,0,0,0
0.7800000000000011,0.0,1,1,1,1,1,1,1,1,0.0,0.0,0.0,0.033254204308861716,0.01908704410574187,0.006561550611562921,0.0006264019474349551,2.864264794279962e-05,0.005190453460403694,0,0.057322207693914475,0.0,0.12240605048579825,181.29525766729512,0.0022116253125155326,34.906785671646844,0.0,0,0,0,0
0.789999999999992,0.0,1,1,1,1,1,1,1,1,0.0,0.0,0.0,0.03444048522436853,0.01884281661684707,0.006441708949124311,0.004163242756852168,-0.0032708614595235446,-0.00999291119011521,0,0.05835494536039444,0.0,0.12167046256332,181.47903331805887,0.0017747907659844998,34.90994837329567,0.0,0,0,0,0
0.799999999999983,0.0,1,1,1,1,1,1,1,1,0.0,0.0,0.0,0.03469907954360353,0.018894392507667737,0.0064345994214802275,0.0012125193743696661,0.0011238242369216924,-0.00823207744733365,0,0.06154368853131444,0.0,0.12100511912704874,181.46443757553288,0.002049167620674818,34.91270642703298,0.0,0,0,0,0
0.8100000000000023,0.0,1,1,1,1,1,1,1,1,0.0,0.0,0.0,0.034847437023753015,0.019218256128491713,0.006359347103355682,0.00777124435606181,-0.002337467967733087,-0.020749111305430105,0,0.07035057736531813,0.0,0.12148616926272833,181.0049807013939,0.0018937974388736328,34.91434524975689,0.0,0,0,0,0
0.8199999999999932,0.0,1,1,1,1,1,1,1,1,0.0,0.0,0.0,0.03528507641711806,0.019234438185084513,0.006063420295639128,-0.00262772891983846,0.0029159102917900325,-0.005171884319880245,0,0.06720828306432709,0.0,0.12153002524097187,180.802298600157,0.004074733155999056,34.91553716231643,0.0,0,0,0,0
0.8299999999999841,0.0,1,1,1,1,1,1,1,1,0.0,0.0,0.0,0.0354911376942244,0.019521753684220846,0.005699975384725342,0.007511527883941612,-0.0009508620330294654,-0.0009998761958693887,0,0.057002052240007074,0.0,0.12163733591467174,181.15687582238954,0.0010278123981280335,34.91466194407871,0.0,0,0,0,0
0.839999999999975,0.0,1,1,1,1,1,1,1,1,0.0,0.0,0.0,0.034909153131613,0.01947388457394385,0.005998744736218014,-0.0023996932145102026,-0.0005179931869129639,-0.002025175454840673,0,0.05581706928977605,0.0,0.12319094453419059,181.48592763980028,0.000403934140573747,34.91420596343288,0.0,0,0,0,0
0.8499999999999943,0.0,1,1,1,1,1,1,1,1,0.0,0.0,0.0,0.03499966198188709,0.01914574619870687,0.0064285339927416234,-0.007716228425554387,0.0016762182860670057,-0.01054929335045564,0,0.06061960599516085,0.0,0.12204147976943598,181.95101671609476,0.0017985134341915662,34.91561447485215,0.0,0,0,0,0
0.8599999999999852,0.0,1,1,1,1,1,1,1,1,0.0,0.0,0.0,0.035338631419331995,0.019048939286995553,0.0072236580729730954,-0.006434153388924558,0.004678296531280799,-0.006349662418043088,0,0.06445579754224798,0.0,0.12154226076327782,182.18276678990836,0.0030720998820827974,34.91901721747412,0.0,0,0,0,0
0.8699999999999761,0.0,1,1,1,1,1,1,1,1,0.0,0.0,0.0,0.03463177906166941,0.01917797461833141,0.007841458817221203,0.0004839944411273783,-0.004871411204244098,0.00014174807392020592,0,0.055845974063999215,0.0,0.12192194903095219,182.54265721313243,0.010139267198619547,34.92299101880193,0.0,0,0,0,0
0.8799999999999955,0.0,1,1,1,1,1,1,1,1,0.0,0.0,0.0,0.03487633829185654,0.01931505553343499,0.008162438031013712,-0.006684971267306374,0.0007836191843089363,-0.007383652532291826,0,0.05703896962422626,0.0,0.12120408318364773,182.3788294867365,0.005149729515476818,34.9334795060522,0.0,0,0,0,0
0.8899999999999864,0.0,1,1,1,1,1,1,1,1,0.0,0.0,0.0,0.034723096057024866,0.02010785510831418,0.00836716646871315,-0.003389247867598549,0.001973065058432302,-0.00776801918640969,0,0.06493914204317179,0.0,0.12247083398713314,181.06476367004157,0.0025846429913656543,34.935235773804614,0.0,0,0,0,0
0.8999999999999773,0.0,1,1,1,1,1,1,1,1,0.0,0.0,0.0,0.033841503246674426,0.019585201741104116,0.0076040382755374804,-0.0010144779941682065,0.002092769292696035,3.2805850239032725e-06,0,0.05565412623184548,0.0,0.12090350468681624,181.14796929756963,0.018554129052518915,34.94349750798256,0.0,0,0,0,0
0.9099999999999966,0.0,1,1,1,1,1,1,1,1,0.0,0.0,0.0,0.03387809761648064,0.018775403636846176,0.007706393970609704,-0.015405463202791514,0.0007334805376376062,0.0030679205528842328,0,0.05465421743956458,0.0,0.12138575670599565,181.29057432903414,0.0063923256951638075,34.95853245302374,0.0,0,0,0,0
0.9199999999999875,0.0,1,1,1,1,1,1,1,1,0.0,0.0,0.0,0.03451527340831188,0.01926404675349495,0.007486234703852378,-0.014548738175939453,0.007922053166934383,0.00432717814704194,0,0.05790320129534905,0.0,0.12145053581097524,181.27173708019563,0.0014305429179090213,34.96010861270498,0.0,0,0,0,0
0.9299999999999784,0.0,1,1,1,1,1,1,1,1,0.0,0.0,0.0,0.03450722748001304,0.019792429004129183,0.007042702053883622,0.007314066837351162,0.0019442633216053338,0.004264856221548676,0,0.05772606374210042,0.0,0.1209439132885562,180.63300905007813,0.0010069709933312743,34.96021867372038,0.0,0,0,0,0
0.9399999999999977,0.0,1,1,1,1,1,1,1,1,0.0,0.0,0.0,0.03471655114832547,0.020262092114140155,0.006231932546949854,0.008371840344219842,-0.0018014489309050342,-0.000449156974261498,0,0.05740156897600528,0.0,0.12131747787169471,180.07320765460548,0.000815407589161217,34.96005636203305,0.0,0,0,0,0
0.9499999999999886,0.0,1,1,1,1,1,1,1,1,0.0,0.0,0.0,0.03333007738740966,0.020084353963303745,0.006167424371077892,0.0034341129002220324,-0.0005453336844593694,0.00523585922077297,0,0.05822260776559478,0.0,0.12073102592164468,180.2426928747785,0.002774702997648237,34.956895851073384,0.0,0,0,0,0
0.9599999999999795,0.0,1,1,1,1,1,1,1,1,0.0,0.0,0.0,0.033338336613602804,0.020508349929173133,0.005856545412627295,-0.006659790355203851,0.0034617628733109524,-0.013172834567898738,0,0.06180049925001106,0.0,0.12041335970480234,180.7997017125097,0.001271760408174066,34.95602462402533,0.0,0,0,0,0
0.9699999999999989,0.0,1,1,1,1,1,1,1,1,0.0,0.0,0.0,0.03353715865572294,0.021239175555612635,0.005664160735544627,-0.005310995160992557,0.00021854535972738243,0.004495883844769349,0,0.05990894125759046,0.0,0.12083283191917871,181.42723484344802,0.000916546718926603,34.956074190253034,0.0,0,0,0,0
0.9799999999999898,0.0,1,1,1,1,1,1,1,1,0.0,0.0,0.0,0.033127275772616774,0.02094873131232929,0.00653030078900056,0.008854931604092325,-0.002895978759717716,-0.006472238863509672,0,0.05837693345679877,0.0,0.12152895459858055,181.36107853386062,0.0009965330950217639,34.956418066360655,0.0,0,0,0,0
0.9899999999999807,0.0,1,1,1,1,1,1,1,1,0.0,0.0,0.0,0.0325622817003517,0.020717180670639483,0.0075444346159401965,-0.0049993876852437395,-3.110527049290495e-05,0.006380190183124345,0,0.05781301143487215,0.0,0.12092476769788671,181.37065995115168,0.0130612400521948,34.960819395832516,0.0,0,0,0,0
1.0,0.0,1,1,1,1,1,1,1,1,0.0,0.0,0.0,0.032690332725581875,0.020055252650164803,0.006944093318626574,-0.008732190208802225,0.00223364848389722,-0.0016266531276243343,0,0.05645015868041701,0.0,0.12162266904346408,182.00061423027432,0.023356817224431507,34.983006121723164,0.0,0,0,0,0
1.009999999999991,0.0,1,1,1,1,1,1,1,1,0.00014974911988283567,0.0,0.0,0.0325232531262667,0.020040612939154063,0.007098441571801118,-0.004268938692028542,-0.0010575513721584066,-0.005876152888202383,0,0.06080599515678993,1009.6633554134014,0.12150727945505939,181.66310852299824,0.018029381836124406,35.00278092325916,0.0,0,0,0,0
1.0199999999999818,0.0,1,1,1,1,1,1,1,1,0.012913210980594137,0.0,0.0,0.03283678009419687,0.019977452403767946,0.006524284922670468,0.0044457385549879404,-0.0009996162270469286,-0.006236761952776039,0,0.04912441523491738,102.00588758772288,0.1213841385822821,182.01475435468998,0.015500246829534011,35.019718766570186,0.0,0,0,0,0
1.0300000000000011,0.0,1,1,1,1,1,1,1,1,0.02585078527078412,0.0,0.0,0.03221262084724853,0.02047487302605097,0.0071106989805366115,0.007623635005926511,-5.481197947457744e-05,0.0007670159745556762,0,0.03564244165689926,33.68363145612051,0.12160015843003387,181.6609285288602,0.01010281094166406,35.03096549935949,0.0,0,0,0,0
1.039999999999992,0.0,1,1,1,1,1,1,1,1,0.03868001374359667,0.0,0.0,0.03400568489967194,0.020832204492872482,0.006037573652578639,-0.0020633017316943622,-0.0016490671648211215,-0.000912854220319099,0,0.024381440669193934,20.791933969960407,0.12299279584314697,180.48100174074335,0.008394045275821348,35.02628220266034,0.0,0,0,0,0
1.049999999999983,0.0,1,1,1,1,1,1,1,1,0.0515309139390231,0.0,0.0,0.03625793917567865,0.020748051136588726,0.006175682920501182,-0.0029391854203605853,-0.014967307825097793,0.0036937496120539566,0,0.03593570779157481,15.610213381443282,0.12613975431403027,180.9783054010624,0.00887763899748988,35.02000695408144,0.0,0,0,0,0
1.0600000000000023,0.0,1,1,1,1,1,1,1,1,0.06438835387400602,0.0,0.0,0.03829820582475629,0.020350857216121194,0.00670815336984205,-0.004997613322430967,-0.02769597085518455,0.0006065354170426749,0,0.043827644937646654,12.44831753442035,0.12723839506936835,182.5359607818081,0.006596316751461726,35.01379656005811,0.0,0,0,0,0
1.0699999999999932,0.0,1,1,1,1,1,1,1,1,0.07720692566189931,0.0,0.0,0.04014625657070876,0.02054649237349969,0.009251564422996386,-0.0033797046626810297,-0.022350805954730654,0.0029738388702926382,0,0.056262155649451695,10.38904911670316,0.1285016677539009,183.11478552371386,0.005160671851063283,35.01025116516981,0.0,0,0,0,0
1.079999999999984,0.0,1,1,1,1,1,1,1,1,0.08994159049705477,0.0,0.0,0.045615203219603224,0.01999180059938526,0.011180670366415063,0.005446170441799255,-0.03195243206445414,0.008944778237226409,0,0.06974038039011629,8.90403334577115,0.12897978180021671,184.24367096966526,0.008864881220954043,35.00857417542541,0.0,0,0,0,0
1.089999999999975,0.0,1,1,1,1,1,1,1,1,0.10291695880640694,0.0,0.0,0.05335082664302059,0.02006194730498291,0.012694383527062878,0.00030023329617968127,-0.04692658708451422,-0.001996877575757951,0,0.07057165824483522,8.057465424337362,0.13123033717171817,185.0102953749299,0.026875290139461445,34.99489357897121,0.0,0,0,0,0
1.0999999999999943,0.0,1,1,1,1,1,1,1,1,0.11570452533210229,0.0,0.0,0.05977212831175767,0.019684947983501875,0.01398322158839303,0.007856395929597818,-0.04371309553118786,0.018343551504844,0,0.08381374743657964,6.945274983149393,0.13093047846802072,185.36876415920364,0.02916008503895645,34.97851727542847,0.0,0,0,0,0
1.1099999999999852,0.0,1,1,1,1,1,1,1,1,0.128460783754214,0.0,0.0,0.06642273946812165,0.01916715558983236,0.015205293759514888,0.007965607824266958,-0.027003825575677015,0.019246345592509387,0,0.09856240499339125,6.338468458835338,0.13202908373673594,185.6622866294575,0.02457004623436221,34.9630150121258,0.0,0,0,0,0
1.1199999999999761,0.0,1,1,1,1,1,1,1,1,0.14121221308286833,0.0,0.0,0.07412151968274315,0.019008615808077743,0.014728779953211178,0.004324023906334044,-0.004015275839734782,0.026251914928805794,3,0.10713403733165061,5.920451444033762,0.13278458324251355,184.72479258881904,0.025119568569683413,34.95290318555389,0.0,0,0,0,0
1.1299999999999955,0.0,1,0,0,1,1,1,1,1,0.15409441118018813,0.0,0.0,0.08482105701344626,0.018500959374064305,0.013165522673307449,0.018597108973786265,-0.010047351128064434,0.018813418034387002,3,0.1101180541192461,5.550599382314898,0.1342278448374495,184.14258673260508,0.0232248737611521,34.94597423653588,40.0,0,0,0,0
1.1399999999999864,0.0,1,0,0,1,1,1,1,1,0.1668497530187439,0.0,0.0,0.09876626604593253,0.01732231645129236,0.012008318588994565,0.022722850847614603,-0.025586020038868597,0.01464244130538496,3,0.10287815343172194,5.818897390090075,0.13669847331070648,184.21961041930842,0.02525610364361726,34.94469565373333,50.0,0,0,0,0
1.1499999999999773,0.0,1,0,0,1,1,1,1,1,0.1796285055526839,0.0,0.0,0.15712553592684597,0.016861263257247044,-0.004689473146118264,0.17808761540466939,-0.18588040222734517,0.03691364510753282,3,0.08790606367691398,16.367628336459568,0.1674304470453461,186.0296490350279,0.06910889930995631,35.011551338592696,50.0,0,0,0,0
1.1619999999999777,0.0,1,0,0,1,1,0,1,1,0.1929845314916319,0.0,0.0,0.2122919863384572,0.00843873321644026,-0.017457479804081574,0.36389246712973045,-0.2907328177200687,0.08571314331855359,3,0.08994239568204318,10.13747815526515,0.14051615287382055,199.8654686380199,0.16341414134319984,35.18675098213768,40.0,0,0,0,0
1.171999999999997,0.0,1,0,0,1,1,0,1,1,0.2057396953629749,0.0,0.0,0.20433672956474958,0.0012875025989276317,-0.02671229124138568,0.47075571337487376,0.04804394814453704,0.13633168994221534,3,0.13302608567236202,3.8150647898264154,0.10893289531514123,213.09530684882776,0.13934908906047128,35.23998606828699,25.0,0,0,0,0
1.181999999999988,0.0,1,0,0,1,1,0,1,1,0.21921378705168681,0.0,0.0,0.19582598207491259,0.006465086921833198,-0.06296466742233546,0.032094721297604614,0.2836714382067354,0.1130199757109419,3,0.1472431152204166,5.281963129295571,0.10522804126571031,171.45029992420507,0.06296372730990629,35.09213153595656,25.0,0,0,0,0
1.1899999999999977,0.0,1,0,0,1,1,0,0,1,0.23068645829256504,0.0,0.0,0.1969905754151484,0.009697939961701459,-0.10567210521888351,-0.24237967136135716,0.40777327314003026,0.18142789062859363,3,0.188484078801923,5.249227336101393,0.0999562089398851,153.07448978495898,0.14039344040274881,35.114224680564625,0.0,0,0,0,0
1.2019999999999982,0.0,1,0,0,1,1,0,0,1,0.24372118251783903,0.0,0.0,0.20882790718492278,-0.002306200958831446,-0.10684775607751026,-0.30241684420883647,0.36863115903517146,0.17167813115737526,3,0.2180198781502874,4.400239673507076,0.0985476285634771,167.90376877350445,0.05433404588794638,35.15749309489808,0.0,0,0,0,0
1.2099999999999795,0.0,1,0,0,1,1,0,0,1,0.25607467775116016,0.0,0.0,0.21804035462016422,0.005898963443206003,-0.10353688547906101,-0.4388705259482698,0.18140801954724348,0.10460822105298395,3,0.17242972938858214,5.0469259593376625,0.09367896549422564,183.87854557180262,0.06776766438216758,35.06415031744577,0.0,0,0,0,0
1.22199999999998,0.0,1,0,0,1,1,0,0,1,0.2693214953944345,0.0,0.0,0.20929451184313247,0.012865896761038059,-0.08722990914356889,-0.3682136900986743,0.20514646882073834,0.09158000616762874,3,0.15778831309967664,4.12770368074014,0.09294001710191381,215.91994068779945,0.025347702269782668,34.994537364499266,0.0,0,0,0,0
1.2319999999999993,0.0,1,0,0,1,1,0,0,1,0.28161267248848304,0.0,0.0,0.1979147613876274,0.02342573444114182,-0.05964495418239202,0.085961467458022,0.23992083834229072,0.03818888198250891,3,0.1554576345024859,2.4327831650218537,0.09060844648549267,241.17149068520968,0.053952716160638126,34.918880388568695,0.0,0,0,0,0
1.2419999999999902,0.0,1,0,0,1,1,0,0,1,0.2946629704666886,0.0,0.0,0.1769843909569048,0.018938657243096277,-0.02030384194830863,0.23263668866294596,0.234875474979754,-0.03754531702815997,3,0.1472032830789675,2.449336081287048,0.09996834661909729,242.07797847517162,0.06580433091954369,34.85253637204926,0.0,0,0,0,0
1.25,0.0,1,0,0,1,1,0,0,1,0.3066466295251233,0.0,0.0,0.17143063729301106,0.013525915775376998,0.00018571926851440514,0.0022587189979858535,0.15830940117776915,-0.031362997213394736,3,0.18135641488920165,3.1663882602090725,0.10474461560173517,234.54502681696795,0.07056843608980945,34.873309015516,0.0,0,0,0,0
1.259999999999991,0.0,1,0,0,1,1,0,0,1,0.319342185271727,0.0,0.0,0.1846818867000195,0.011872613876554618,0.014190497699598431,-0.009934325280208484,0.05894150738221622,-0.015054423781136476,3,0.17341808517445723,4.39978769611771,0.11812738879676596,229.43268786048606,0.037879489215464274,34.935028747155016,0.0,0,0,0,0
1.2699999999999818,0.0,1,0,0,1,1,0,0,1,0.33195953869619294,0.0,0.0,0.19030003343510293,0.005023356907324929,0.06640655728024826,-0.16204980342980713,-0.00783113265781751,0.002234386588822629,3,0.15335131556807952,6.800852191423877,0.1404691666670816,225.6331866322245,0.08618814667434657,35.04467898671555,0.0,0,0,0,0
1.2800000000000011,0.0,1,0,0,1,1,0,0,1,0.34449883285475325,0.0,0.0,0.1893605973755652,0.005336210972399629,0.09860452182276538,-0.42815821332745146,-0.022352039256402154,0.03830280863363999,3,0.1852699108146168,6.849657550660564,0.13966188183567574,227.8890765124524,0.13391734841277977,35.16493368845272,0.0,0,0,0,0
1.289999999999992,0.0,1,0,0,1,1,0,0,1,0.3570614265771514,0.0,0.0,0.1935110869349685,0.013439264324539624,0.1114381228289805,-0.4187885012708965,-0.037253786788948265,0.06459783660128592,3,0.21614275031138006,5.842900451831223,0.13727054655234955,228.19523783050423,0.13329089011031617,35.34436952105771,0.0,0,0,0,0
1.299999999999983,0.0,1,0,0,1,1,0,0,1,0.36961321968569716,0.0,0.0,0.19257414189044111,0.02844657664845667,0.10858361716119268,-0.42654955573898024,-0.043845257988942746,0.09778399890578665,3,0.2868932010391037,4.043367865332793,0.12279480059449085,230.54918503021327,0.10685967812599362,35.536546460204775,0.0,0,0,0,0
1.3100000000000023,0.0,1,0,0,1,1,0,0,1,0.38213763259144434,0.0,0.0,0.19663651857961967,0.03953946441353226,0.09098775983744552,-0.40452907745792244,-0.04784338639709123,0.13447779928300382,3,0.3353475809698937,3.6362062045437815,0.1318064358206263,216.57027619684746,0.06593496227767404,35.70826635612607,0.0,0,0,0,0
1.3199999999999932,0.0,1,0,0,1,1,0,1,1,0.39464768479263235,0.0,0.0,0.24496191902305853,0.055393854172466186,0.06852785313371697,-0.04260165856343419,-0.1798119353990339,0.12566351519845145,3,0.34485176390744104,4.338376532549627,0.13656503613517076,227.71400684928648,0.043388044189154984,35.92719502007829,15.0,0.0,0.0,0.12999999999999998,0.0
1.329999999999984,0.0,0,1,1,0,1,0,1,1,0.40714232454033106,0.0,0.0,0.30793460770740916,0.047844043973459094,0.07029770161765615,0.5587503229494148,-0.2288647814941683,0.1763206912967751,3,0.3300724860417832,5.36169283318762,0.13598401494522674,278.4179937742623,0.28950681695064695,36.225521694256194,75.0,0,0,0,0
1.339999999999975,0.0,0,1,1,0,1,0,1,1,0.4196507704688926,0.0,0.0,0.4071904057947373,0.045326917087874244,0.08551062142655315,0.5688371034358553,-0.5758992027545888,0.17317430590006072,3,0.26561809575540635,8.89631057437335,0.1614355942114351,271.6545658979992,0.3825937208835122,36.61054844516356,75.0,0,0,0,0
1.3499999999999943,0.0,0,1,1,0,1,1,1,1,0.43206724430282334,0.0,0.0,0.43955288634593787,0.02873590344012675,0.10596494112299228,0.09879087302350001,-0.6316827100301199,0.12641499416642843,3,0.197638028593987,2.5996946341477187,0.10277852056230705,287.4497712695768,0.18366278142281822,36.991830016306174,55.0,0.0,0.19000000000000003,0.0,0.0
1.3599999999999852,0.0,0,1,1,0,1,1,1,1,0.44447922566789627,0.0,0.0,0.41350123008756867,0.020353466083214738,0.11081964545363451,-0.17466825209598985,-0.14179041192460337,0.05305801319795332,3,0.12260453800267793,1.5420543657689227,0.08990139090121323,256.4801307735625,0.27415476616242485,36.86724249239706,50.0,0,0,0,0
1.3699999999999761,0.0,0,1,1,0,1,1,1,1,0.45685638718390814,0.0,0.0,0.4026445144404736,0.017942755488068902,0.08951137119636444,-0.4739950601152926,0.2621478676506541,-0.12640511431264223,3,0.12824334391271722,1.4241993780908575,0.08321116200516865,192.72153455366052,0.13595621164439775,36.79344257964035,50.0,0,0,0,0
1.3799999999999955,0.0,0,1,1,0,0,1,1,0,0.46925577247712674,0.0,0.0,0.40876955788482505,0.01677382491147999,0.03315547720383409,-0.384369891744682,0.3160648557557704,-0.24982634207683047,3,0.28016007846401825,2.021729857664647,0.07955996694857345,126.34186888164238,0.25844282180122247,37.023782659872964,25.0,0,0,0,0
1.3899999999999864,0.0,0,1,1,0,0,1,1,0,0.4815756227800758,0.0,0.0,0.44264226934140666,0.012929607508247317,-0.016368432122334464,-0.3707587976916429,0.1779544358448326,-0.25776947260328215,3,0.32736881413030694,3.845382270749943,0.08190255587696631,108.7246069705762,0.1739961366660734,37.404092374091604,0.0,0,0,0,0
1.3999999999999773,0.0,0,1,1,0,0,1,1,0,0.494004584878746,0.0,0.0,0.45946659953639657,0.016121921064178146,-0.037265324182130855,-0.11809280700260194,0.19255543440446699,-0.11449961617258492,3,0.22939760982583915,6.423569119034601,0.10694797266199196,125.69052936705927,0.2632062252190013,37.32384813024383,0.0,0,0,0,0
1.4099999999999966,0.0,0,1,1,0,0,1,1,0,0.5062635731280926,0.0,0.0,0.46604567760175847,0.018224726094320107,-0.046673356147933,0.41447285450251903,0.3855110424265878,0.06140734973797424,3,0.10175382926511575,4.1813839627101625,0.10108340482209263,159.1864720532041,0.07540036917598969,37.23427348931558,0.0,0,0,0,0
1.4199999999999875,0.0,0,1,1,0,0,1,1,0,0.5184333699210351,0.0,0.0,0.479144060345893,0.014911732733738251,-0.05048161074662645,0.7974066860376405,0.5823027333878261,0.17638037871481063,3,0.1985489442640346,2.573062451407927,0.10340572606158478,173.26609627495276,0.2545839086192694,37.37260699576012,0.0,0,0,0,0
1.4299999999999784,0.0,0,1,1,0,0,1,1,0,0.5305975101571795,0.0,0.0,0.5028864982296377,0.0033259394718705934,-0.039309929038684535,0.6650335068382982,0.4645447903355253,0.1618956074499217,3,0.21751810885495174,2.1657102900740517,0.11908155312786624,167.48427381952337,0.1415570652861431,37.559256549500944,0.0,0,0,0,0
1.4399999999999977,0.0,0,1,1,0,0,1,1,0,0.5427847339683304,0.0,0.0,0.5304822997248082,-0.008517091135450476,-0.012788500091312549,0.31481941332189417,0.1484100671681344,0.08333303980439172,3,0.13777553166609938,2.62706857350539,0.13292380835176498,159.038358780152,0.07060028835653775,37.58434279948925,0.0,0,0,0,0
1.4499999999999886,0.0,0,1,1,0,0,1,1,0,0.5548581876314216,0.0,0.0,0.5556370829971293,-0.009436650587363518,0.009796607196542972,0.070229847438113,-0.08752293160425492,0.006131654678856249,3,0.05437232323117112,3.0869448428235433,0.13405979163180395,154.49020889765978,0.11043230484749733,37.699108972773274,0.0,0,0,0,0
1.4599999999999795,0.0,0,1,1,0,0,1,1,0,0.5670736192964364,0.0,0.0,0.5716764964732146,-0.007513264512601688,0.0316819964311796,-0.004162787220932397,-0.23102751107542666,-0.058387002966652335,3,0.049676463782057055,4.150693329912453,0.13428033498061978,157.43196666373927,0.11619456462880895,37.85238391113209,0.0,0,0,0,0
1.4699999999999989,0.0,0,1,1,0,0,1,1,0,0.5791162677047811,0.0,0.0,0.5842893771256942,-0.000579356355381911,0.0469251541343781,0.21900978946553173,-0.36280343915197805,-0.07043262653586616,3,0.07879990898835694,4.668776003242349,0.12239559366195392,151.11939337009207,0.06318061196961366,38.00176241623279,0.0,0,0,0,0
1.4799999999999898,0.0,0,1,1,0,0,1,1,0,0.5911901573674341,0.0,0.0,0.5810591328872765,-0.0004447334197090285,0.03727226863179333,0.32995106100853344,-0.4259446541803259,-0.058692064141592,3,0.07076339989574895,3.7861145279332624,0.09955699118136947,144.8361549485404,0.0954100954288215,38.073292232177174,0.0,0,0,0,0
1.4899999999999807,0.0,0,1,1,0,0,1,1,0,0.6031924250378947,0.0,0.0,0.5887994288379854,-0.0021473288549511333,0.04857379520919857,0.09954713283354498,-0.35675187506522177,-0.027951128137370572,3,0.05303236105931299,3.2441791295570823,0.09490815667152407,149.5553320820331,0.03230959932136779,38.146540195335895,0.0,0,0,0,0
1.5,0.0,0,1,1,0,0,1,1,0,0.6151661029985582,0.0,0.0,0.5947693309316648,-0.009211134601322645,0.05555741749210868,0.0004789311335314725,-0.15332392649489213,-0.03280403166218495,3,0.052778824462781634,2.428716625938155,0.10523760845858235,170.49509935023767,0.055683815638009726,38.27667637406494,0.0,0,0,0,0
1.509999999999991,0.0,0,1,1,0,0,1,1,0,0.6271426240018829,0.0,0.0,0.5958910067126232,-0.01444756262933754,0.041387340428790914,0.19676411938109323,0.14991441179166418,0.02024335202333402,3,0.05624468745719682,1.7695371507282185,0.11247802466574308,188.35002244835147,0.08607077288833898,38.39727899466334,0.0,0,0,0,0
1.5199999999999818,0.0,0,1,1,0,0,1,1,0,0.6390715879268766,0.0,0.0,0.5908498124432192,-0.021529224421238675,0.048980009852018155,0.31168133511817037,0.3691292003618655,0.09797317868439771,3,0.13337991507375171,1.3286207672456203,0.1120623240156787,191.63025124395335,0.03492531080644623,38.49740825358647,0.0,0,0,0,0
1.5300000000000011,0.0,1,0,0,1,0,1,1,1,0.6509645833687979,0.0,0.0,0.5763278074134753,-0.03219034588764613,0.07027610187914284,-0.11004158587753243,0.695238995804333,0.08659468724886557,3,0.19582950151179004,1.0535551979207534,0.09946534545496102,194.77111998705874,0.16357456645716928,38.51327577446602,85.0,0.0,0.0,0.0,0.15
1.539999999999992,0.0,1,0,0,1,1,1,1,1,0.6628135930942982,0.0,0.0,0.5551749681696577,-0.012115554012367706,0.10523730535371942,-0.6032364974912602,1.2686828435193347,-0.21131174285351978,3,0.230933408989831,1.0553834500524937,0.08226323374032418,253.2758234651419,0.37832078073954367,38.399754090654305,60.0,0.16,0.0,0.0,0.0
1.549999999999983,0.0,1,0,0,1,1,1,1,1,0.6746047935360436,0.0,0.0,0.604449497237672,0.011745451309048034,0.10696488099299903,0.028954062300777128,1.1240725301546985,-0.3600068488585993,3,0.4086068078106182,2.8032587401963576,0.10090208559484407,235.15248594125825,0.8378696224497264,39.05459104075955,50.0,0,0,0,0
1.5600000000000023,0.0,1,0,0,1,1,1,0,1,0.6863755296917206,0.0,0.0,0.6801172078034678,-0.0033764078064936103,0.10885815374237594,0.3392949130420836,0.521338623818862,-0.355092494529354,3,0.4053117105040645,4.904394877984132,0.17640001055929883,163.23580566558212,0.44831092754311497,39.997022874555725,25.0,0,0,0,0
1.5699999999999932,0.0,1,0,0,1,1,0,0,1,0.6981235556455724,0.0,0.0,0.724775142904864,-0.012135393853557379,0.13260350534728413,-0.05813284781250007,-0.03794737939410223,-0.22129764469156732,3,0.30535391808335155,7.168836353497012,0.23486162796764445,207.87508495085223,0.2726316182023938,40.29973114793232,0.0,0,0,0,0
1.579999999999984,0.0,1,0,0,1,1,0,0,1,0.7097948835642313,0.0,0.0,0.7007796282469287,-0.018361274583589614,0.15870048460429573,-0.7100349959910068,-0.07070494115901153,-0.02181351465526433,3,0.1321846879642431,5.513545330851243,0.2046918782595893,278.5879775788677,0.6591894368874596,40.09436842243254,0.0,0,0,0,0
1.589999999999975,0.0,1,0,0,1,1,0,0,1,0.7214463507169335,0.0,0.0,0.6854263837651031,0.010773529697545938,0.12071082489981669,-1.0030084297252695,-0.25539531055243464,0.16934246383011836,3,0.13322315989910158,1.2126032578312633,0.10199757326698222,259.7103406930989,0.18070563313962484,39.97789619017394,0.0,0,0,0,0
1.5999999999999943,0.0,1,0,0,1,1,0,0,1,0.7330773519672636,0.0,0.0,0.704095228601552,0.060314647693038966,0.04061401448741769,-0.13094832552626756,-0.5360163525069992,0.2733214078853426,3,0.31149415381445333,0.7615403300186105,0.07627452389859044,167.92414452089605,0.45443398873498575,40.36537200389408,0.0,0,0,0,0
1.6099999999999852,0.0,1,0,0,1,1,0,0,1,0.7446454286683285,0.0,0.0,0.6761473742422636,0.05653162334675042,0.0022712237680450054,0.5314178455114742,-0.29682553675889045,0.34384849293001335,3,0.43946276905024717,0.6477252169670579,0.06532896692051995,125.23467123331186,0.3107037322293311,40.65690976395126,0.0,0,0,0,0
1.6199999999999761,0.0,1,0,0,1,1,0,0,1,0.756156183726847,0.0,0.0,0.6309853458665274,0.016319794704905605,-0.013055713536122924,0.45887719919892833,0.12206671326117427,0.2036863630645489,3,0.4120315484893933,0.9847709988740272,0.05541259654563933,128.6190109359497,0.8691440876934169,40.06999685194172,0.0,0,0,0,0
1.6299999999999955,0.0,1,0,0,1,1,0,0,1,0.7676509323132104,0.0,0.0,0.6492440271498524,-0.014326890498998976,-0.012869810593959623,-0.13833711518114528,0.16850907230845447,0.0057385804147293586,3,0.21690425061087595,1.4585374313025046,0.06666132589516945,161.06274499942484,0.30684162043347296,39.545699122496075,0.0,0,0,0,0
1.6399999999999864,0.0,1,0,0,1,1,0,0,1,0.7790742720572007,0.0,0.0,0.6978163677524547,-0.015259501383573352,-0.009894669058091984,-0.2904112695469372,-0.07690565643401245,-0.14178920510220755,3,0.22445434831410846,2.0699902879391243,0.09452179196538799,187.68586345685884,0.5341534227641342,39.9218618573593,0.0,0,0,0,0
1.6499999999999773,0.0,1,0,0,1,1,0,0,1,0.7904836191432136,0.0,0.0,0.7235330515672792,-0.0030098701661991386,0.0021555979485524297,-0.36388908754308774,-0.227303667100082,-0.19834507239723703,3,0.2453136387722683,1.7945744762694917,0.10423078511635112,223.1185648888316,0.3454380544421478,40.3462792453838,0.0,0,0,0,0
1.6599999999999966,0.0,1,0,0,1,1,0,0,1,0.8018153141369624,0.0,0.0,0.7264609908104297,0.009895770931047352,0.011296282189677816,-0.3403293734194758,-0.22008101176248532,-0.18564781638458855,3,0.2657910172127337,2.0287303267961385,0.10962072785364899,232.09039755570126,0.04802821474810548,40.4518345909752,0.0,0,0,0,0
1.6699999999999875,0.0,1,0,0,1,1,0,0,1,0.8131172412319734,0.0,0.0,0.7339330554861291,0.02866047945704387,-0.010128633340940465,-0.14639905730009,-0.21013074234259996,-0.10880659619422542,3,0.23673574146830542,1.8302631057038563,0.10177154505177492,203.38372100058544,0.024046203333740745,40.38285829284949,0.0,0,0,0,0
1.6799999999999784,0.0,1,0,0,1,1,0,0,1,0.8243917746839724,0.0,0.0,0.7227247466684109,0.0367959969434813,-0.04807072906549716,-0.03792748932194083,-0.017715686057106123,-0.0008424084017249808,3,0.17073000880582667,1.224028396304077,0.10046580505240336,168.70154578217154,0.12506895776564209,40.20593924337972,0.0,0,0,0,0
1.6899999999999977,0.0,1,0,0,1,1,0,0,1,0.8355988281485633,0.0,0.0,0.7009907384136157,0.042930707599893494,-0.0684428450721832,0.008961417875456292,0.21814106018246712,0.08570430744141122,3,0.215536658969853,1.0049557080672988,0.09479063621332987,153.29310702091118,0.09353898905989766,40.000235531318694,0.0,0,0,0,0
1.6999999999999886,0.0,1,0,0,1,1,0,0,1,0.8467645741013661,0.0,0.0,0.6941621559568353,0.04346337372077141,-0.06077834763132334,0.11716161140689249,0.3335964778576073,0.13309341316280182,3,0.30135874338731633,1.213412696661224,0.10587799438698293,158.57777136926416,0.08664589319544724,39.874054246894566,0.0,0,0,0,0
1.7099999999999795,0.0,1,0,0,1,1,0,0,1,0.8578753374587405,0.0,0.0,0.7125952383155365,0.032363970509177366,-0.05226458080411724,0.19865017651231814,0.36911781786908043,0.13500555259377744,3,0.33227505195610363,1.3233201924725748,0.109104214734095,183.198399844481,0.22219484380314514,39.942334007324405,0.0,0,0,0,0
1.7199999999999989,0.0,1,0,0,1,1,0,0,1,0.8689247806219039,0.0,0.0,0.757982863633406,0.022124815701644474,-0.06287139496351671,0.1919786903808948,0.25035202976950055,0.05905132768459506,3,0.23901912860151012,1.2291859123727094,0.10494018455758583,192.97285170055662,0.4445009971864513,40.06879652164241,0.0,0,0,0,0
1.7299999999999898,0.0,0,1,1,0,1,1,1,1,0.8799407382958266,0.0,0.0,0.8186832253895051,0.030288652382386094,-0.07901802636384593,0.32296593156059544,0.03650174228945152,-0.024712321382752388,3,0.12812417349544214,1.3234880511631721,0.0857577691493743,180.7799252909722,0.7631815926402514,40.42326085799006,85.0,0.0,0.16,0.17,0.0
1.7399999999999807,0.0,0,1,1,0,1,1,1,1,0.8908829806345583,0.0,0.0,0.8302840940485281,0.012214978947240666,-0.038560801662666275,0.4474194876876159,0.04319955461301191,0.03739108516457456,3,0.09786522592436145,1.2426242169034771,0.08192188814169195,240.36298886325,0.25532824856247327,40.58608446380782,50.0,0,0,0,0
1.75,0.0,0,1,1,0,1,1,1,1,0.9018332431066922,0.0,0.0,0.873807198250654,0.009856741667171747,0.002658903258062735,-0.049898747582288336,-0.18784278447626362,0.06729245709749368,3,0.11751711023095468,1.3435700529034489,0.08997104081810581,243.5587130181114,0.5718336894670344,40.757613292285626,50.0,0,0,0,0
1.759999999999991,0.0,0,1,1,0,1,1,1,1,0.9126828497921134,0.0,0.0,0.8862591538120167,0.0038073972315426194,0.031504128584817555,-0.38877430724254186,-0.49939085078250267,0.1033117346363658,3,0.13273822816534414,1.5633523563537197,0.11348040288780696,174.283908413888,0.2869286849511914,41.12561683629771,50.0,0,0,0,0
1.7699999999999818,0.0,0,1,1,0,0,1,1,0,0.9234717348816522,0.0,0.0,0.8644689384250932,-0.01083793536358384,0.012223164870458776,-0.11053901759419607,-0.43913469101805375,0.03461437167136442,3,0.10165412883486089,1.5816364241426217,0.1072966470375007,153.2563799221936,0.36852114147306914,40.98915997912812,10.0,0,0,0,0
1.7800000000000011,0.0,0,1,1,0,0,1,1,0,0.93424955850753,0.0,0.0,0.8660354077201845,-0.01701651054029886,0.0004943613860563106,0.08745077736979888,-0.23837152981751875,-0.050748092592359066,3,0.10658601604279819,1.3122537390742228,0.09981815421665705,174.24815983443415,0.06198220132125787,40.975023089937004,0.0,0,0,0,0
1.789999999999992,0.0,0,1,1,0,0,1,1,0,0.9449463552664736,0.0,0.0,0.8487366580815517,-0.011825143732058424,-0.012401607377534034,-0.04851347074968771,-0.08680100611902344,-0.06924892706001971,3,0.17398786676536226,1.4598997750031146,0.10602484450957377,157.63209136512063,0.16734652297166708,40.813310302157205,0.0,0,0,0,0
1.799999999999983,0.0,0,1,1,0,0,1,1,0,0.9556044798257489,0.0,0.0,0.8555740328456962,-0.009290849531977138,-0.01184779390656416,0.21360087523535357,-0.08473562701199938,-0.047531526225583626,3,0.1706496674691234,1.4076728925508266,0.10329633227025692,135.76525202077536,0.06365839687381847,40.808700971772765,0.0,0,0,0,0
1.8100000000000023,0.0,0,1,1,0,0,1,1,0,0.9662185545397661,0.0,0.0,0.8777687715179555,-0.00553594372208712,-0.034180667103483296,0.6523023271319612,-0.1527172955248933,-0.04136270253529411,3,0.14489532364975743,1.189319922513446,0.09484357281319797,143.579712816627,0.27305185623983164,40.915465582136164,0.0,0,0,0,0
1.8199999999999932,0.0,0,1,1,0,0,1,1,0,0.976755724427226,0.0,0.0,0.8950380734346648,-0.010425077805971683,-0.025147383110458225,0.7509326186852799,-0.25828999361099386,-0.013321705166763221,3,0.11753014316729374,1.0072599530560695,0.0957448536427128,149.01141325298812,0.23837697803460145,41.09468617255868,0.0,0,0,0,0
1.829999999999984,0.0,0,1,1,0,0,1,1,0,0.9872172252080991,0.0,0.0,0.9021970973477333,-0.017024115439995862,-0.029253165739452646,0.6953838108723244,-0.2781409448801687,0.020051937536163966,3,0.1060517989889839,0.9131797801578202,0.09284376063905844,149.3940344172649,0.13316172384014546,41.16808141941168,0.0,0,0,0,0
1.839999999999975,0.0,0,1,1,0,0,1,1,0,0.9976774177677054,0.0,0.0,0.9111580603894123,-0.024003307677809116,-0.02769968097215821,0.6022350594549827,-0.25745648559263146,0.020463627237445443,3,0.13392470451940203,1.0332716118545284,0.09418986794426407,150.1080591187963,0.15231390444156823,41.19462853746005,0.0,0,0,0,0
1.8499999999999943,0.0,0,1,1,0,0,1,1,0,1.008064527278665,0.0,0.0,0.9220331241564125,-0.026977264887680517,-0.009285916754687786,0.43867899875762273,-0.1973842488406285,0.06498112652852281,3,0.15178062552921032,1.5919125698202534,0.09853783050415688,149.21380212334006,0.19877228615852793,41.28212876896125,0.0,0,0,0,0
1.8599999999999852,0.0,0,1,1,0,0,1,1,0,1.018377976228854,0.0,0.0,0.9395889684408544,-0.02434774110754194,0.010044990988143742,0.26318590987990426,-0.19866044153596307,0.09640833958366524,3,0.19407553894723956,2.284697105840184,0.10731038341652584,144.99934943974714,0.2641789460122519,41.438722723599454,0.0,0,0,0,0
1.8699999999999761,0.0,0,1,1,0,0,1,1,0,1.028640851009919,0.0,0.0,0.9447402531777103,-0.025127811429810094,0.02371067074995643,0.19975424877925554,-0.37074565122333586,0.11684563920763111,3,0.21564127405711947,2.6217245089484837,0.12257087779477578,142.52360830409089,0.10940783950835709,41.59982155436405,0.0,0,0,0,0
1.8799999999999955,0.0,0,1,1,0,0,1,1,0,1.0387690462567365,0.0,0.0,0.9381155147460803,-0.02584094340175994,0.03624230005115982,0.0229777830440915,-0.4774204201578342,0.06904718548216837,3,0.21185542926969209,1.9257497543679478,0.11266691154913358,142.7803927129339,0.14947786562767984,41.540251708402764,0.0,0,0,0,0
1.8899999999999864,0.0,0,1,1,0,0,1,1,0,1.0489223663647171,0.0,0.0,0.9221771125249976,-0.029210204875932743,0.03798487326796367,-0.13340264818163725,-0.38464822475799315,-0.001319084592670973,3,0.17061970773750537,1.620309945786148,0.10728534069270432,146.41870615582945,0.2544126023180411,41.41848709011907,0.0,0,0,0,0
1.8999999999999773,0.0,0,1,1,0,0,1,1,0,1.0589959810561589,0.0,0.0,0.8952081759772029,-0.03770077679932481,0.04078636547190096,-0.282066161167429,-0.17624893987701234,-0.06398706878927445,3,0.232192675966169,1.4767040826711761,0.1228922575881716,149.7791511026427,0.3432454396647131,41.17976519842258,0.0,0,0,0,0
1.9099999999999966,0.0,0,1,1,0,0,1,1,0,1.0690682443018453,0.0,0.0,0.9064843536991211,-0.03630540211932913,0.043316117262910826,-0.0810242069450009,0.1204959612622386,-0.0922564424287399,3,0.2835263771072848,1.5590678694229365,0.1391669175492462,166.87352649027972,0.19783859035982854,41.19487901294285,0.0,0,0,0,0
1.9199999999999875,0.0,0,1,1,0,0,1,1,0,1.078982021729156,0.0,0.0,0.9274887884305951,-0.04384172094429794,0.0718963733093792,0.18165171036201272,0.320887027345921,-0.031042570443371116,3,0.2523811144670314,1.380023845146598,0.13659812061930224,184.38009149166507,0.13879196864532162,41.51877628260824,0.0,0,0,0,0
1.9299999999999784,0.0,1,0,0,1,0,1,1,1,1.0888641259677438,0.0,0.0,0.9336361615174172,-0.047163462991436596,0.09386635813997903,0.18418030095701401,0.7180796837422351,-0.01992847044177256,3,0.20431918383935394,0.801913043130153,0.10762385681822798,185.67134078692243,0.20319064573472279,41.72654535154547,85.0,0.0,0.0,0.0,0.16
1.9399999999999977,0.0,1,0,0,1,1,1,1,1,1.098748260144749,0.0,0.0,0.9110913745711738,-0.02166495709785804,0.12850188160102247,-0.5831568814700567,1.580689324109772,-0.3352107199547321,3,0.4142772087686165,0.7336410732375193,0.08853936188336134,228.77023856950944,0.6010253705099231,41.831578727895256,65.0,0.17,0.0,0.0,0.0
