time,trans_flag,des_cont_state_fl,des_cont_state_fr,des_cont_state_rl,des_cont_state_rr,cont_state_fl,cont_state_fr,cont_state_rl,cont_state_rr,vel_cmd_x,vel_cmd_y,vel_cmd_yaw,acc_cmd_x,acc_cmd_y,acc_cmd_yaw,base_pos_x,base_pos_y,base_pos_z,base_ang_roll,base_ang_pitch,base_ang_yaw,FL_foot_pos_x,FL_foot_pos_y,FL_foot_pos_z,FR_foot_pos_x,FR_foot_pos_y,FR_foot_pos_z,RL_foot_pos_x,RL_foot_pos_y,RL_foot_pos_z,RR_foot_pos_x,RR_foot_pos_y,RR_foot_pos_z,base_vel_x,base_vel_y,base_vel_z,base_vel_roll,base_vel_pitch,base_vel_yaw,x_vel_err,y_vel_err,z_vel_err,roll_vel_err,pitch_vel_err,yaw_vel_err,cmd_err,cont_err,terr_freq,terr_height,failed,gait_id,base,CoT,musculoskeletal,foot_force,MWE,WEXT,stability,FL_stride_t,FR_stride_t,RL_stride_t,RR_stride_t
0.01,0.0,1,0,0,1,0,0,0,1,0.0,0.0,0.0,0.0,0.0,0.0,0.00017201649919679289,1.0116895700805102e-05,0.3093780183581274,-2.719268034122428e-05,-0.001539224550225038,-0.00024727074443150104,0.18270935032260202,0.13202090456845172,0.017332004500028253,0.18801707658151262,-0.1300653179009743,0.030616860270079677,-0.17806694626629008,0.13023056350244747,0.031182747855306198,-0.18510866679644652,-0.13214331267586837,0.0173364560061762,0.03185287092623784,0.0011457726846774614,-0.1278699903655422,-0.029737855650295634,-0.29965379568534395,-0.02588460573343969,0.03185287092623784,0.0011457726846774614,0.1278699903655422,0.029737855650295634,0.29965379568534395,0.02588460573343969,0.058883249344354995,45.0,3,0.2,0,4,0.04877537317200137,0.0,0.07162728674527001,19.096940873691658,1.024692339807462,35.600960081873566,45.0,0,0,0,0
0.02,0.0,1,0,0,1,1,0,0,1,0.0,0.0,0.0,0.0,0.0,0.0,0.0004962218233736732,6.753282192298016e-06,0.3079144105727943,-0.00010335162219434598,-0.004435638022902033,-0.0005084051333205286,0.1826612280485205,0.13201667021135946,0.01734079121586271,0.19615461745736662,-0.12949181350198133,0.05047778147495249,-0.17314401962702974,0.12953792613722906,0.04768810929259243,-0.18607339603022952,-0.1321525304021376,0.01735037368589934,0.026747561551165786,-0.0002739234427580559,-0.14469509014723098,-0.17432491197120406,-0.14238732296542853,-0.0548641051014339,0.026747561551165786,0.0002739234427580559,0.14469509014723098,0.17432491197120406,0.14238732296542853,0.0548641051014339,0.08188559009535774,0.0,3,0.2,0,4,0.06107917538657487,0.0,0.07615378179712373,48.6489790373676,0.14248001129578503,35.9570639039744,0.0,0.01,0.0,0.0,0.0
0.03,0.0,1,0,0,1,1,0,0,1,0.0,0.0,0.0,0.0,0.0,0.0,0.0007470092480216026,5.1980209696209406e-05,0.30658848183572945,-0.0011403204779412103,-0.004989741430423189,-0.0011425562813240846,0.182597968687143,0.13201352522463677,0.01734995516668522,0.19902512617861862,-0.13044849180471588,0.0693519729771141,-0.17151894212732913,0.13003077742707048,0.06212670550653483,-0.1861465095084664,-0.132141345230541,0.017359461724141323,0.02369279405001937,0.006768730464325316,-0.12153143769208509,-0.03710329506886698,-0.01361751015467445,-0.04104663400243665,0.02369279405001937,0.006768730464325316,0.12153143769208509,0.03710329506886698,0.01361751015467445,0.04104663400243665,0.07150815851678133,0.0,3,0.2,0,4,0.09153905549279996,0.0,0.0831987036873889,90.90706739178779,0.1309865553292311,35.68290974905027,0.0,0,0,0,0
0.04,0.0,1,0,0,1,1,0,0,1,0.0,0.0,0.0,0.0,0.0,0.0,0.0009116795528862226,9.663910955961028e-05,0.3055215413826632,-0.00116168955953621,-0.004622661000263761,-0.0014015327000460977,0.18253408623673267,0.13201347558292545,0.017358748077050262,0.19741530440547742,-0.13180534323266196,0.08255325324256639,-0.17114113849464976,0.13066351568927184,0.07134094477635211,-0.18619984801599224,-0.1321356934250222,0.017367915751606566,0.009478730901206052,0.0036723615400229364,-0.0948432879231333,0.033228903046447565,0.07285526288473881,-0.022294377622621146,0.009478730901206052,0.0036723615400229364,0.0948432879231333,0.033228903046447565,0.07285526288473881,0.022294377622621146,0.03544547006385013,0.0,3,0.2,0,4,0.04280178209935835,0.0,0.06736929911789101,52.83225258251023,0.3329603950658189,35.28075423368849,0.0,0,0,0,0
0.05,0.0,1,0,0,1,1,0,0,1,0.0,0.0,0.0,0.0,0.0,0.0,0.000986999229093818,0.00015218609856826527,0.3046512693257283,-0.0005387451011200119,-0.0038237917307346603,-0.001538869373102845,0.18247400449596987,0.1320166588301277,0.017367255154084632,0.19446158907688357,-0.13273180601715526,0.09045104244930079,-0.17121586913398748,0.13127385855029108,0.07728428011481212,-0.18624291860478553,-0.13213031318268653,0.017376052201130254,0.004515355268265226,0.007460712304642511,-0.07849530967794924,0.09537195626440528,0.09264900076389389,0.0001588658864199843,0.004515355268265226,0.007460712304642511,0.07849530967794924,0.09537195626440528,0.09264900076389389,0.0001588658864199843,0.012134933459327722,0.0,3,0.2,0,4,0.0241618136354922,0.0,0.07010671343499644,72.79888868450527,0.09458523097771365,35.00954154177765,0.0,0,0,0,0
0.06,0.0,1,0,0,1,1,0,0,1,0.0,0.0,0.0,0.0,0.0,0.0,0.0010290293451050022,0.00023256391355518897,0.3039216140706089,0.000979714444181476,-0.003047811751170748,-0.0013956104818345723,0.1824215608157683,0.13202434802090526,0.01737551870681983,0.19079988378227422,-0.13319409294295406,0.09439392427232615,-0.17145583978923015,0.1317421570147474,0.08031742021295883,-0.1862819420070838,-0.13212652184499454,0.01738407678069878,0.004251864125173516,0.009182491617663564,-0.07060515621714715,0.21777674100427066,0.06919838733453072,0.015086421598639052,0.004251864125173516,0.009182491617663564,0.07060515621714715,0.21777674100427066,0.06919838733453072,0.015086421598639052,0.02852077734147613,0.0,3,0.2,0,4,0.027936721094818606,0.0,0.06623295363757156,47.12831282873039,0.03523234207902623,34.854046572297335,0.0,0,0,0,0
0.07,0.0,1,0,0,1,1,0,0,1,0.0,0.0,0.0,0.0,0.0,0.0,0.001082066596866791,0.0003485972219174575,0.30324412326434097,0.0034688570147639393,-0.002295490466294181,-0.00128684658307461,0.18237525175116293,0.13203377061396543,0.017383664886047867,0.18676388256421783,-0.13330719874048108,0.0959973381085894,-0.17184109364588218,0.1315203664845315,0.08192282477190548,-0.186317651935224,-0.13212004237425334,0.017392055583744376,0.006198944880468056,0.011494893351509656,-0.06454854304386115,0.13143880184144635,0.05698918606450265,0.016936939030657704,0.006198944880468056,0.011494893351509656,0.06454854304386115,0.13143880184144635,0.05698918606450265,0.016936939030657704,0.034630777262635415,0.0,3,0.2,0,4,0.02787620581054262,0.0,0.06342274040726384,70.42650235477856,0.03583927407763207,34.76888090601384,0.0,0,0,0,0
0.08,0.0,1,0,0,1,1,0,0,1,0.0,0.0,0.0,0.0,0.0,0.0,0.0011568440229678169,0.00046484748664362503,0.3026300878890113,0.004090466506555281,-0.0020602991964238093,-0.0010766031069222178,0.18233536029881223,0.1320440166757869,0.017391704813943476,0.18236424715016658,-0.1334082444163871,0.09450475578626576,-0.17337527913606032,0.1316306909509658,0.08091272345891268,-0.18634859639161885,-0.13211418282475393,0.01739997739344923,0.00819194537447403,0.013068930252333475,-0.058852851736843466,0.046086647077781005,0.005770451182172824,0.008309619671499693,0.00819194537447403,0.013068930252333475,0.058852851736843466,0.046086647077781005,0.005770451182172824,0.008309619671499693,0.0295704952983072,0.0,3,0.2,0,4,0.03916074096193618,0.0,0.06455506622530871,47.897091645770274,0.05666611465957162,34.692234962333664,0.0,0,0,0,0
0.09,0.0,1,0,0,1,1,0,0,1,0.0,0.0,0.0,0.0,0.0,0.0,0.0011864003407885191,0.0005895748849885461,0.3021868164523631,0.0036359468857888036,-0.0015706249393228067,-0.0009264354657045575,0.1822935378133298,0.13205367393939627,0.01739965190832396,0.17789487457711853,-0.13343377577351717,0.08864132951916144,-0.1749431259496868,0.13220650444167828,0.07613103016529493,-0.18635848913905353,-0.13210857052983455,0.01740770543697745,-0.006114370824527872,0.009188933027215246,-0.025694170912432784,-0.23522397956335275,0.11981355122893836,0.018549905656125493,0.006114370824527872,0.009188933027215246,0.025694170912432784,0.23522397956335275,0.11981355122893836,0.018549905656125493,0.03385320950786861,0.0,3,0.2,0,4,0.032419038754437045,0.0,0.07115553036649087,80.72883828720282,0.12206333071730836,34.66083894914114,0.0,0,0,0,0
0.1,0.0,1,0,0,1,1,0,0,1,0.0,0.0,0.0,0.0,0.0,0.0,0.0010382853028570653,0.000663230601795235,0.3021533444658047,-0.00028172304746548304,0.0004781616303792813,-0.0008758118445137393,0.18223945481379972,0.13205846630017112,0.01740759003097353,0.17470168883371348,-0.13382419571175527,0.07890448938671357,-0.17549965457484204,0.13200720017634662,0.06853272142379804,-0.1863224140952726,-0.13210412683162925,0.017415729847390732,-0.02463669359069884,0.007090372987225887,0.021821346532984547,-0.48382493278469446,0.32008023222645904,0.005866596647198738,0.02463669359069884,0.007090372987225887,0.021821346532984547,0.48382493278469446,0.32008023222645904,0.005866596647198738,0.03759366322512347,0.0,3,0.2,0,4,0.028505504083875942,0.0,0.08452093255702649,61.869783219731346,0.15066366119817623,34.701112974001816,0.0,0,0,0,0
0.11,0.0,1,0,0,1,1,0,0,1,0.0,0.0,0.0,0.0,0.0,0.0,0.0006862452032774127,0.0007309852764217351,0.30255502812529317,-0.005147284861660258,0.004396616557402311,-0.0007533257278155728,0.18217587211067185,0.13206313481518384,0.017415514984688157,0.1740915065890705,-0.13390185685753414,0.06593242896629443,-0.17503101228231144,0.13119536015043667,0.05843037939196609,-0.18625017708943217,-0.1321007958220923,0.017424910438568558,-0.04249015607097235,0.004519752408166808,0.054285713763303656,-0.5801026796737913,0.40901245041415096,0.0054818422424510425,0.04249015607097235,0.004519752408166808,0.054285713763303656,0.5801026796737913,0.40901245041415096,0.0054818422424510425,0.052491750721590194,0.0,3,0.2,0,4,0.056760471182765115,0.0,0.07908063475643451,82.53856758592623,0.2563267386136988,34.8688924491306,0.0,0,0,0,0
0.12,0.0,1,0,0,1,1,0,0,1,0.0,0.0,0.0,0.0,0.0,0.0,0.00019801099628921235,0.0007688185788687194,0.3031974880992485,-0.010515137835648421,0.009059173174147395,-0.0006180312132408339,0.18210589529120605,0.13206701239314,0.0174234481153224,0.17507386269124248,-0.1343915883609631,0.052029142957571134,-0.1738247973721701,0.12988239259089981,0.04678909455255431,-0.1861604375882289,-0.13210018113011535,0.01743500145167748,-0.054303787402543144,0.002440165618329654,0.06832680507296338,-0.44590813849355043,0.5272063207205276,0.044298192609669954,0.054303787402543144,0.002440165618329654,0.06832680507296338,0.44590813849355043,0.5272063207205276,0.044298192609669954,0.10104214563054276,0.0,3,0.2,0,4,0.07464153638992822,0.0,0.08468837591829578,54.08764025906059,0.0880033504050386,35.018118034510216,0.0,0,0,0,0
0.13,0.0,0,0,0,0,1,0,0,1,0.0,0.0,0.0,0.0,0.0,0.0,-0.00014411566402588685,0.000831592250881519,0.3033123896448724,-0.013807933389976048,0.012787678837361094,-0.00015465818187621448,0.18248661631998778,0.13070522547365018,0.02661459696500132,0.17201355284363648,-0.1347436853837952,0.03770295067942811,-0.17573320285290606,0.12735948031947206,0.032718969725363034,-0.18607707000028462,-0.13150617426404856,0.02295681244429157,-0.011160483259338022,0.007961440910251106,-0.06613319837341154,-0.24683482370128246,0.13154070500966206,0.03799150889415121,0.011160483259338022,0.007961440910251106,0.06613319837341154,0.24683482370128246,0.13154070500966206,0.03799150889415121,0.05711343306374034,50.0,3,0.2,0,4,0.086878938143825,0.0,0.06942251157849197,23.555767887571967,0.36930497627396863,35.16826479644996,50.0,0,0,0,0
0.14,0.0,0,0,0,0,0,0,0,0,0.0,0.0,0.0,0.0,0.0,0.0,-0.00020559658828461926,0.0008601588536490971,0.3020285254384178,-0.01615533509544548,0.012690530523602028,0.00011933470980314445,0.18124050868992692,0.1296399051479257,0.038679834134595914,0.16484162685813675,-0.13154699067328365,0.024248703384799036,-0.1786806036523675,0.12531933577774224,0.016984198044945442,-0.18523051751693248,-0.1328731784632891,0.035229218011976426,0.0009701514897586102,0.0044125130829479366,-0.19052353646385875,-0.2017695693478062,-0.10342494889783657,0.016572829252285724,0.0009701514897586102,0.0044125130829479366,0.19052353646385875,0.2017695693478062,0.10342494889783657,0.016572829252285724,0.021955493824992272,0.0,3,0.2,0,4,0.033179691632044817,0.0,0.042274156432050305,0.0,0.6286345163727525,35.46005142527025,0.0,0,0,0,0
0.15,0.0,0,1,1,0,0,0,1,0,0.0,0.0,0.0,0.0,0.0,0.0,-0.0001998703562092339,0.0008387407163369012,0.29972097047540286,-0.015878790173497113,0.012824231101535855,0.00024620785007092215,0.17825517331259252,0.12984925406751585,0.05090620075088273,0.16033541260356424,-0.1295122602159471,0.017494001044118107,-0.1791274031897488,0.12512657086215637,0.015366970788169426,-0.18375375268858796,-0.13573737556309434,0.04806997374462721,-0.0006531064161587265,-0.004564426602408795,-0.23682530885751182,0.21440399066260576,0.2416948940344517,0.025912470177247404,0.0006531064161587265,0.004564426602408795,0.23682530885751182,0.21440399066260576,0.2416948940344517,0.025912470177247404,0.031130003195814923,10.0,3,0.2,0,4,0.022971008749345774,0.0,0.04819230114979234,52.37737250480281,0.7891623430802016,35.188898149171244,10.0,0.0,0.0,0.13999999999999999,0.0
0.16,0.0,0,1,1,0,0,1,1,0,0.0,0.0,0.0,0.0,0.0,0.0,-0.000255085951444426,0.0007592779956079236,0.297610298112444,-0.012383354476334438,0.015740875850583702,0.00032296832345150086,0.1744610635744939,0.1304673663695759,0.05999599787217608,0.1601691225275402,-0.1295172288161085,0.017506562287213367,-0.17921868153663054,0.1251239497278953,0.015382006917373209,-0.18392261052191336,-0.13828081428597735,0.05818304382782585,-0.005200560819620625,9.829958214573314e-05,-0.1836434469554967,0.40017498823197883,0.2613109238994943,0.002880100302335868,0.005200560819620625,9.829958214573314e-05,0.1836434469554967,0.40017498823197883,0.2613109238994943,0.002880100302335868,0.008178960704102227,0.0,3,0.2,0,4,0.017018952415890676,0.0,0.11097148824755129,72.87736003640353,0.22495162593383755,34.505589729968484,0.0,0.0,0.15,0.0,0.0
0.17,0.0,0,1,1,0,0,1,1,0,0.0,0.0,0.0,0.0,0.0,0.0,-0.00035777519446279885,0.0007491017013554206,0.29601685079603013,-0.0101388913855638,0.018462970985752447,0.0004928717796967796,0.17273731710741358,0.13079076280633392,0.07221850318263577,0.1600387380310937,-0.12951629853441887,0.017516911968930182,-0.17928713900839446,0.12512209779558406,0.01539633642535107,-0.18493995212155803,-0.13899798827390278,0.06982615252669196,-0.009675057645655388,-9.273769296016111e-05,-0.1375508820776972,0.1528984186982625,0.32828115562678184,0.03279919511218243,0.009675057645655388,9.273769296016111e-05,0.1375508820776972,0.1528984186982625,0.32828115562678184,0.03279919511218243,0.04256699045079798,0.0,3,0.2,0,4,0.03174405130442291,0.0,0.10625073232615276,108.74407632794691,0.09458862209523111,34.37178214224193,0.0,0,0,0,0
0.18,0.0,0,1,1,0,0,1,1,0,0.0,0.0,0.0,0.0,0.0,0.0,-0.0004904524384905287,0.0007391729639956853,0.2948852513183942,-0.00788670394698633,0.021991308529758724,0.0006415251914111161,0.17313514728145443,0.13122314924554968,0.0851884294184358,0.15992381968675132,-0.129515835760109,0.017526390471891834,-0.17931470362636895,0.12512093162554003,0.015410081299954609,-0.18616932905396177,-0.14067498734659314,0.07992349844127226,-0.012287363960701587,0.0012622399740168056,-0.08949237527748467,0.22761018146456596,0.35762572274376,0.007063995813502637,0.012287363960701587,0.0012622399740168056,0.08949237527748467,0.22761018146456596,0.35762572274376,0.007063995813502637,0.02061359974822103,0.0,3,0.2,0,4,0.02756106893237295,0.0,0.10495974121875931,68.0222298077159,0.08460794100333813,34.192268416147236,0.0,0,0,0,0
0.19,0.0,0,1,1,0,0,1,1,0,0.0,0.0,0.0,0.0,0.0,0.0,-0.000632487949917588,0.0007778298530927063,0.29424850091646454,-0.005649874772100477,0.02543907839429349,0.0008343580636697918,0.1756759318169919,0.13195006853991376,0.09723103325663446,0.15984296361020742,-0.12951027541579724,0.01753473147683035,-0.17931366559427936,0.1251206289294217,0.01542373145230791,-0.18663452185665458,-0.1413907590797315,0.08813080781095319,-0.01299075533884874,0.0050901104527233815,-0.038821225327834545,0.1107669598336743,0.3427032788485115,0.03387719237492328,0.01299075533884874,0.0050901104527233815,0.038821225327834545,0.1107669598336743,0.3427032788485115,0.03387719237492328,0.0519580581664954,0.0,3,0.2,0,4,0.04171714575997153,0.0,0.09282277326473823,97.02377993073162,0.1487659158179448,34.0190540013622,0.0,0,0,0,0
0.2,0.0,0,1,1,0,0,1,1,0,0.0,0.0,0.0,0.0,0.0,0.0,-0.0007547197158224797,0.000827797001122914,0.294071630172014,-0.005210293345045865,0.028745806874770352,0.0011075222594676883,0.17885661642332637,0.13352180575677666,0.10534921459955157,0.15979628315545935,-0.1295042231057455,0.017542310285742047,-0.17928920644517346,0.12512051533330154,0.015437487721588872,-0.18634701162267248,-0.1414888123950037,0.09362078986000032,-0.009659363692851496,0.005842864988359014,0.0007036601754345531,0.05736428597026295,0.29047519841740804,0.016386711509768462,0.009659363692851496,0.005842864988359014,0.0007036601754345531,0.05736428597026295,0.29047519841740804,0.016386711509768462,0.03188894019097897,0.0,3,0.2,0,4,0.04393481024893705,0.0,0.08940797611124636,59.429485344269054,0.14972762067147238,33.861484220067005,0.0,0,0,0,0
0.21,0.0,0,1,1,0,0,1,1,0,0.0,0.0,0.0,0.0,0.0,0.0,-0.0008206576111292097,0.0008792221144126517,0.2942779797835111,-0.005493801571923399,0.03130952072954041,0.001265116923159914,0.18167577678519006,0.1348744385580042,0.10851798081641723,0.159785212941964,-0.12949881144300204,0.01754956020332843,-0.1792464532148266,0.12512102098289102,0.015451357040348251,-0.185184581956242,-0.1413458972399021,0.09634439945679855,-0.004465809241027899,0.0060185971147387884,0.03974480955801825,0.0004203141688120292,0.22499262463400596,0.019920932722402054,0.004465809241027899,0.0060185971147387884,0.03974480955801825,0.0004203141688120292,0.22499262463400596,0.019920932722402054,0.030405339078168742,0.0,3,0.2,0,4,0.029196049819708404,0.0,0.08145007352714226,85.30240795906626,0.09620264182780536,33.80316738541342,0.0,0,0,0,0
0.22,0.0,0,1,1,0,0,1,1,0,0.0,0.0,0.0,0.0,0.0,0.0,-0.0008258512208226993,0.000934207239917205,0.29481404875303807,-0.005007455696314038,0.0332162508945919,0.0013514980965693396,0.1845021192606884,0.1361810343453826,0.10615436023367136,0.15980026439034434,-0.1294948608610304,0.01755680371716367,-0.17918541902067273,0.12512221580035368,0.015465413770936576,-0.1835794453777427,-0.14103764365644367,0.09633880105456905,-0.0007795697872188144,0.003275972900874324,0.06630756044598504,0.02180188459582775,0.13439311551534633,-0.002921296041154259,0.0007795697872188144,0.003275972900874324,0.06630756044598504,0.02180188459582775,0.13439311551534633,0.002921296041154259,0.006976838729247398,0.0,3,0.2,0,4,0.01534366873060614,0.0,0.0828199777887511,51.90054285648773,0.03349801063736595,33.85831518914216,0.0,0,0,0,0
0.23,0.0,0,1,1,0,0,1,1,0,0.0,0.0,0.0,0.0,0.0,0.0,-0.0007839967499345639,0.0009688954568662676,0.29562309727047964,-0.00470730040236945,0.034159797068321396,0.0013386583652792625,0.1876007217984928,0.1371283277279882,0.09790574739623714,0.1598450081190567,-0.12949198369770734,0.017564277738091466,-0.17911225576999878,0.12512288037226282,0.015479589161268681,-0.18254724385703258,-0.14016863433828294,0.09301916702319386,0.0040731658341413065,0.003948280036479049,0.09991768060274764,0.11429288162454185,0.05657674892801665,0.00472351145299643,0.0040731658341413065,0.003948280036479049,0.09991768060274764,0.11429288162454185,0.05657674892801665,0.00472351145299643,0.012744957323616786,0.0,3,0.2,0,4,0.007077442397056925,0.0,0.08483351077425555,78.40839293394063,0.10876995699957377,34.02879457852599,0.0,0,0,0,0
0.24,0.0,0,1,1,0,0,1,1,0,0.0,0.0,0.0,0.0,0.0,0.0,-0.0006809613052370775,0.001005034899591809,0.2967344252957901,-0.005367045584779368,0.034357298961326777,0.0015599478113938815,0.19072137666286712,0.13808805061711701,0.08553519383062314,0.15992667446045172,-0.12948662176296627,0.017572326671435323,-0.17903427606824202,0.12512069889534236,0.015493852669613895,-0.18192586247564174,-0.1378869346716623,0.08658684961277018,0.009838074404541373,0.002569181191198572,0.11768467528399484,-0.25437695256890985,-0.0294320291190541,0.01987583159943132,0.009838074404541373,0.002569181191198572,0.11768467528399484,0.25437695256890985,0.0294320291190541,0.01987583159943132,0.03228308719517127,0.0,3,0.2,0,4,0.03371203424835558,0.0,0.07478117618845762,51.81734131371833,0.09185757378775117,34.27497192473892,0.0,0,0,0,0
0.25,0.0,0,1,1,0,0,1,1,0,0.0,0.0,0.0,0.0,0.0,0.0,-0.0004653054293005215,0.0010543719488051936,0.2979779651183098,-0.008524790518537865,0.03311353800674244,0.0016310052753805576,0.19236671000020758,0.1379413093805789,0.07272272169352081,0.16004602827601386,-0.12948141461904664,0.017581319043873528,-0.17896500719658917,0.12512230206299021,0.015507721650532158,-0.18133361429471218,-0.1353888633511942,0.07841980822117071,0.025786894320182625,0.006047082235181748,0.13003140904190566,-0.26955838273592014,-0.2260466891404745,0.0012587625801882933,0.025786894320182625,0.006047082235181748,0.13003140904190566,0.26955838273592014,0.2260466891404745,0.0012587625801882933,0.03309273913555266,0.0,3,0.2,0,4,0.027631039263688255,0.0,0.07886572288469838,79.00393619765393,0.05132885299166651,34.388772628856486,0.0,0,0,0,0
0.26,0.0,0,1,1,0,0,1,1,0,0.0,0.0,0.0,0.0,0.0,0.0,-0.00014195910969397836,0.0011349647014571363,0.2992855498786238,-0.011550196915668581,0.030913719642341464,0.0016523033062220774,0.19331409715246448,0.13770313233500855,0.060340112911970625,0.1601787913313307,-0.12947488835765378,0.017590744674005315,-0.17889194020146812,0.12512623802877648,0.015521503288051075,-0.1813514655278705,-0.13393170961020126,0.06732437170585602,0.028458881321670192,0.00783117027240379,0.13527749956700227,-0.3227276559738765,-0.1675469837650016,-0.009686747861108416,0.028458881321670192,0.00783117027240379,0.13527749956700227,0.3227276559738765,0.1675469837650016,0.009686747861108416,0.0459767994551824,0.0,3,0.2,0,4,0.039074801481885336,0.0,0.07294117358554916,51.710590489104696,0.05456274189508875,34.51752958193772,0.0,0,0,0,0
0.27,0.0,0,0,0,0,0,1,1,0,0.0,0.0,0.0,0.0,0.0,0.0,0.00019158891368647427,0.001231989661070133,0.3006732684921378,-0.013363510513257479,0.03015709679704215,0.0016112404746378103,0.19326362574484288,0.13733049382384377,0.04812220577599757,0.1603415717928576,-0.1294397429401258,0.017763701550293776,-0.17887654969576147,0.12519125965894976,0.01567507273529753,-0.18054940285130586,-0.13269193230526896,0.053255463780622986,0.031161168602576873,0.006621459411015517,0.1409055765486486,-0.12731943326262632,-0.008077347641773596,0.004695941989493125,0.031161168602576873,0.006621459411015517,0.1409055765486486,0.12731943326262632,0.008077347641773596,0.004695941989493125,0.04247857000308551,10.0,3,0.2,0,4,0.04349599474273953,0.0,0.06388477234064213,73.6605304933797,0.09212308558182758,34.71069311474349,10.0,0,0,0,0
0.28,0.0,0,0,0,0,0,0,0,0,0.0,0.0,0.0,0.0,0.0,0.0,0.000601684770660654,0.0013039872214155492,0.30137182850509253,-0.015143605346960206,0.028692767233325478,0.0013793070877885004,0.19176004694488458,0.13720416252448375,0.03353989501355745,0.16256057547218067,-0.12933524792141224,0.022858326400885448,-0.18049742411847783,0.12666245845802748,0.020115556432605736,-0.17961210039016234,-0.13222751020482382,0.03782169502861071,0.046241175100046515,0.0071768139779874816,0.005610870759859129,-0.14516060790570642,-0.2368775616329175,-0.030010391370152184,0.046241175100046515,0.0071768139779874816,0.005610870759859129,0.14516060790570642,0.2368775616329175,0.030010391370152184,0.08342838044818618,40.0,3,0.2,0,4,0.07539986370054412,0.0,0.0405962088792846,0.0,0.16297378127156392,34.886315752428786,40.0,0,0,0,0
0.29,0.0,0,0,0,0,0,0,0,0,0.0,0.0,0.0,0.0,0.0,0.0,0.00111601416900102,0.0013310851592536021,0.30091044762507313,-0.018819897943957848,0.02721089860905135,0.0013519988074928567,0.18471934925355404,0.1380130291852696,0.01764669938052102,0.16940607882349673,-0.13106340048928256,0.03462611207528832,-0.17924257759197618,0.1275414517294371,0.026182927032432884,-0.18333511816607337,-0.12793841532296626,0.0194484420824389,0.06216723724001579,0.0038903597898784486,-0.10719728130407542,-0.16893252561830394,-0.15264704033158646,0.031647194712305204,0.06216723724001579,0.0038903597898784486,0.10719728130407542,0.16893252561830394,0.15264704033158646,0.031647194712305204,0.09770479174219944,0.0,3,0.2,0,4,0.07517636907946232,0.0,0.07001109575008993,0.0,0.552046294146442,35.27848391680719,0.0,0,0,0,0
0.3,0.0,1,0,0,1,1,0,0,1,0.0,0.0,0.0,0.0,0.0,0.0,0.0017380848611193373,0.0013042260869214892,0.29965589552451044,-0.017881726607791467,0.023696171745646977,0.0012329852816912602,0.18473841422053855,0.13800592740369144,0.017656843448074944,0.17411832158230037,-0.13340118348456748,0.04454011192074145,-0.17787065513214237,0.12792702982025198,0.0318617798806034,-0.18394519028593637,-0.1273256892007113,0.017857506852743316,0.055912813713630084,-0.004781134440705073,-0.07898067062237973,-0.11880072982179433,-0.3978137129423098,-0.06604570232431711,0.055912813713630084,0.004781134440705073,0.07898067062237973,0.11880072982179433,0.3978137129423098,0.06604570232431711,0.12673965047865227,20.0,3,0.2,0,4,0.1065162536807009,0.0,0.0807868328208127,106.4752709734515,0.9330132636652093,34.44547494724635,20.0,0.16,0.0,0.0,0.16
0.31,0.0,1,0,0,1,1,0,0,1,0.0,0.0,0.0,0.0,0.0,0.0,0.00207486114168581,0.001298834777396478,0.2990756665403086,-0.01442715340582932,0.020799888092597918,0.0008026171441434078,0.18477210853639975,0.1380028474050674,0.017663835047713544,0.17539792746642238,-0.1329376680700217,0.053813893477773184,-0.17799888774931535,0.12807072507264697,0.04384658260074825,-0.18400641426684677,-0.1273224464100986,0.017864906187424368,0.01982479050490263,0.0021755594248635147,-0.03552499376366757,0.7375737285183196,-0.1721544478708846,0.009805090874527835,0.01982479050490263,0.0021755594248635147,0.03552499376366757,0.7375737285183196,0.1721544478708846,0.009805090874527835,0.031805440804293976,0.0,3,0.2,0,4,0.07764686660219827,0.0,0.13269085686138501,124.63726296399491,0.26063616275264867,34.31472871987415,0.0,0,0,0,0
0.32,0.0,1,0,0,1,1,0,0,1,0.0,0.0,0.0,0.0,0.0,0.0,0.002206826446448476,0.0013018724688173763,0.29886493030677774,-0.00925534381855868,0.020460920436736307,0.0005981489839534017,0.18478486184840276,0.1379988990482737,0.01767067460201857,0.17694291336597603,-0.1323439403926424,0.06534141152968426,-0.17840974143394292,0.12842101813747428,0.0555276054080001,-0.1840236708515529,-0.1273184286662161,0.017871376205427225,0.0076277718903201225,0.0008143381016068687,-0.007751613481356133,0.36043059888993223,0.0974183794656378,-0.05407811893371041,0.0076277718903201225,0.0008143381016068687,0.007751613481356133,0.36043059888993223,0.0974183794656378,0.05407811893371041,0.0625202289256374,0.0,3,0.2,0,4,0.04274102268125694,0.0,0.0644752995245883,59.425229892878825,0.13446342652545729,34.38163810817137,0.0,0,0,0,0
0.33,0.0,1,0,0,1,1,0,0,1,0.0,0.0,0.0,0.0,0.0,0.0,0.0022759699558338835,0.0012955491371067006,0.29888691130290307,-0.006645659668280117,0.02160316935130524,0.00025078832271421884,0.18478985080842134,0.13799508371614733,0.017677481345346052,0.17722919436641457,-0.13175397799032063,0.07469533565035012,-0.17869710703385194,0.12878699566283955,0.06437049707400638,-0.184011069659824,-0.12731554888502145,0.017877661928342753,0.006745554527605751,-0.0007022125363429259,0.009867100983637616,0.2751509902033164,0.11545802315594696,-0.015092623853981751,0.006745554527605751,0.0007022125363429259,0.009867100983637616,0.2751509902033164,0.11545802315594696,0.015092623853981751,0.022540390917930427,0.0,3,0.2,0,4,0.037703565680204866,0.0,0.07268995407824674,79.06449010579328,0.16135019402766512,34.29269586168764,0.0,0,0,0,0
0.34,0.0,1,0,0,1,1,0,0,1,0.0,0.0,0.0,0.0,0.0,0.0,0.0023314017236104744,0.001303731829641364,0.2990491268280723,-0.003302218635514289,0.023081756332878012,4.1518416446045737e-05,0.18479891149156302,0.1379932195176284,0.017684268529972014,0.176797706736486,-0.13163817978808612,0.08162429446826319,-0.17829746747413858,0.12903701624325292,0.07148138303568152,-0.18398807563433606,-0.12731245237587657,0.01788397369341302,0.006120310110106679,0.00017794631479478226,0.020636092367963134,0.253180655478163,0.1491618624791413,-0.017508442690475735,0.006120310110106679,0.00017794631479478226,0.020636092367963134,0.253180655478163,0.1491618624791413,0.017508442690475735,0.023806699115377195,0.0,3,0.2,0,4,0.026391486128745745,0.0,0.06435686863496307,50.579393880281586,0.13043084937730048,34.25802915212321,0.0,0,0,0,0
0.35000000000000003,0.0,1,0,0,1,1,0,0,1,0.0,0.0,0.0,0.0,0.0,0.0,0.00245262508023025,0.0013117152681617244,0.2992509855824039,-0.0010101781544356817,0.02421554578499241,-5.138660990425589e-05,0.18481665794887248,0.13799347855759217,0.01769107321954791,0.17665703102696742,-0.13166026681392892,0.08809514649075903,-0.1775923953643544,0.12928877349778337,0.07728266389598477,-0.18396098808239444,-0.12731051272531824,0.01789024288810878,0.015974860857796903,0.0023816875879390472,0.0210006606125017,0.23808336761880491,0.0883970804733428,-0.005544495415514794,0.015974860857796903,0.0023816875879390472,0.0210006606125017,0.23808336761880491,0.0883970804733428,0.005544495415514794,0.023901043861250748,0.0,3,0.2,0,4,0.021902383219891772,0.0,0.07055826183969816,72.69280895285446,0.08395672641460514,34.2790257676149,0.0,0,0,0,0
0.36,0.0,1,0,0,1,1,0,0,1,0.0,0.0,0.0,0.0,0.0,0.0,0.0026533858864843146,0.0013446391385380473,0.2994635940120112,0.0016959724420008088,0.024815123663730176,-9.121610705608338e-06,0.184845298306447,0.1379970527711946,0.01769790781029454,0.1763594449790337,-0.13194021813106638,0.09271266105918874,-0.17631307594086537,0.12941257663558317,0.08158840046152188,-0.18393459631812503,-0.1273091867299762,0.017896461902666444,0.023421920921995333,0.002933117115790454,0.02204482127198083,0.21263135049057413,0.026437728925970717,0.01828532195329104,0.023421920921995333,0.002933117115790454,0.02204482127198083,0.21263135049057413,0.026437728925970717,0.01828532195329104,0.04464035999107682,0.0,3,0.2,0,4,0.031360986619840305,0.0,0.06749220348332921,46.0619416387475,0.0950024957236669,34.290538966710116,0.0,0,0,0,0
0.37,0.0,1,0,0,1,1,0,0,1,0.0,0.0,0.0,0.0,0.0,0.0,0.002925999796694109,0.001387822496916082,0.2996797156121957,0.003951648206621036,0.02474368333004473,0.00019024659023716376,0.18488342223306228,0.1380029992888586,0.017704778721301884,0.17600989609837617,-0.13200289920802202,0.09517784536966636,-0.1750130973657285,0.12941894031019255,0.08412527326188142,-0.18390873231319962,-0.12730879645313287,0.01790266207661534,0.029404431012225292,0.004651094981493021,0.02418963937399102,0.15838474182743523,-0.0401396802813575,0.02621281319667046,0.029404431012225292,0.004651094981493021,0.02418963937399102,0.15838474182743523,0.0401396802813575,0.02621281319667046,0.06026833919038877,0.0,3,0.2,0,4,0.05262354160840368,0.0,0.06445456839548216,68.08713617160754,0.06664051613619673,34.3025221818604,0.0,0,0,0,0
0.38,0.0,1,0,0,1,1,0,0,1,0.0,0.0,0.0,0.0,0.0,0.0,0.00324892313995103,0.0014249414426999068,0.29994339720778146,0.004762788280718342,0.024014262554646004,0.0004993661112886836,0.1849296511287735,0.13800928676821173,0.017711668927535534,0.17504409174649216,-0.13226755640055843,0.09444450902659751,-0.17434973520511068,0.1299334125876807,0.0836468200766816,-0.183877735973937,-0.12731029412989373,0.017908884998952573,0.032701711035751806,0.0029133271402890064,0.032771681405116986,-0.029515477430142684,-0.09196163132897459,0.029074670512339536,0.032701711035751806,0.0029133271402890064,0.032771681405116986,0.029515477430142684,0.09196163132897459,0.029074670512339536,0.06468970868838034,0.0,3,0.2,0,4,0.06714663378434574,0.0,0.06652647754454465,47.507287500260425,0.027177146022382824,34.32812195520624,0.0,0,0,0,0
0.39,0.0,1,0,0,1,1,0,0,1,0.0,0.0,0.0,0.0,0.0,0.0,0.003576138623154997,0.0014482594392758899,0.3003588716027317,0.0035143616743581246,0.023211781722450864,0.0006277290839384522,0.18498174781865123,0.13801236748351453,0.017718582574810376,0.17437991063571323,-0.1326639900745816,0.08948341272675947,-0.17415437686415844,0.13051068540402377,0.07919784941217406,-0.18382924281118584,-0.1273098578996239,0.017915184544140428,0.027956304575337394,0.0016998546434857814,0.05533697864243105,-0.23220692896143072,-0.05681497142524675,0.007489051925362887,0.027956304575337394,0.0016998546434857814,0.05533697864243105,0.23220692896143072,0.05681497142524675,0.007489051925362887,0.03714521114418606,0.0,3,0.2,0,4,0.044653360469089506,0.0,0.06350032995034509,73.56298208164557,0.0652741857871327,34.40938883505402,0.0,0,0,0,0
0.4,0.0,1,0,0,1,1,0,0,1,0.0,0.0,0.0,0.0,0.0,0.0,0.0037836505868191826,0.0014654916693155795,0.3010712748312558,0.0006009248148134014,0.023673304643960558,0.0007169986299029926,0.18502127710659197,0.13801498493841172,0.017725421510472128,0.17498545769283017,-0.1327817063639979,0.0791959490882998,-0.17264179906281385,0.13078713860319524,0.07082753866880886,-0.183745579396086,-0.12730860719914236,0.0179221110919576,0.010267819235424861,0.002761056182833769,0.08724179705115465,-0.34321630531753067,0.1477756935551295,0.004560439774327241,0.010267819235424861,0.002761056182833769,0.08724179705115465,0.34321630531753067,0.1477756935551295,0.004560439774327241,0.017589315192585872,0.0,3,0.2,0,4,0.027866285989633987,0.0,0.07551056689565533,51.215125026174086,0.2048410291610778,34.63496662289013,0.0,0,0,0,0
0.41000000000000003,0.0,1,0,0,1,1,0,0,1,0.0,0.0,0.0,0.0,0.0,0.0,0.003835724352134489,0.0014874016000998671,0.30205006990641753,-0.003620463214937968,0.025790511444979014,0.0008911015957848759,0.18504297035308032,0.138018952660434,0.017732166633583346,0.17754195788206817,-0.13330865496858518,0.06452323936218009,-0.17032838700508143,0.1300966325907092,0.05982302329426861,-0.18363414144646725,-0.12730796208173356,0.017930096434209786,-0.0032087964628048984,0.0019235162183089865,0.10131189150646626,-0.4024791652810051,0.25004754288652215,0.027837354410181078,0.0032087964628048984,0.0019235162183089865,0.10131189150646626,0.4024791652810051,0.25004754288652215,0.027837354410181078,0.032969667091294966,0.0,3,0.2,0,4,0.025209108180591945,0.0,0.07749126748391558,71.8034559108227,0.24213223456819832,34.96866263206423,0.0,0,0,0,0
0.42,0.0,0,0,0,0,1,0,0,1,0.0,0.0,0.0,0.0,0.0,0.0,0.0037923064516170607,0.0015341218321368968,0.30301183213129484,-0.006434019614814311,0.029041512664457203,0.001197658626050944,0.18509557570791582,0.13787009123902325,0.018358204774011594,0.18052306326714915,-0.1334536278956835,0.05046597816649734,-0.16849836454536796,0.1288933443502489,0.04839162582727374,-0.18351275620328336,-0.1272488192653555,0.018297957628778838,-0.007969005401485693,0.004752910315634694,0.09145370003761119,-0.2871518440104749,0.38364975490065595,0.039550776992833915,0.007969005401485693,0.004752910315634694,0.09145370003761119,0.2871518440104749,0.38364975490065595,0.039550776992833915,0.0522726927099543,10.0,3,0.2,0,4,0.04543334725611854,0.0,0.0726565604239726,45.1725634681416,0.0925344689365819,35.01505310442451,10.0,0,0,0,0
0.43,0.0,0,0,0,0,0,0,0,0,0.0,0.0,0.0,0.0,0.0,0.0,0.00400920854068501,0.0016127172897586895,0.3030634673882689,-0.008054676781050043,0.030246726981102867,0.0017001262224033149,0.18549222457566228,0.1357893610795192,0.02945862145536446,0.17854260121654983,-0.13203650496635994,0.035651929598985804,-0.17093648089788077,0.12718160938200596,0.03353070798153754,-0.18281947551943645,-0.12713769966218696,0.026624502583341175,0.03818211117983595,0.0076408975346313746,-0.0650107045274563,-0.07689070042167544,-0.09285108318012089,0.024835123416261106,0.03818211117983595,0.0076408975346313746,0.0650107045274563,0.07689070042167544,0.09285108318012089,0.024835123416261106,0.07065813213072843,30.0,3,0.2,0,4,0.08384187719756622,0.0,0.06298101263173274,0.0,0.44087108755304594,35.26530120684426,30.0,0,0,0,0
0.44,0.0,0,0,0,0,0,0,0,0,0.0,0.0,0.0,0.0,0.0,0.0,0.004395491846607917,0.0016714661281565226,0.3018215422508521,-0.008319571401484155,0.028707798492740855,0.001988159530168903,0.18478180329230579,0.13379706786070378,0.04172258605249943,0.17277028677180375,-0.12801421815936503,0.021162635252655965,-0.17291828345486457,0.1258789140508423,0.01859236373742615,-0.1809458964749864,-0.12896640955510102,0.03881558020638237,0.04740414080745077,0.006716531278525071,-0.18305054561485615,-0.04814572339995621,-0.2074233571155567,0.022574946581516517,0.04740414080745077,0.006716531278525071,0.18305054561485615,0.04814572339995621,0.2074233571155567,0.022574946581516517,0.07669561866749236,0.0,3,0.2,0,4,0.07721944238633585,0.0,0.025828264910194305,0.0,0.47505480071128936,35.42767815046696,0.0,0,0,0,0
0.45,0.0,0,1,1,0,0,1,1,0,0.0,0.0,0.0,0.0,0.0,0.0,0.004816757259028038,0.0016870713190329327,0.2996180747249298,-0.007061387469270385,0.027526650002769104,0.0021182472023286896,0.18295163487695618,0.1331117819395542,0.05263197759724943,0.1705205581469222,-0.12658611995065985,0.016856873901858777,-0.17324986495264477,0.12577440395745587,0.017089096433156453,-0.1792663178428405,-0.1328284732716235,0.050378853045081745,0.041091212042390565,-0.0021778809889340008,-0.2151199637475647,0.13795882252425476,0.023306413753428002,0.021487904358738787,0.041091212042390565,0.0021778809889340008,0.2151199637475647,0.13795882252425476,0.023306413753428002,0.021487904358738787,0.06475699739006335,10.0,3,0.2,0,4,0.06491610495920004,0.0,0.05643425850612743,86.91039305127047,0.7841597207422292,34.97437389896639,10.0,0.0,0.17,0.17,0.0
0.46,0.0,0,1,1,0,0,1,1,0,0.0,0.0,0.0,0.0,0.0,0.0,0.005090165049191705,0.0017248978910906199,0.2978051041961111,-0.005866193756382757,0.02736204569534162,0.002392548446651293,0.17967834010861378,0.1319251359657513,0.06288224812510944,0.17043969428002617,-0.12658036113495502,0.016868234164650192,-0.17334865494423013,0.12577834993838125,0.0170999100051967,-0.18012465725778137,-0.1353283676138642,0.062375391909284914,0.021997467676829054,0.012223563965902712,-0.14619802160889028,0.14881733874688555,0.014298631842529871,0.01815543908373153,0.021997467676829054,0.012223563965902712,0.14619802160889028,0.14881733874688555,0.014298631842529871,0.01815543908373153,0.0523764707264633,0.0,3,0.2,0,4,0.0640206500559994,0.0,0.12059273122215033,86.71841051728845,0.17622056091284077,34.52875006108036,0.0,0,0,0,0
0.47000000000000003,0.0,0,1,1,0,0,1,1,0,0.0,0.0,0.0,0.0,0.0,0.0,0.0052375902016685025,0.0017984160673734661,0.29652729438467773,-0.006080506493563863,0.028434373297745896,0.002717572097844231,0.1784997748347864,0.13140816710604572,0.07525151583425008,0.17036841435581793,-0.12657324147275553,0.016878799428372726,-0.17340734600301166,0.1257801187528356,0.017109263560628807,-0.18183361972462453,-0.1377083049588803,0.07352922176447357,0.015065634744141545,0.005968883641392156,-0.10703621695899629,0.028963487368209872,0.18595949269754347,0.03674565543314932,0.015065634744141545,0.005968883641392156,0.10703621695899629,0.028963487368209872,0.18595949269754347,0.03674565543314932,0.057780173818683014,0.0,3,0.2,0,4,0.06001091896013262,0.0,0.0996708801569313,103.24571843247581,0.06449443858753445,34.367598032883315,0.0,0,0,0,0
0.48,0.0,0,1,1,0,0,1,1,0,0.0,0.0,0.0,0.0,0.0,0.0,0.005339814461723051,0.001890436299190021,0.2956782527768633,-0.004658244588552045,0.03053226342962989,0.0029267179513976834,0.17912259621831694,0.13184700610031308,0.08780243738527843,0.17030547374038935,-0.12656498964116297,0.016888996328800032,-0.17342290024673424,0.12578498593492402,0.017117892133445944,-0.18278645843568647,-0.13984903974865764,0.08331412742279985,0.01031626074688003,0.011603126119314546,-0.06130764103215061,0.13828576038572749,0.2318290930794995,0.021048629704142265,0.01031626074688003,0.011603126119314546,0.06130764103215061,0.13828576038572749,0.2318290930794995,0.021048629704142265,0.042968016570336845,0.0,3,0.2,0,4,0.04293149946952192,0.0,0.10313256327782554,66.60515470350788,0.10625808180746449,34.21745535357151,0.0,0,0,0,0
0.49,0.0,0,1,1,0,0,1,1,0,0.0,0.0,0.0,0.0,0.0,0.0,0.005408626099509192,0.001994081109773722,0.2952941731695519,-0.004205373707180553,0.033325704284610014,0.00324190659490355,0.1816932771846351,0.13297180759198213,0.09792296989914268,0.170264070801959,-0.12655504321657363,0.01689862857495597,-0.17340461395036902,0.1257876350386157,0.017126439227652612,-0.1830502527799717,-0.14032411605995157,0.09065661606874022,0.007262066189609749,0.009710752778238997,-0.017584414402906753,0.002932879206970717,0.3108234440170783,0.02861992028270762,0.007262066189609749,0.009710752778238997,0.017584414402906753,0.002932879206970717,0.3108234440170783,0.02861992028270762,0.04559273925055637,0.0,3,0.2,0,4,0.05159669190712056,0.0,0.08855292639039716,89.82317800442982,0.17436117803908577,34.04545800782971,0.0,0,0,0,0
0.5,0.0,0,1,1,0,0,1,1,0,0.0,0.0,0.0,0.0,0.0,0.0,0.005493695640637913,0.002099606948377932,0.2953080890490096,-0.0039172644121383835,0.036284216297315375,0.0034821672403255875,0.18489085199377428,0.13415929521761896,0.10476358851269127,0.17024647374756446,-0.1265449566379969,0.016907931159840295,-0.17335829753843449,0.1257908232600955,0.017135163733149356,-0.1823454952617784,-0.14049800451339264,0.09524605288217008,0.010251152383875186,0.01103603057942587,0.019692153908703283,0.05691549710549004,0.2862090307325364,0.035116804779426594,0.010251152383875186,0.01103603057942587,0.019692153908703283,0.05691549710549004,0.2862090307325364,0.035116804779426594,0.05640398774272765,0.0,3,0.2,0,4,0.04530303472465297,0.0,0.08313092405249549,57.96930771691923,0.11335710297882182,33.950908118620546,0.0,0,0,0,0
0.51,0.0,0,1,1,0,0,1,1,0,0.0,0.0,0.0,0.0,0.0,0.0,0.005632497603398921,0.002216474231785213,0.2956348505038034,-0.003487270191356258,0.03883817135742884,0.003712917711828215,0.18806866415494602,0.13535683434045728,0.10757745042476671,0.17025533196803505,-0.12653482042435105,0.016917088106458644,-0.1732945993071995,0.12579462776001882,0.017144072408825678,-0.1805851471441375,-0.14015817026478686,0.09723017614177139,0.014606494545767481,0.010042521303332302,0.046928281277478515,-0.059870846133975766,0.23294248594916467,0.016828057093249534,0.014606494545767481,0.010042521303332302,0.046928281277478515,0.059870846133975766,0.23294248594916467,0.016828057093249534,0.04147707294234931,0.0,3,0.2,0,4,0.04668375479179386,0.0,0.0791175317888843,79.65196324488302,0.0745668472845708,33.94358083822716,0.0,0,0,0,0
0.52,0.0,0,1,1,0,0,1,1,0,0.0,0.0,0.0,0.0,0.0,0.0,0.005823227996776735,0.0023071516299527795,0.29621721124902783,-0.0038364525149128235,0.04089705096817342,0.004010371845853117,0.1915712647807867,0.13692421604220767,0.1056493024901725,0.17029004032647685,-0.12652500993589003,0.016926267913976445,-0.17321868666635176,0.12579555464991118,0.0171531447208271,-0.1782255970598107,-0.13944337362292294,0.09722755219117284,0.0187365086683197,0.008651574473354606,0.07002948927068624,0.0008910762960743779,0.174913784220957,0.02913440032997632,0.0187365086683197,0.008651574473354606,0.07002948927068624,0.0008910762960743779,0.174913784220957,0.02913440032997632,0.05652248347165062,0.0,3,0.2,0,4,0.05753363779891056,0.0,0.07554880904217712,51.33598742341794,0.011852039818134139,34.01837328883913,0.0,0,0,0,0
0.53,0.0,0,1,1,0,0,1,1,0,0.0,0.0,0.0,0.0,0.0,0.0,0.006057753167952543,0.0023890821523641008,0.2970583137066434,-0.004253729255229304,0.042138608253256216,0.004184861135611604,0.19461062138646132,0.13838435991229336,0.09787817763303135,0.1703531682616004,-0.1265176730310016,0.016935717702283914,-0.17313467485490483,0.125797376348424,0.01716231108234026,-0.1761173928915307,-0.13839887818879396,0.09430085703396442,0.021789629053384822,0.0062857863331682775,0.097246307665864,-0.14514290370278465,0.06014063759695008,0.010715902339148289,0.021789629053384822,0.0062857863331682775,0.097246307665864,0.14514290370278465,0.06014063759695008,0.010715902339148289,0.038791317725701394,0.0,3,0.2,0,4,0.043867030344061066,0.0,0.08060708486990405,77.65880895898587,0.06766719734460655,34.1792157392001,0.0,0,0,0,0
0.54,0.0,0,1,1,0,0,1,1,0,0.0,0.0,0.0,0.0,0.0,0.0,0.006342743907136057,0.0024569485787869537,0.2981068581476048,-0.0060206773599038995,0.042043483034331475,0.004270978749605567,0.19759682300588713,0.1392275610719969,0.08594251982348414,0.1704497075421453,-0.12651064707591156,0.01694576477530102,-0.17305495505373328,0.12579927476077965,0.017171314240656516,-0.17457478587905928,-0.13707806695945524,0.08902931321082065,0.02753255193637079,0.006461499456572815,0.11467071671512936,-0.21428165747659944,-0.07786853563246464,0.020396005541741865,0.02753255193637079,0.006461499456572815,0.11467071671512936,0.21428165747659944,0.07786853563246464,0.020396005541741865,0.054390056934685474,0.0,3,0.2,0,4,0.040290108747541166,0.0,0.0717475761255156,50.606309969688795,0.07096775895440391,34.38881537390162,0.0,0,0,0,0
0.55,0.0,0,1,1,0,0,1,1,0,0.0,0.0,0.0,0.0,0.0,0.0,0.0067291165025643775,0.0025511032528787417,0.2992917881295544,-0.008184550775828638,0.04048311508476221,0.004447231569217731,0.1995655272069801,0.13893498112113548,0.07295147035372962,0.1705800591914318,-0.12650105596397498,0.0169566410254485,-0.17298144522693218,0.1258028934528129,0.01718012249559253,-0.17407169866122404,-0.1352770081135873,0.0812821217600164,0.040012301309233715,0.010146350936252775,0.12238471643969252,-0.2578237339297421,-0.23689458133685223,0.0023905859794106383,0.040012301309233715,0.010146350936252775,0.12238471643969252,0.2578237339297421,0.23689458133685223,0.0023905859794106383,0.05254923822489713,0.0,3,0.2,0,4,0.05843158190920117,0.0,0.07729993883965236,76.57698949240634,0.03984272917345694,34.533696604815894,0.0,0,0,0,0
0.56,0.0,0,1,1,0,0,1,1,0,0.0,0.0,0.0,0.0,0.0,0.0,0.007201558705154125,0.0026683037848613074,0.3005251060555113,-0.011773424582586605,0.03857654127352128,0.004506356330942887,0.20104007589664766,0.13870061256852964,0.06058138060324039,0.17071938028198597,-0.12649079159239382,0.016967800049696613,-0.17290120485436394,0.12580855207427308,0.017188929172097495,-0.1738854966927526,-0.13412389143402245,0.06943694111735665,0.04395663775769153,0.011601605552268399,0.1301638919173326,-0.282789348935808,-0.1190473513878514,0.001711965892123992,0.04395663775769153,0.011601605552268399,0.1301638919173326,0.282789348935808,0.1190473513878514,0.001711965892123992,0.05727020920208392,0.0,3,0.2,0,4,0.05744991787917495,0.0,0.06933713993770359,48.524422664983824,0.09083011724161705,34.68274596385551,0.0,0,0,0,0
0.5700000000000001,0.0,0,0,0,0,0,1,1,0,0.0,0.0,0.0,0.0,0.0,0.0,0.007719932578093774,0.0028184968449431742,0.30178182020245126,-0.013253178747539805,0.03746642708347059,0.004425455601474893,0.2013277346389685,0.13844559737843654,0.048101943208002984,0.1709098274363296,-0.12644711930497546,0.01718808421726145,-0.17285528456369134,0.12588598009099627,0.017384632034370268,-0.1732196590966616,-0.13318098805531584,0.054971726574560204,0.049647992541723376,0.013209390926649061,0.12213208803854275,-0.10842410075403604,-0.09452800061065347,-0.0036631529046510427,0.049647992541723376,0.013209390926649061,0.12213208803854275,0.10842410075403604,0.09452800061065347,0.0036631529046510427,0.06652053637302348,10.0,3,0.2,0,4,0.07101901509839555,0.0,0.06563154642119043,68.70448625849053,0.13285968289604477,34.860432436119645,10.0,0,0,0,0
0.58,0.0,0,0,0,0,0,0,0,0,0.0,0.0,0.0,0.0,0.0,0.0,0.008294992244896927,0.0029421319060958266,0.3022787883951911,-0.016135035776666695,0.035447269593087416,0.004159544311558629,0.20035523556317386,0.1386354347202579,0.033298700897054584,0.17300401621943784,-0.1263527350280072,0.022383333977824077,-0.1740544581075377,0.12775210109951377,0.022016100228295643,-0.1712371184893616,-0.1328258413922344,0.04014386011397758,0.0623222730847207,0.012505238229736771,-0.012379458338519791,-0.2354536487740574,-0.2909551169108765,-0.03275653593854965,0.0623222730847207,0.012505238229736771,0.012379458338519791,0.2354536487740574,0.2909551169108765,0.03275653593854965,0.10758404725300713,40.0,3,0.2,0,4,0.10074864161457531,0.0,0.04195022777343636,0.0,0.22094897405048186,35.00931606494239,40.0,0,0,0,0
0.59,0.0,0,0,0,0,0,0,0,0,0.0,0.0,0.0,0.0,0.0,0.0,0.00898381334601617,0.0030374623120839645,0.3016353870904213,-0.019666307624791483,0.03340318816293619,0.00417153757541412,0.19376045383855547,0.1393691456155165,0.017477800701760998,0.1789904175264031,-0.12827463663058436,0.03408908129936952,-0.17257552651233146,0.128839016181143,0.027778623581336925,-0.17427503775874298,-0.12872189335622067,0.021591269855070178,0.08236876197518624,0.011411912084050534,-0.12507109062217195,-0.17016570831726668,-0.18827920323518924,0.037839370083627845,0.08236876197518624,0.011411912084050534,0.12507109062217195,0.17016570831726668,0.18827920323518924,0.037839370083627845,0.1316200441428646,0.0,3,0.2,0,4,0.10338607841660426,0.0,0.07486298021752029,0.0,0.5927998862393783,35.39029626632971,0.0,0,0,0,0
0.6,0.0,1,0,0,1,1,0,0,1,0.0,0.0,0.0,0.0,0.0,0.0,0.009787296779841699,0.0030624355069819743,0.30004949161308186,-0.01695306389562574,0.028843627643627023,0.004295951595880778,0.1937835662436384,0.13936719689237403,0.01748848203863268,0.18404333531843778,-0.130982300204024,0.045617291453015296,-0.17017122604509738,0.12951315378974834,0.034861886206927095,-0.17577906945017077,-0.12684445838951555,0.017012273376649567,0.07376524078742752,-0.0037194109602811543,-0.13500330181979067,0.09276320894529769,-0.5921773751887595,-0.043638886035317105,0.07376524078742752,0.0037194109602811543,0.13500330181979067,0.09276320894529769,0.5921773751887595,0.043638886035317105,0.12112353778302579,20.0,3,0.2,0,4,0.11708174586001226,0.0,0.06499328850863256,148.46272606812306,0.8115295199701928,34.721107236305336,20.0,0.17,0.0,0.0,0.17
0.61,0.0,1,0,0,1,1,0,0,1,0.0,0.0,0.0,0.0,0.0,0.0,0.010236557631257998,0.003056948169684513,0.29902736438222144,-0.013326200739442991,0.02473863366812834,0.0038681628345121916,0.19381044632534317,0.1393635924099928,0.01749603965448218,0.1870139806620013,-0.13111735925585402,0.05498088331927953,-0.169508262621863,0.1309141782283984,0.0462713905693333,-0.17587331424069133,-0.126841085558523,0.01702370126059341,0.02863942940696428,0.0037695899886633025,-0.0698068653029032,0.7250032879506592,-0.2577284803248832,0.004929897824018965,0.02863942940696428,0.0037695899886633025,0.0698068653029032,0.7250032879506592,0.2577284803248832,0.004929897824018965,0.03733891721964655,0.0,3,0.2,0,4,0.0922273871072938,0.0,0.13520902775766325,92.1178850916431,0.1119019958375646,34.353245152139166,0.0,0,0,0,0
0.62,0.0,1,0,0,1,1,0,0,1,0.0,0.0,0.0,0.0,0.0,0.0,0.01046394856575665,0.0030714436390579594,0.29850644741338356,-0.007671209508174989,0.023213694027150344,0.003849079911677644,0.19382532254325555,0.13936299805203622,0.017503425925160576,0.18726926698388988,-0.13042307058829908,0.06601568177397915,-0.16993850321480114,0.13184279651841574,0.058330703307258064,-0.1759199910977042,-0.126838637188903,0.01703324959009664,0.021576986725797644,0.004560795631117677,-0.03824416987206011,0.4864204952604816,-0.04271653368869673,-0.03866847980049309,0.021576986725797644,0.004560795631117677,0.03824416987206011,0.4864204952604816,0.04271653368869673,0.03866847980049309,0.06480626215740841,0.0,3,0.2,0,4,0.04509053930149668,0.0,0.07482979062898107,99.80023254789383,0.0321811273742727,34.366792247922795,0.0,0,0,0,0
0.63,0.0,1,0,0,1,1,0,0,1,0.0,0.0,0.0,0.0,0.0,0.0,0.010611841961916942,0.003115264086833625,0.29831477452613314,-0.004045959242161854,0.02368750484339288,0.003580299295910656,0.19382793349871236,0.13936279754667807,0.01751075540621297,0.18703492743116026,-0.12940055926953345,0.07475247711065079,-0.17004251605554477,0.13263669186915666,0.06759073400033302,-0.17592144820905156,-0.12683337885429674,0.017042090630134676,0.010851763223454079,0.0030438781392939725,-0.004219960819199392,0.2325784380814559,0.10993593499199181,-0.01383813092069566,0.010851763223454079,0.0030438781392939725,0.004219960819199392,0.2325784380814559,0.10993593499199181,0.01383813092069566,0.02773377228344371,0.0,3,0.2,0,4,0.042639941351191486,0.0,0.0756036732246743,54.989469219493685,0.24424024360931826,34.25624951617935,0.0,0,0,0,0
0.64,0.0,1,0,0,1,1,0,0,1,0.0,0.0,0.0,0.0,0.0,0.0,0.010739067255806749,0.0031610736951771384,0.29832889086438724,-0.001386472768436719,0.025037153282011948,0.0033420909054061214,0.1938334147951612,0.13936335895985813,0.017518062538300766,0.18657389099705124,-0.1293705739888522,0.08129472451307256,-0.17064993743945253,0.13309229841475667,0.0735060838185444,-0.17590301247372406,-0.12682711548740086,0.01705086759266894,0.015767770239068113,0.00605802879588885,0.007153334344774745,0.3075465448389046,0.12629227237846016,-0.018283647178080707,0.015767770239068113,0.00605802879588885,0.007153334344774745,0.3075465448389046,0.12629227237846016,0.018283647178080707,0.040109446213037664,0.0,3,0.2,0,4,0.0419112992025578,0.0,0.06908512192691318,77.22592103338744,0.10598753429253685,34.1713894463879,0.0,0,0,0,0
0.65,0.0,1,0,0,1,1,0,0,1,0.0,0.0,0.0,0.0,0.0,0.0,0.0109183446875631,0.0032223631963389774,0.29844347324648646,0.001547514841125671,0.02616513706761503,0.003248084360066685,0.19384938245110991,0.13936689830957805,0.01752536865029794,0.18561015992754662,-0.1289339426258526,0.08657717792364049,-0.1698064558861172,0.13275399302773863,0.07886643818459843,-0.17587807902510835,-0.12682219947419207,0.01705961454553845,0.019274428508253078,0.006877232638348503,0.014987301067597263,0.309426808992142,0.1017092388039889,-0.0031905116939021597,0.019274428508253078,0.006877232638348503,0.014987301067597263,0.309426808992142,0.1017092388039889,0.0031905116939021597,0.029342172840503743,0.0,3,0.2,0,4,0.032046996452133096,0.0,0.07018840355062175,48.716513898396606,0.0677476123971017,34.179306272307024,0.0,0,0,0,0
0.66,0.0,1,0,0,1,1,0,0,1,0.0,0.0,0.0,0.0,0.0,0.0,0.011153011668146365,0.00327384413274967,0.29858473299026883,0.003704825438327509,0.026694154076721155,0.0033528517048580513,0.19387372330659786,0.13937185358710014,0.01753268930803295,0.18520024502387408,-0.12894535144453767,0.09061842374392035,-0.16853353746303973,0.1326843458367291,0.08248806568858659,-0.17585265202319114,-0.12682056309544754,0.017068321367773115,0.02766657256419746,0.004291647746133704,0.014738434286515193,0.14208968244298345,0.010437812143019544,0.01635325708082198,0.02766657256419746,0.004291647746133704,0.014738434286515193,0.14208968244298345,0.010437812143019544,0.01635325708082198,0.04831147739115314,0.0,3,0.2,0,4,0.04109030867444201,0.0,0.07087367744530353,70.78303817917352,0.06910888525787923,34.179263122345624,0.0,0,0,0,0
0.67,0.0,1,0,0,1,1,0,0,1,0.0,0.0,0.0,0.0,0.0,0.0,0.011465477116716354,0.0033303876523912476,0.2987234336851227,0.005414131612106275,0.026410654121074684,0.0034922190191944017,0.19391210889727065,0.13937778736270426,0.017540044780483238,0.1848757219528704,-0.1290736709957125,0.09325684056027822,-0.16695550410956309,0.132488055004732,0.08522468117729148,-0.17583155469824777,-0.12681840157791835,0.017077022258336655,0.033752257564035396,0.006118855894989886,0.0159696363711003,0.17893372074958408,-0.0712635425768652,0.016499789703010248,0.033752257564035396,0.006118855894989886,0.0159696363711003,0.17893372074958408,0.0712635425768652,0.016499789703010248,0.05637090316203553,0.0,3,0.2,0,4,0.05137787190429251,0.0,0.06742059082950705,46.490594567746896,0.04838858902126707,34.19897647580334,0.0,0,0,0,0
0.68,0.0,1,0,0,1,1,0,0,1,0.0,0.0,0.0,0.0,0.0,0.0,0.01182647376309582,0.0033879567893391823,0.2989313982941526,0.006324014291641154,0.02543432195690465,0.0036532634996068055,0.19396220360118996,0.13938374209992327,0.017547447524073972,0.18425953015884125,-0.12944712034329686,0.09250336955879174,-0.1668124930891844,0.13277145614256533,0.0841562967198925,-0.1758049437902407,-0.12681669810026086,0.01708572393590277,0.03628585240266496,0.005037761591941716,0.02904486707263073,-0.023276803609384236,-0.11035372395704059,0.015934435569293838,0.03628585240266496,0.005037761591941716,0.02904486707263073,0.023276803609384236,0.11035372395704059,0.015934435569293838,0.05725804956390051,0.0,3,0.2,0,4,0.05811295137232107,0.0,0.06637678597337321,71.72140531874916,0.023888477312243247,34.213384388917895,0.0,0,0,0,0
0.6900000000000001,0.0,1,0,0,1,1,0,0,1,0.0,0.0,0.0,0.0,0.0,0.0,0.012179908681719922,0.0034306036658971655,0.29930459583193697,0.00493490837131396,0.02453104960996222,0.0036984688846567644,0.1940135074180129,0.13938666576273354,0.017554846042342448,0.18395249335912997,-0.1300240702817283,0.08746746759042373,-0.1664828895302654,0.13300463946808616,0.079424430002134,-0.17575705853256107,-0.1268141389775093,0.01709448303124117,0.030290910546565176,0.0028867586183722823,0.05217367808079305,-0.3121152778902658,-0.04524706735039169,-0.008107934629105043,0.030290910546565176,0.0028867586183722823,0.05217367808079305,0.3121152778902658,0.04524706735039169,0.008107934629105043,0.0412856037940425,0.0,3,0.2,0,4,0.04524843875443369,0.0,0.06364939874107789,50.04041915136348,0.0808245425860158,34.29278459348269,0.0,0,0,0,0
0.7000000000000001,0.0,1,0,0,1,1,0,0,1,0.0,0.0,0.0,0.0,0.0,0.0,0.01240539215380245,0.003441300421890559,0.30001135303345783,0.0007923571035731175,0.024957561484777235,0.0036756824498869883,0.19405376025462606,0.13938768823757625,0.017562172886320837,0.18471897980870636,-0.13039095481483934,0.07754827089726489,-0.1646169971654939,0.13286209805035384,0.07096206389983638,-0.17567069792426848,-0.12681217201336115,0.01710391885142984,0.011083954546334013,0.0023407948770070484,0.09075941455790602,-0.34590447432337257,0.14016314584711423,0.0028745742613991883,0.011083954546334013,0.0023407948770070484,0.09075941455790602,0.34590447432337257,0.14016314584711423,0.0028745742613991883,0.016299323684740248,0.0,3,0.2,0,4,0.022793685939170978,0.0,0.08256498358517024,80.33926182575587,0.19395721656109002,34.51160038993997,0.0,0,0,0,0
0.71,0.0,1,0,0,1,1,0,0,1,0.0,0.0,0.0,0.0,0.0,0.0,0.012476344945000752,0.0034763268383959365,0.3010122796552511,-0.0032558729770441174,0.026981818758343268,0.003715407297796799,0.19408078237659335,0.13939052215283473,0.0175694404447877,0.18708747656524935,-0.130671525041205,0.06310847943815431,-0.1618865329770087,0.1316590762723216,0.05979594963395404,-0.17555899518633647,-0.12680898125880685,0.017114358076508934,-0.000783757823516632,0.002485982960857998,0.10164916004576818,-0.45488814243098047,0.237060736769671,0.00862750067949096,0.000783757823516632,0.002485982960857998,0.10164916004576818,0.45488814243098047,0.237060736769671,0.00862750067949096,0.01189724146386559,0.0,3,0.2,0,4,0.011816495373966975,0.0,0.07273605078499995,43.99433216619942,0.2344289818444087,34.84042669277068,0.0,0,0,0,0
0.72,0.0,0,0,0,0,1,0,0,1,0.0,0.0,0.0,0.0,0.0,0.0,0.01246135635385325,0.0035060288461611754,0.30200142090144927,-0.0070270035581730846,0.029969755250869312,0.003855965235213219,0.1941570412062857,0.139250153124767,0.018186655846897354,0.18999042573959185,-0.1312029561677602,0.04931607258592571,-0.15972358246364926,0.1304965431670417,0.04712973128351289,-0.17543475734387218,-0.12674376290552544,0.01745161127847139,-0.005476446108561542,0.006065063979735795,0.09552202060902779,-0.20721816893593736,0.3535805049985746,0.01789685981377517,0.005476446108561542,0.006065063979735795,0.09552202060902779,0.20721816893593736,0.3535805049985746,0.01789685981377517,0.029438369902072506,10.0,3,0.2,0,4,0.0241953595526538,0.0,0.07756605373451256,70.97624146112062,0.08264274199884591,34.92747497894269,10.0,0,0,0,0
