time,trans_flag,des_cont_state_fl,des_cont_state_fr,des_cont_state_rl,des_cont_state_rr,cont_state_fl,cont_state_fr,cont_state_rl,cont_state_rr,vel_cmd_x,vel_cmd_y,vel_cmd_yaw,acc_cmd_x,acc_cmd_y,acc_cmd_yaw,base_pos_x,base_pos_y,base_pos_z,base_ang_roll,base_ang_pitch,base_ang_yaw,FL_foot_pos_x,FL_foot_pos_y,FL_foot_pos_z,FR_foot_pos_x,FR_foot_pos_y,FR_foot_pos_z,RL_foot_pos_x,RL_foot_pos_y,RL_foot_pos_z,RR_foot_pos_x,RR_foot_pos_y,RR_foot_pos_z,base_vel_x,base_vel_y,base_vel_z,base_vel_roll,base_vel_pitch,base_vel_yaw,x_vel_err,y_vel_err,z_vel_err,roll_vel_err,pitch_vel_err,yaw_vel_err,cmd_err,cont_err,terr_freq,terr_height,failed,gait_id,base,CoT,musculoskeletal,foot_force,MWE,stability,FL_stride_t,FR_stride_t,RL_stride_t,RR_stride_t
0.01,0.0,1,1,1,0,0,1,1,0,0.006283178692509316,0.0,0.005026527078818862,0.6283178692509316,0.0,0.5026527078818862,3.963081445553337e-05,-4.5539610639622714e-05,0.30960108294474237,0.0018870941435767169,-0.0013617627648652153,0.0004250613965433156,0.1837934728502651,0.13268655950467445,0.022214235283071815,0.18298177874849797,-0.13204845694680034,0.017331739958690418,-0.1830509136635103,0.1320395270271254,0.01733190354439243,-0.1770520779046839,-0.13045584359219453,0.036245306313829606,0.001819761590691157,-0.010557669525333666,-0.07784580439171468,0.1754088369536,-0.16545092923450758,0.052617444568118364,0.004463417101818159,0.010557669525333666,0.07784580439171468,0.1754088369536,0.16545092923450758,0.0475909174892995,0.06261200411645132,60.0,3,0.3,0,12,0.053796962412552794,201.61305124799836,0.07618770197301195,42.89840078547657,0.9135535082046427,60.0,0,0,0,0
0.02,0.0,1,1,1,0,0,1,1,0,0.014137091596022201,0.0,0.011309492449657768,0.7853912903512885,0.0,0.6282965370838907,3.5078132978127247e-06,-0.0001140955559920825,0.30871849746904845,0.005733338082158658,-0.00254161135359654,0.0005016356753545012,0.1853193409115252,0.13484179530005858,0.027656819240788,0.18291483540161815,-0.13205231287314798,0.01734022559324247,-0.18311583552123703,0.13203727432033663,0.017340408819716047,-0.16788734046171416,-0.13040761067571488,0.06032145503221101,-0.006589378941808441,-0.0007597851877114696,-0.09266131334616119,0.590017744048166,-0.14898828295452915,-0.028835991534467288,0.02072647053783064,0.0007597851877114696,0.09266131334616119,0.590017744048166,0.14898828295452915,0.040145483984125055,0.06163173970966716,25.0,3,0.3,0,12,0.045546521228989924,45.49953243400317,0.06758846093579936,35.43643052694758,0.3797185081875094,25.0,0,0,0,0
0.03,0.0,1,1,1,0,0,1,1,0,0.02199086497214841,0.0,0.01759201134109972,0.7853773376126207,0.0,0.628251889144195,-0.00010263824329879889,-9.492083590998108e-05,0.30785538497491266,0.008506760321995462,-0.004119191136168876,0.00025619191570148373,0.18811333236434497,0.1372750429419731,0.02977782975092827,0.1828623443725429,-0.13205294681160323,0.017348376111409214,-0.18319424925298425,0.1320408368307621,0.017349120212308694,-0.16266221128683153,-0.13114372212947964,0.07543284282594437,-0.016029636366858294,0.0015820601488236005,-0.07544133919354203,-0.03303627242224932,-0.1364325636869011,0.001350092200511042,0.0380205013390067,0.0015820601488236005,0.07544133919354203,0.03303627242224932,0.1364325636869011,0.016241919140588677,0.055844480628418985,25.0,3,0.3,0,12,0.067582545837954,32.857457134773284,0.0595825370424458,66.74520075138197,0.36008337569514387,25.0,0,0,0,0
0.04,0.0,1,1,1,0,0,1,1,0,0.02984442130731541,0.0,0.023873835730056265,0.7853556335166999,0.0,0.6281824388956546,-0.0002670745751723305,-8.822768440735583e-05,0.30719045818377994,0.006208136952099153,-0.005455138625019229,0.0003995163898523902,0.19105511801169173,0.13932318006205777,0.028855691957079488,0.1828357698955172,-0.13205053806973702,0.0173562341991452,-0.18327512773602275,0.1320382910763313,0.017357722741164233,-0.16079188997021887,-0.1323770749838571,0.08230940427794248,-0.015381817464592556,-0.0014889250124023898,-0.06094687033633225,-0.35702598537156194,-0.1324894364106271,0.025506829245195293,0.04522623877190796,0.0014889250124023898,0.06094687033633225,0.35702598537156194,0.1324894364106271,0.001632993515139028,0.04834815729944938,25.0,3,0.3,0,12,0.04868785321399143,42.71987538547027,0.06608975994499706,47.37396727987762,0.08622639208344662,25.0,0,0,0,0
0.05,0.0,1,1,1,0,0,1,1,0,0.03769768309009279,0.0,0.030154717620856746,0.7853261782777381,0.0,0.628088189080048,-0.00038972322261614044,-8.684307235688946e-05,0.30662069735211933,0.0028298462542484643,-0.0068145410943145635,0.0008154627128075118,0.1922284180305879,0.14026771471992563,0.027607823752711924,0.18282271894684887,-0.13204421580372774,0.01736399521796314,-0.1833498885761804,0.13203337083662914,0.01736621709434219,-0.16142087328916677,-0.13422588507111166,0.08288495855463884,-0.010356654528275411,0.003153808540994958,-0.05260170109214433,-0.30149957361849594,-0.12947733952536242,0.04858237778993067,0.0480543376183682,0.003153808540994958,0.05260170109214433,0.30149957361849594,0.12947733952536242,0.018427660169073927,0.06963580632843708,25.0,3,0.3,0,12,0.0650616357673335,42.02863336718914,0.0625841208660889,74.24282955418985,0.01908661059454902,25.0,0,0,0,0
0.06,0.0,1,1,1,0,0,1,1,0,0.04555057281195724,0.0,0.036434409055038704,0.7852889721864452,0.0,0.6279691434181958,-0.00046255924694610243,-1.9547310601474212e-05,0.30612142389311203,0.00045734913944806265,-0.008144033599877698,0.0012286694243882257,0.19121584608825065,0.1401460273545909,0.027553400373014098,0.18281511363381212,-0.1320342143835001,0.017371746348597117,-0.18341452090324648,0.13203277805972946,0.017374524538619457,-0.1629073685117276,-0.1355372873236111,0.07929993154336505,-0.005227901846145419,0.008073158382604181,-0.04663007452941607,-0.23666923526010147,-0.1279636273148015,0.05082230214828844,0.05077847465810266,0.008073158382604181,0.04663007452941607,0.23666923526010147,0.1279636273148015,0.014387893093249733,0.07323952613395657,25.0,3,0.3,0,12,0.06452358502172927,49.86334984852297,0.06772228447729366,49.2507172476909,0.06957137552377783,25.0,0,0,0,0
0.07,0.0,1,0,1,0,0,1,1,0,0.05340301296805755,0.0,0.04271266212113687,0.7852440156100309,0.0,0.6278253066098166,-0.0005390784833042326,7.927018573058889e-05,0.3057536910723182,-0.003777106196800174,-0.00929257063682476,0.0018242449028037446,0.18797925800172888,0.13876595315441467,0.026324732085153013,0.18282440518752946,-0.13201960943967084,0.01737944799499644,-0.1834783481323843,0.13203261184497617,0.017382790086613004,-0.16350446651032854,-0.13723739022845094,0.07073451087984203,-0.012535895113944233,0.014765998906041173,-0.027021778119935346,-0.6113892740966786,-0.1277984442045548,0.05208849467993903,0.06593890808200178,0.014765998906041173,0.027021778119935346,0.6113892740966786,0.1277984442045548,0.009375832558802158,0.09008073954684512,45.0,3,0.3,0,12,0.08887639559229135,62.70245672414053,0.059346684853467634,69.63033822292552,0.22206569470911497,45.0,0,0,0,0
0.08,0.0,1,0,1,0,0,0,1,0,0.06125492605797953,0.0,0.048989228964470284,0.7851913089921981,0.0,0.6276566843333414,-0.0006173115400259335,0.00019362585738382082,0.30518911716263153,-0.010244062004019562,-0.009909944086197386,0.0022529350990005545,0.18326446389914813,0.13653383311334405,0.023099501011507928,0.18212357949434002,-0.1306197494880376,0.01966337739220994,-0.1835577959449626,0.13203276354353471,0.017391412663791433,-0.16336114547421138,-0.14012930027949191,0.055019980054625384,-0.0002134190621341487,0.006483660201160203,-0.09441220768955015,-0.6332803685912033,0.004546130377208475,0.04182929419762205,0.061468345120113684,0.006483660201160203,0.09441220768955015,0.6332803685912033,0.004546130377208475,0.007159934766848237,0.07511194008812214,45.0,3,0.3,0,12,0.0824662601780513,42.66786432493634,0.03791882746420801,14.012622394068652,0.38333311559928956,45.0,0,0,0,0
0.09,0.0,1,0,1,0,0,0,1,0,0.06910623458651093,0.0,0.055263861796927174,0.7851308528531393,0.0,0.627463283245689,-0.0005265764791045895,0.00020305559090557753,0.3038449097136574,-0.01557633284563125,-0.009193345789884066,0.00299701451900882,0.17730333066738138,0.13460167299745504,0.01953548422628154,0.18303888354887288,-0.12849182913460316,0.027185407198624917,-0.1836586641978172,0.1320213829629079,0.017400898142352184,-0.16662610814299314,-0.13955617826672775,0.037028552157431255,0.017713599446934295,-0.0005779122927783466,-0.18074349671170276,-0.33814059093073745,0.12517370946393078,0.09253064809633202,0.051392635139576634,0.0005779122927783466,0.18074349671170276,0.33814059093073745,0.12517370946393078,0.037266786299404844,0.08923733373175982,25.0,3,0.3,0,12,0.08635922324761465,42.72577559887194,0.05642757119001336,17.30022365567837,0.44433869287480166,25.0,0,0,0,0
0.1,0.0,1,0,1,0,1,0,1,0,0.07695686106440629,0.0,0.06153631290674721,0.7850626477895362,0.0,0.6272451109820033,-0.00019689882892244044,0.0001378141443334251,0.30152779159793214,-0.01608155955292047,-0.008291059137075507,0.0036856328205980083,0.17388215283432276,0.13488869211347834,0.019171605343382248,0.18263406079885347,-0.1276232540613908,0.038523440142558596,-0.1837910722634424,0.13200737416530867,0.01741232992644806,-0.17039086106795828,-0.1363674792485431,0.020080525108433722,0.043648042788827536,-0.004898760299929798,-0.27836924552296544,0.28703247700346185,-0.016860126332923504,0.05472100126661393,0.03330881827557875,0.004898760299929798,0.27836924552296544,0.28703247700346185,0.016860126332923504,0.006815311640133277,0.04502289021564183,15.0,3,0.3,0,12,0.05587529001116368,40.2989207665801,0.055716665532139095,21.81599614893571,0.548314115361905,15.0,0.09,0.0,0.0,0.0
0.11,0.0,1,0,1,0,1,0,1,1,0.08480672800915168,0.0,0.06780633466830074,0.784986694474539,0.0,0.6270021761553536,0.0003954898817960916,3.4144525464417994e-06,0.29840725182567385,-0.012590076513749944,-0.009367603552508763,0.004091738462792481,0.1730740852585582,0.13516924415251258,0.01918089742728088,0.18292947265440201,-0.12704352870850866,0.052047692889845454,-0.18395399395318465,0.1319922707217165,0.01742708240262611,-0.17251659148453563,-0.13495138080851724,0.014861912488558365,0.06332384665353287,-0.011743452848893117,-0.31250195374144707,-0.003075999030568327,-0.023531961568498024,0.004866153048920481,0.021482881355618808,0.011743452848893117,0.31250195374144707,0.003075999030568327,0.023531961568498024,0.06294018161938027,0.09616651582389218,15.0,3,0.3,0,12,0.06437604482133646,74.79833314908714,0.07867297793473317,100.09272030614217,0.7345916494773661,15.0,0.0,0.0,0.0,0.09999999999999999
0.12,0.0,1,0,1,0,1,0,1,1,0.09265575794572947,0.0,0.0740736795518646,0.7849029936577795,0.0,0.6267344883563855,0.0010388520761015567,-5.802902125411487e-05,0.29568037236439537,-0.012984173178187355,-0.007546346536677406,0.004221875787434805,0.17293142241335033,0.13516628043096926,0.019189842594384998,0.18385762593975605,-0.12865961460550351,0.0591701707963071,-0.1840484640819435,0.13198539378610977,0.01743848172328122,-0.1726171995043321,-0.13495643278197117,0.014881301514453132,0.06728086844349662,0.00037967742231823955,-0.23750615177047688,-0.08831972262937342,0.28658377560740633,0.05182351884038426,0.02537488950223285,0.00037967742231823955,0.23750615177047688,0.08831972262937342,0.28658377560740633,0.022250160711480338,0.048004727636031426,25.0,3,0.3,0,12,0.08113004698886676,110.27804763447564,0.11869468991208784,76.44977486054093,0.1694442413983272,25.0,0,0,0,0
0.13,0.0,1,0,1,1,1,0,1,1,0.10050387340738298,0.0,0.08033810013339421,0.784811546165351,0.0,0.6264420581529608,0.0018395569956855319,-0.00011249213828427985,0.2936310503869477,-0.014386410478295772,-0.0039759351350885375,0.004678742089264074,0.17282126496482564,0.13516426177059596,0.01919752661684007,0.18437080777348586,-0.12991541328533796,0.06504198300502868,-0.18407164120939304,0.13197524213397865,0.01744770014199265,-0.17263693074206757,-0.13496516365765968,0.014898247769471684,0.08359364475376184,-0.004866589209578205,-0.17195958566027333,-0.10941501187128959,0.5000104772439742,0.037498818687903515,0.016910228653621143,0.004866589209578205,0.17195958566027333,0.10941501187128959,0.5000104772439742,0.04283928144549069,0.06461609930869004,10.0,3,0.3,0,12,0.04915730327546207,130.976567080763,0.12647062814134985,119.53271978716111,0.13508575486528823,10.0,0,0,0,0
0.14,0.0,1,0,1,1,1,0,1,1,0.10835099693638103,0.0,0.08659934910429141,0.7847123528998051,0.0,0.6261248970897206,0.002752861587897842,-0.0001682576181324053,0.2921895265293433,-0.015006041241615566,0.0017109206233312246,0.005019444158413157,0.17273962830047032,0.13516214483917896,0.01920431673162859,0.18853533383471363,-0.1305224898762459,0.07344800537195247,-0.18402699937843622,0.131966865798261,0.017455885668679755,-0.17258957310953085,-0.13497288716210842,0.014914104426409502,0.1040963386516554,-0.00506493534799545,-0.12315828661635418,-0.17440543560660185,0.5748914591309895,0.046283363757624665,0.0042546582847256265,0.00506493534799545,0.12315828661635418,0.17440543560660185,0.5748914591309895,0.04031598534666675,0.04963557897938783,0.0,3,0.3,0,12,0.05681012758432964,136.59465965172683,0.1280821081725982,73.47455441636018,0.12386202623740489,0.0,0,0,0,0
0.15,0.0,1,0,1,1,1,0,1,1,0.11619705108478236,0.0,0.09285717928116781,0.7846054148401324,0.0,0.6257830176876394,0.003911357907404249,-0.00021687886698962044,0.29123927867718613,-0.016400628754667603,0.007422349476480239,0.005404036846053924,0.1727081134413605,0.135162244514833,0.019209938907566365,0.19331767848346573,-0.13106333072627138,0.08034319186149462,-0.1839352678010927,0.13195886557235606,0.017464287225268993,-0.17249186220897864,-0.13498045975977155,0.014930138044787461,0.1259043755231827,-0.0025166215190173683,-0.061700931993005595,-0.02756068662663273,0.5634711617311133,0.062104455332593025,0.009707324438400347,0.0025166215190173683,0.061700931993005595,0.02756068662663273,0.5634711617311133,0.030752723948574784,0.0429766699059925,0.0,3,0.3,0,12,0.05029978757939104,135.82262155488402,0.1255379701890859,111.67671355282027,0.027341582763944716,0.0,0,0,0,0
0.16,0.0,1,0,1,1,1,0,1,1,0.12404195841520015,0.0,0.09911134361560314,0.7844907330417789,0.0,0.6254164334435333,0.005316576202353687,-0.00023673793573960233,0.2908130413360952,-0.01637943907009572,0.012337426682954344,0.006028025406435452,0.172735297007652,0.1351673313128078,0.019214469400963552,0.1972160276160227,-0.1308323616257587,0.08348842109860426,-0.18380607804549465,0.1319498016026416,0.017473136479979445,-0.17236010297065607,-0.13498934809065166,0.014946642870323157,0.1561254635307368,-0.0019951522389840106,-0.024900696817606496,0.013049032593116551,0.431460232537597,0.07021503688408476,0.03208350511553666,0.0019951522389840106,0.024900696817606496,0.013049032593116551,0.431460232537597,0.028896306731518384,0.06297496408603906,0.0,3,0.3,0,12,0.05042987235320954,120.11706166740028,0.11375771818158358,64.88245740109305,0.022363008524631967,0.0,0,0,0,0
0.17,0.0,1,0,1,1,1,0,1,1,0.13188564150156615,0.0,0.10536159520389834,0.7843683086366001,0.0,0.6250251588295203,0.006989101388791976,-0.00025934168379913034,0.2907255925351527,-0.016073627488576478,0.01619500168239707,0.006737248149605975,0.17281156494905991,0.13517340329044153,0.01921876242457679,0.20066505158251674,-0.13004342558855997,0.08343226393444747,-0.18365057951620142,0.13193893293571868,0.017482522928351563,-0.17220341916887974,-0.13500010840293927,0.014963719141641074,0.1784198496326583,-0.004079566415811524,0.008985173506160819,0.06747112489227516,0.33394773821375084,0.08581358392680735,0.04653420813109216,0.004079566415811524,0.008985173506160819,0.06747112489227516,0.33394773821375084,0.019548011277090993,0.07016178582399468,0.0,3,0.3,0,12,0.06835258993972984,108.52804147544043,0.10531718254295677,94.16920749091446,0.04713714040103839,0.0,0,0,0,0
0.18,0.0,1,0,1,1,1,0,1,1,0.1397280229298949,0.0,0.11160768729682284,0.7842381428328743,0.0,0.6246092092924496,0.008889688689110253,-0.00028183992581541975,0.2908409223805858,-0.01487494930672851,0.018986129104170635,0.007524319475298296,0.17292820318453245,0.13518056081816027,0.0192232504014892,0.20410169319921614,-0.1294876803080895,0.08137217178665765,-0.18351177654067446,0.13191818825064547,0.017492399760452998,-0.17203723697938067,-0.1350110709752091,0.014981245146890476,0.2007485974220482,-0.003181628506053031,0.020066059820000048,0.15372492605993635,0.21978208042393035,0.07779303389494031,0.06102057449215331,0.003181628506053031,0.020066059820000048,0.15372492605993635,0.21978208042393035,0.03381465340188253,0.09801685640008886,0.0,3,0.3,0,12,0.08605820669065412,88.25696518590995,0.09262200450947063,55.60394719051552,0.040171891829753004,0.0,0,0,0,0
0.19,0.0,1,0,0,1,1,0,1,1,0.1475690252990478,0.0,0.11784937330935583,0.7841002369152916,0.0,0.6241686012532984,0.010980809338878371,-0.0002793637916676881,0.2910511935006105,-0.011909968139286988,0.0204942534291519,0.008209236832058606,0.17308082758962148,0.13518870858624965,0.01922813296126205,0.20699167560715173,-0.12866184120461835,0.0765300190317147,-0.18329883568518382,0.13173534761566735,0.018448101388950533,-0.17187537966128955,-0.13501948556572183,0.014999037616603678,0.2119358454166557,-0.0003418296101537667,0.02548835972816886,0.30810123257760064,0.07851351386665123,0.06877599377172779,0.06436682011760789,0.0003418296101537667,0.02548835972816886,0.30810123257760064,0.07851351386665123,0.04907337953762804,0.11378202926538969,10.0,3,0.3,0,12,0.11249000005358882,79.33834315552943,0.08771051688010542,79.7749502753635,0.04727022351052851,10.0,0,0,0,0
0.2,0.0,1,0,0,1,1,0,0,1,0.15540857122149707,0.0,0.124086406830421,0.7839545922449259,0.0,0.623703352106518,0.013018658014925952,-0.0002581122477509149,0.2912990104772444,-0.009646922638594338,0.021777580587753587,0.009125811836352577,0.17322006902254675,0.1352009728099439,0.01923271518224126,0.2125469717109476,-0.1285295596184033,0.07045957354315664,-0.1820430830330174,0.13125521814767768,0.023222142016498165,-0.1717075700328272,-0.13503027116494865,0.015016683719584617,0.1951281646463884,0.0009325260627674842,0.03625330236712885,0.21750336910080706,0.2057917719487518,0.10611132042478631,0.03971959342489134,0.0009325260627674842,0.03625330236712885,0.21750336910080706,0.2057917719487518,0.017975086405634694,0.05862720589329352,0.0,3,0.3,0,12,0.07458670688318783,84.17195203278622,0.08926854443062297,55.76027246767454,0.04698643498167354,0.0,0,0,0,0
0.21,0.0,1,0,0,1,1,0,0,1,0.16324658332408937,0.0,0.1303185416326145,0.7838012102592301,0.0,0.6232134802193492,0.014952876786893703,-0.00020350363672328792,0.29162652826716984,-0.006977777080972511,0.024183092643449644,0.010095198134305235,0.17334679807712683,0.13521542875874032,0.019237100555823228,0.22007738262338516,-0.1279869326795988,0.06422940950915094,-0.18027537481424138,0.13069114521269673,0.028934883342497913,-0.17153013465856498,-0.13503891841516466,0.01503412724762987,0.18902406642704275,0.0033276132507867855,0.037942334112981375,0.2051091457776401,0.2766664978995741,0.10256879601983035,0.025777483102953386,0.0033276132507867855,0.037942334112981375,0.2051091457776401,0.2766664978995741,0.02774974561278415,0.05685484196652432,0.0,3,0.3,0,12,0.06475746439364058,63.72439554930891,0.06924865829451454,75.58349141038289,0.025685741635211645,0.0,0,0,0,0
0.22,0.0,1,0,0,1,1,0,0,1,0.17108298424880955,0.0,0.1365455316819254,0.7836400924720183,0.0,0.6226990049310904,0.016805246694866837,-0.00014654961711148647,0.29198304557515803,-0.004828158019520307,0.027185448873596085,0.011327747099674384,0.17346100113375643,0.13523306246096173,0.01924126950936153,0.22770410241426095,-0.12787995858856546,0.05624146106503569,-0.17767071812513419,0.13038375292016408,0.036325779708504286,-0.17134799880968857,-0.1350509287075308,0.01505149113189247,0.18241082596113306,0.004886454243818327,0.04172337414116372,0.24423836603773097,0.28537957498416605,0.1306522466125795,0.011327841712323511,0.004886454243818327,0.04172337414116372,0.24423836603773097,0.28537957498416605,0.005893285069345916,0.022107581025487752,0.0,3,0.3,0,12,0.025562907094306354,68.34599542189987,0.07535494556159329,51.575513732351794,0.037109355070086725,0.0,0,0,0,0
0.23,0.0,1,0,0,1,1,0,0,1,0.17891769665354415,0.0,0.1427671311474489,0.7834712404734601,0.0,0.6221599465523503,0.018651976915560947,-7.644314848247321e-05,0.29232706000469544,-0.0028264892561471774,0.029591716976819615,0.012501551247124426,0.17358301357960143,0.13525020913538582,0.019245408028515404,0.2348641605541051,-0.1283565099390428,0.04580095123802892,-0.17550483493730507,0.13001878062951053,0.04543761601996152,-0.17117597128246104,-0.13506098696437108,0.015068716133401827,0.18500162923564464,0.005543647096898155,0.035207298759277916,0.22210929858381862,0.19454539788905997,0.11790704723158194,0.006083932582100493,0.005543647096898155,0.035207298759277916,0.22210929858381862,0.19454539788905997,0.02486008391586697,0.03648766359486562,0.0,3,0.3,0,12,0.03618208826575381,61.20342881681548,0.06530645191761457,70.5959362168982,0.04144543674761869,0.0,0,0,0,0
0.24,0.0,1,0,0,1,1,0,0,1,0.18675064321284485,0.0,0.1489830944110912,0.7832946559300696,0.0,0.6215963263642293,0.020547732200877123,9.584677957274404e-06,0.2925146413775962,0.000326117123037091,0.030975832477710963,0.013834896639436942,0.1737121158319377,0.13527003807753102,0.019249670780990713,0.24002973175838732,-0.12861014317750175,0.034583430573989035,-0.1732693879401628,0.13026437817907333,0.05571584131594595,-0.17102465174138545,-0.13507343462991728,0.015085844543222898,0.19434168366260762,0.005156592264814475,0.015582262380080796,0.3928285516643384,0.09918530624431209,0.14300589869423452,0.007591040449762776,0.005156592264814475,0.015582262380080796,0.3928285516643384,0.09918530624431209,0.005977195716856676,0.018724828431433926,0.0,3,0.3,0,12,0.022856351089510764,50.427093798697975,0.06458489028511158,42.32364325663566,0.06853327608139781,0.0,0,0,0,0
0.25,0.0,1,1,0,1,1,0,0,1,0.19458174661869126,0.0,0.15519317607726604,0.7831103405846418,0.0,0.6210081666174844,0.022546525919957733,7.87756351159081e-05,0.2925220094125212,0.004081985340087885,0.031803453736169995,0.015172116161185833,0.17384741755942437,0.13528777661187621,0.0192541741168068,0.24347961560738332,-0.12837825193478683,0.026179031895021965,-0.17101789682323382,0.13071457996307695,0.06621010208250216,-0.1708822997668399,-0.1350867697727382,0.015103181423340384,0.2056936487156488,0.00402222700686048,-0.001998483861312011,0.4002868770878032,0.07561260960376738,0.13296616492547428,0.011111902096957532,0.00402222700686048,0.001998483861312011,0.4002868770878032,0.07561260960376738,0.022227011151791765,0.03736114025560978,5.0,3,0.3,0,12,0.03366522691761169,48.9381079062071,0.0620181049384413,69.46209867769024,0.07873235064689027,5.0,0,0,0,0
0.26,0.0,1,1,0,1,1,0,0,1,0.2024109295812544,0.0,0.16139713098258265,0.782918296256313,0.0,0.6203954905316611,0.024753380954492976,0.00011101075383596332,0.2925102611784656,0.01060961273737909,0.03300549715414691,0.01645945402495217,0.17400847212272455,0.13530095265872624,0.01925937258247651,0.23998119956454061,-0.12607251498153982,0.021476990752892153,-0.16591622310112286,0.13066059328009783,0.07284513951695809,-0.17072637954554126,-0.13510239111194725,0.015120950539483119,0.23355277715776232,-0.004013548443256111,0.010569165676327747,0.6170272003548369,0.0754342783137918,0.11417469302514632,0.031141847576507925,0.004013548443256111,0.010569165676327747,0.6170272003548369,0.0754342783137918,0.04722243795743633,0.08237783397720036,25.0,3,0.3,0,12,0.05922756067394237,94.74439056515013,0.07678096661108841,52.59126139674053,0.20680928785117542,25.0,0,0,0,0
0.27,0.0,1,1,0,1,1,0,0,1,0.21023811482965918,0.0,0.16759471420552421,0.7827185248404783,0.0,0.6197583222941561,0.027174322326196067,8.928364475684123e-05,0.2925587183564256,0.016384776408497084,0.033314946352027475,0.01764236697889476,0.17419481007731408,0.1353104580876589,0.019265083692331125,0.23332013075731153,-0.12423595297249107,0.01964974535224448,-0.15984323949678392,0.13058809401942506,0.07997782890914154,-0.17056181400454315,-0.13512059202827087,0.01513934941666123,0.24502970983125932,-0.007065392802499346,0.020026921025251512,0.5465717099837364,0.002132495498569361,0.12707839298034201,0.034791595001600145,0.007065392802499346,0.020026921025251512,0.5465717099837364,0.002132495498569361,0.0405163212251822,0.0823733090292817,25.0,3,0.3,0,12,0.08819044906838139,82.23190245072264,0.07981183509160383,96.8305512291302,0.13694856147235185,25.0,0,0,0,0
0.28,0.0,1,1,0,1,1,1,0,1,0.21806322511274712,0.0,0.17378568107611705,0.7825110283087938,0.0,0.619096687059284,0.029636081121947454,5.9967503863175904e-05,0.29285048847719847,0.021133031953026873,0.03265506846471666,0.018889385802382423,0.17440599572229765,0.135320248372873,0.019271098483734928,0.23084883303824605,-0.12403150868346428,0.019674894067080603,-0.15370934660744162,0.13116704351657385,0.08563328184574195,-0.17038567853091444,-0.13513966662511329,0.015157835426171468,0.24363725622479546,-0.006754574894683369,0.05880773570473269,0.366689962903669,-0.14630291277791735,0.12956148894801064,0.02557403111204834,0.006754574894683369,0.05880773570473269,0.366689962903669,0.14630291277791735,0.04422419212810641,0.07655279813483812,0.0,3,0.3,0,12,0.08171710647279919,71.7007119911936,0.07072394309158925,66.76306918060854,0.10071823422674886,0.0,0.0,0.20000000000000004,0.0,0.0
0.29,0.0,1,1,0,1,1,1,0,1,0.2258861831998389,0.0,0.17996978718558976,0.7822958087091797,0.0,0.6184106109472703,0.03207823655228774,3.099782400343013e-05,0.2936122682423187,0.02495294174599401,0.03051492253496102,0.020253967661998058,0.17465132472807474,0.1353321380292416,0.01927795173071456,0.23105356373377292,-0.12401446429912288,0.019681339621828664,-0.1476789499281689,0.13178050486612736,0.08829258636840565,-0.17019520420683176,-0.13516043886651102,0.01517631720542964,0.24014643676718378,-0.0038371142660495058,0.10833066444038851,0.39211211619714104,-0.284101048511251,0.15485825855066748,0.014260253567344866,0.0038371142660495058,0.10833066444038851,0.39211211619714104,0.284101048511251,0.025111528634922275,0.043208896468316646,0.0,3,0.3,0,12,0.05756685400037145,84.2713309580658,0.07743597052656491,104.6221213504372,0.06185709205769724,0.0,0,0,0,0
0.3,0.0,1,1,0,1,1,1,0,1,0.23370691188149645,0.0,0.186146788396022,0.7820728681657535,0.0,0.6177001210432242,0.03450986172493835,2.9307440192728923e-06,0.2948501514330261,0.02841210065179584,0.0262937770213858,0.02187383511609449,0.17493725787169914,0.13534585654827647,0.01928662638138748,0.23136277626579518,-0.12399233832449863,0.01968909130434998,-0.14173839028414895,0.13213697575274502,0.08718574084061947,-0.1699990019745277,-0.13518503107077606,0.01519493007795672,0.23705722765991125,-0.004725620271952828,0.15266726160669308,0.2811441316055471,-0.5453357604307989,0.18008870924013087,0.0033503157784147974,0.004725620271952828,0.15266726160669308,0.2811441316055471,0.5453357604307989,0.006058079155891127,0.014134015206258753,0.0,3,0.3,0,12,0.020919268659935774,89.36724794641893,0.07606104449406395,66.18509210604843,0.019960128310995806,0.0,0,0,0,0
0.31,0.0,1,1,0,1,1,1,0,1,0.241525333970285,0.0,0.19231644084998276,0.7818422088788551,0.0,0.6169652453960756,0.036872346890408504,-4.285602815797929e-05,0.29651861507005994,0.03161632293860101,0.01968940316016221,0.02336119807383777,0.17526412857312132,0.13535693905553034,0.01929817933964459,0.231717837714219,-0.12397306712260817,0.019699019403587342,-0.13581447237071237,0.1324639244149551,0.0829239100250719,-0.16980835457605173,-0.13520870886412845,0.015213268115895073,0.22724711674561376,-0.007232341266511096,0.19299788081039515,0.2611570173539846,-0.8019670846164,0.16826553993621882,0.014278217224671236,0.007232341266511096,0.19299788081039515,0.2611570173539846,0.8019670846164,0.02405090091376394,0.04556145940494627,0.0,3,0.3,0,12,0.034643845118488406,88.57067299318771,0.0689249157606317,99.67893490503208,0.04039338643796053,0.0,0,0,0,0
0.32,0.0,0,1,0,1,1,1,0,1,0.249341372301535,0.0,0.1984785009801572,0.7816038331249997,0.0,0.6162060130174452,0.03910033307574157,-0.00015433131303908262,0.2984622794170085,0.03508668405551373,0.011261434814699323,0.024986598479846137,0.17602766457422256,0.13538492336018285,0.019437459931025136,0.23213966162978897,-0.12396740792322798,0.019710301727000334,-0.1298882711818366,0.1335570987377566,0.07445141083734338,-0.16965634330204504,-0.1352291725523232,0.015231359343562179,0.210199195552371,-0.012613330209879137,0.17884772109651695,0.3862302975660205,-0.7456237479019119,0.22535818845574962,0.03914217674916401,0.012613330209879137,0.17884772109651695,0.3862302975660205,0.7456237479019119,0.026879687475592412,0.07863519443463556,20.0,3,0.3,0,12,0.05510959652525839,60.70559803313512,0.05001144796851924,43.729867768304416,0.15022460553843964,20.0,0,0,0,0
0.33,0.0,0,1,0,1,0,0,0,0,0.2571549497341036,0.0,0.2046327255189626,0.781357743256858,0.0,0.6154224538805403,0.04122484788230752,-0.00026420756774598475,0.2997516163387521,0.03685989481457774,0.004612210351289114,0.027098098105343,0.17847701470664232,0.13506775796616646,0.025334199649303196,0.232439813402581,-0.12394397046333822,0.019718301206125832,-0.12259877772881475,0.13427728541943923,0.06114253076817776,-0.16963516254885097,-0.13522140431328367,0.015250064336034208,0.21069989430253824,-0.0073840789834757345,0.0880458382270703,0.03215463644749329,-0.4982586909606103,0.23392267036579611,0.046455055431565334,0.0073840789834757345,0.0880458382270703,0.03215463644749329,0.4982586909606103,0.029289944846833504,0.08312907926187457,40.0,3,0.3,0,12,0.08801599554910258,50.92630777912031,0.04144853318542941,17.63533804101228,0.26514928520887426,40.0,0,0,0,0
0.34,0.0,0,1,0,1,0,1,0,1,0.2649659891511359,0.0,0.21077887150815186,0.7811039417032317,0.0,0.614614598918925,0.043330943304565654,-0.0002719469519195496,0.3002303490620075,0.03470398894261515,0.00035782018240038127,0.02927022659238632,0.17972154588153566,0.13563556538628796,0.03683288650284078,0.2326807572523764,-0.1239152940495927,0.019723640022583033,-0.11259136997505895,0.13383136490237135,0.04433537306793371,-0.169484991265632,-0.13525553956632447,0.015268441692138895,0.21179125231907175,-0.003487107090842674,0.008495951221453395,-0.5050096931903891,-0.39389961720835126,0.2335700565738042,0.05317473683206414,0.003487107090842674,0.008495951221453395,0.5050096931903891,0.39389961720835126,0.022791185065652336,0.07945302898855916,0.0,3,0.3,0,12,0.08009525614204246,44.7495892994603,0.03605315917404774,13.520165809838357,0.20241529032900085,0.0,0.0,0.01,0.0,0.01
0.35000000000000003,0.0,0,1,0,1,0,1,0,1,0.2727744134608264,0.0,0.21691669630840524,0.7808424309690531,0.0,0.6137824800253378,0.0454756770809903,-0.00018387563700884637,0.2999409938787767,0.02766939712269965,-0.004414090175976382,0.031294597044866486,0.18440781239296605,0.13618517375107075,0.05013459657401015,0.23290034430125703,-0.12388263225242327,0.019728241811878072,-0.10474284622723795,0.13099281512668795,0.02802201989243551,-0.16936774176082053,-0.13528254341813978,0.015287697959613045,0.21659242963851696,0.00635657086639683,-0.06359247315162248,-0.913594925575121,-0.5432458628966671,0.19299792878964434,0.05618198382230946,0.00635657086639683,0.06359247315162248,0.913594925575121,0.5432458628966671,0.023918767518760903,0.0864573222074672,0.0,3,0.3,0,12,0.06942411206107446,30.664177507130255,0.036207125405021974,26.702210114768924,0.07024362702696241,0.0,0,0,0,0
0.36,0.0,0,1,0,1,0,1,0,1,0.2805801455971796,0.0,0.2230459576089092,0.7805732136353161,0.0,0.6129261300503952,0.047673221487567544,2.118267276264479e-05,0.2990239111807222,0.016164856132785822,-0.010873334395926415,0.032859483447932054,0.19187795924810488,0.1368122975856035,0.06290533092378822,0.23311432805671442,-0.12384523350404202,0.019732641742749885,-0.10133901446586768,0.12800314580117875,0.016257933429310506,-0.1692810150440349,-0.13530011540242026,0.015308163936083613,0.22378242613827712,0.0153058666085964,-0.127958383427951,-1.453847564948189,-0.7864497730127458,0.17225131427282092,0.05679771945890247,0.0153058666085964,0.127958383427951,1.453847564948189,0.7864497730127458,0.05079464333608827,0.12289822940358713,0.0,3,0.3,0,12,0.12148158595309293,26.972568080505873,0.03698589618487101,21.146082323526922,0.5781056286815639,0.0,0,0,0,0
0.37,0.0,0,1,0,1,0,1,1,1,0.2883831085207705,0.0,0.22916641343692262,0.7802962923590895,0.0,0.6120455828013432,0.04985098062327871,0.0002578397128607074,0.29795563305361955,0.008120718012492993,-0.015800073027785633,0.034898920976703406,0.19976914212043229,0.13794371101058173,0.07451947587550192,0.23328678699467478,-0.1238051716779561,0.019736820831564666,-0.10137432211263409,0.12798780568692814,0.01627591246341678,-0.16918048128209132,-0.13532639790848525,0.015328092264090987,0.2179229296073679,0.012106624875952755,-0.09292655292336972,-0.4145273338676652,-0.281364248942563,0.20834818153193652,0.07046017891340259,0.012106624875952755,0.09292655292336972,0.4145273338676652,0.281364248942563,0.020818231904986106,0.10338503569434145,20.0,3,0.3,0,12,0.09686383215372563,69.77681602524363,0.09175517766285089,99.11267461236095,0.1227292084770557,20.0,0.0,0.0,0.17,0.0
0.38,0.0,0,1,1,1,0,1,1,1,0.29618322521950524,0.0,0.23527782216732931,0.780011669873476,0.0,0.6111408730406692,0.052151783979332816,0.00044512147598484413,0.29719418391613545,0.0038286430051269835,-0.01784229369380186,0.03680162174753045,0.20957922812894128,0.13914240441190423,0.08630047825110167,0.23345722252121767,-0.12377146169012693,0.01974146289392234,-0.10133644517505669,0.12797291636271652,0.016291616816549448,-0.169030939786402,-0.13534858441762135,0.015347052153646318,0.23736865650707223,0.004809290128517054,-0.06323523027940128,-0.6241404031855073,-0.0923944340024452,0.2170205417296534,0.05881456871243301,0.004809290128517054,0.06323523027940128,0.6241404031855073,0.0923944340024452,0.01825728043767591,0.08188113927862598,10.0,3,0.3,0,12,0.1114627974342584,116.40369044620695,0.10992751779591367,62.4660365545612,0.11819846998356176,10.0,0,0,0,0
0.39,0.0,0,1,1,1,0,1,1,1,0.3039804187093811,0.0,0.24137994253217698,0.7797193489875842,0.0,0.6102120364847669,0.0546085225124192,0.0005612310748239446,0.2967627814867519,-0.0017975349261281763,-0.0177613447864593,0.039254944467214746,0.22129674450228723,0.14054932195074038,0.09642854685048696,0.23364278618336187,-0.12373607734728725,0.01974663213031383,-0.10124006736762803,0.1279502535844814,0.01630652256351664,-0.16883136068221177,-0.13538015397895944,0.015366477092961045,0.2546509598707567,0.002459574891772388,-0.033339478876221115,-0.34157856221660926,0.0686794370879346,0.24264717745022707,0.049329458838624385,0.002459574891772388,0.033339478876221115,0.34157856221660926,0.0686794370879346,0.0012672349180500864,0.05305626864844686,0.0,3,0.3,0,12,0.06540401248334735,96.61592168001445,0.09868761579131236,89.72407184851933,0.057244876418189206,0.0,0,0,0,0
0.4,0.0,0,1,1,1,0,1,1,1,0.3117746120352462,0.0,0.2474725336302022,0.7794193325865117,0.0,0.6092591098025207,0.05726620138629266,0.0006752197424485693,0.2965821580648532,-0.005436807945138058,-0.016781411836020332,0.04148695862893035,0.2324716955538194,0.1419153691352615,0.10305086636338302,0.23384339164157875,-0.1237046055070655,0.019752497474462366,-0.10109735688671453,0.12793133683184232,0.016321540941267587,-0.16860169387579826,-0.1354067577908082,0.015386270138515679,0.27614663140066625,-0.0015078135645308114,-0.011760050005635903,-0.37872257881979465,0.13202113236358234,0.22083147171717296,0.03562798063457995,0.0015078135645308114,0.011760050005635903,0.37872257881979465,0.13202113236358234,0.02664106191302923,0.06377685611213998,0.0,3,0.3,0,12,0.06574654404536182,93.12029573248313,0.10033990433803881,56.52808556678674,0.02635734988369165,0.0,0,0,0,0
0.41000000000000003,0.0,0,1,1,1,0,1,1,1,0.31956572827155894,0.0,0.2535553549363405,0.7791116236312734,0.0,0.6082821306138325,0.060140748849947315,0.0007785930590055437,0.29658001617383745,-0.0076052579573642025,-0.015293252856504402,0.043859629217040945,0.24230883723660493,0.14285598363072433,0.10576484967680258,0.2340627470288272,-0.12367158209689587,0.01975939565300211,-0.10091705552207439,0.12791050507992527,0.016336902230888573,-0.16834581469765014,-0.13543685258548654,0.015406890968645615,0.2987677287130911,-0.0023315174933224553,0.0023068285186669674,-0.07795018468730776,0.16038560970827803,0.24982508826846903,0.02079799955846784,0.0023315174933224553,0.0023068285186669674,0.07795018468730776,0.16038560970827803,0.00373026666787149,0.026859783719661783,0.0,3,0.3,0,12,0.03855599223796072,82.29977363874943,0.09159722614270553,79.87820427048332,0.03566845760634896,0.0,0,0,0,0
0.42,0.0,0,1,1,1,0,1,1,1,0.32735369052314756,0.0,0.2596281663112222,0.778796225158862,0.0,0.6072811374881693,0.0632272773729323,0.0008767424460871262,0.29669033651828225,-0.008473985519811133,-0.013427742144130006,0.04626335963385223,0.2500245285682526,0.14386286689717892,0.10423355874879459,0.2342965009083267,-0.1236398905083474,0.019767160645146387,-0.10070751403837361,0.12788975405631278,0.016352866282412698,-0.16806734354536673,-0.1354668932405353,0.015428340382109856,0.3171199274846622,-0.005500253566480836,0.010279541288964564,-0.07015056679567125,0.22232387854625396,0.23990473352870148,0.010233763038485333,0.005500253566480836,0.010279541288964564,0.07015056679567125,0.22232387854625396,0.019723432782520728,0.0354574493874869,0.0,3,0.3,0,12,0.034314328037106226,73.99480022955052,0.0871778616997185,51.244808420598055,0.03096041323086718,0.0,0,0,0,0
0.43,0.0,0,1,1,1,0,1,1,1,0.33513842192596877,0.0,0.2656907280106526,0.778473140282121,0.0,0.6062561699430369,0.06648488293791689,0.0009508959237104987,0.296831301599576,-0.009129635157774233,-0.010981806243735903,0.04886269427601671,0.2569468823482887,0.1452014242680796,0.09919190558298485,0.2345410225265864,-0.12360812505021392,0.01977575858008848,-0.1004775107876604,0.12786469605223177,0.016369384326664932,-0.16776902658668572,-0.13550234569409048,0.015450739750444725,0.33414693377256177,-0.010085592148257681,0.010448276478888787,-0.008991423555424953,0.27129032885918497,0.270095544904876,0.0009914881534069941,0.010085592148257681,0.010448276478888787,0.008991423555424953,0.27129032885918497,0.004404816894223396,0.015481897195888071,0.0,3,0.3,0,12,0.018895099335485232,70.24471174635062,0.07943630815177326,70.88238900757445,0.09967751665215285,0.0,0,0,0,0
0.44,0.0,0,1,1,0,0,1,1,1,0.3429198456478665,0.0,0.2717428006950765,0.7781423721897718,0.0,0.6052072684423926,0.06988137639867464,0.001003621769684693,0.29699848496656023,-0.009044089511818978,-0.008224643962336575,0.051395040077292384,0.26441283739180077,0.1470349803319432,0.08989168553899154,0.23479415258423397,-0.12357931715089022,0.019784891850560787,-0.10023204317751536,0.12783937102185478,0.016386336655558553,-0.16746984765171596,-0.13544844206912254,0.01623169713634645,0.34036091073141345,-0.014267616994166543,0.01847555735406632,0.13081696587466937,0.20386407261250472,0.2622259913511894,0.0025589349164530373,0.014267616994166543,0.01847555735406632,0.13081696587466937,0.20386407261250472,0.0095168093438871,0.026343361254506682,10.0,3,0.3,0,12,0.02814196011791052,94.02333801861955,0.08539648337643356,48.090058078275185,0.23348946980366003,10.0,0,0,0,0
0.45,0.0,0,1,1,0,0,1,1,0,0.3506978848893299,0.0,0.2777841454390272,0.7778039241463419,0.0,0.6041344743950683,0.07322934775212728,0.0010308393447618302,0.2973134687335918,-0.006650013998328972,-0.006932283698756425,0.05432013239692754,0.2757400832284285,0.14998202219517234,0.07667049365264812,0.23506582408081161,-0.12354762008008516,0.019794196548015397,-0.09999000936865143,0.12780723915793088,0.01640259865279703,-0.16862150038670473,-0.13535587759836426,0.019827944785649587,0.32964852392067356,-0.0157678230589677,0.038278365169893185,0.24184667154611833,0.1354787240032007,0.29509272473089254,0.02104936096865634,0.0157678230589677,0.038278365169893185,0.24184667154611833,0.1354787240032007,0.017308579291865356,0.054125763319489394,15.0,3,0.3,0,12,0.05073491534259165,103.37271284283436,0.08855687597756799,85.20306023524672,0.24135318607942158,15.0,0,0,0,0
0.46,0.0,0,1,1,0,0,1,1,0,0.35847246288425194,0.0,0.28381452374055854,0.7774577994922038,0.0,0.6030378301531358,0.07650318229093424,0.001019308475781799,0.2977195146580963,-0.005149941678730237,-0.005317782488503564,0.057219373689559906,0.2878279856005903,0.15298280305434103,0.06377195245759623,0.23533426591775036,-0.12351934449205154,0.019802995738888718,-0.09974467674737575,0.12777335767484785,0.016418852497771336,-0.1686984185807121,-0.13620383097793426,0.02443424860439894,0.3247590808786737,-0.02076610688185072,0.03627171634231962,0.13802577899154858,0.16897032237528595,0.3062751992750691,0.03371338200557822,0.02076610688185072,0.03627171634231962,0.13802577899154858,0.16897032237528595,0.022460675534510532,0.07694016442193947,0.0,3,0.3,0,12,0.05948251491383051,78.29260789214746,0.07923858536119362,52.39226227811771,0.027854350640657,0.0,0,0,0,0
0.47000000000000003,0.0,0,1,1,0,0,1,1,0,0.3662435029006865,0.0,0.28983369753066096,0.7771040016434583,0.0,0.6019173790102417,0.07974674005030215,0.0010199820428547029,0.2980791072520617,-0.0029518528021330336,-0.00360833906701874,0.06026340122310552,0.3004399509693424,0.15572898163602525,0.05311804410114475,0.23559975666393193,-0.12348952982197692,0.019811808721780705,-0.09950113526092338,0.1277394159647362,0.016434861820361385,-0.16535774297233014,-0.137461985987783,0.031513619534486975,0.3231444517499408,-0.020211590332965233,0.03361700893149697,0.1679258080151999,0.15592433379881107,0.29646215161127965,0.04309905115074575,0.020211590332965233,0.03361700893149697,0.1679258080151999,0.15592433379881107,0.006628454080618684,0.06993909556432967,0.0,3,0.3,0,12,0.07509190254488929,77.02688069558624,0.07981807376590269,77.06252913089105,0.08309235504655765,0.0,0,0,0,0
0.48,0.0,0,1,1,0,0,1,1,0,0.3740109282416059,0.0,0.29584142918265965,0.7767425340919398,0.0,0.6007731651998693,0.08296386343911,0.0010219132912326647,0.29842990418249965,-0.0017127178277595151,-0.0018632362916406464,0.06329578035789263,0.31305235300561646,0.15798193617578757,0.044644864602711234,0.23586555495595174,-0.12345945981871884,0.019820384349128917,-0.09925942803192658,0.12770557072477398,0.016450837937683843,-0.15752699822568855,-0.13891108664127086,0.041597290429752465,0.3195480358457315,-0.017892202487943053,0.03563758926566806,0.15125796887853826,0.19608916016443823,0.3039663793958249,0.05446289239587443,0.017892202487943053,0.03563758926566806,0.15125796887853826,0.19608916016443823,0.008124950213165227,0.08048004509698271,0.0,3,0.3,0,12,0.08051982538025218,84.6868050844802,0.08227355356608723,54.116744515473954,0.027293871376318224,0.0,0,0,0,0
0.49,0.0,0,1,1,0,0,1,1,0,0.3817746622456579,0.0,0.3018374815215959,0.7763734004052003,0.0,0.5996052338936242,0.08616591587281656,0.001035893282669736,0.2988216771419333,-0.001274033736497326,0.00026652647015179554,0.0662769481833608,0.3251948088426302,0.1589368350068464,0.03785441792473676,0.23613299317165626,-0.12343011070635117,0.019828757523647905,-0.09901209581375572,0.12767329981904682,0.01646699057965581,-0.14572438720636005,-0.13987652643250714,0.05401204085829128,0.32017370482852303,-0.0203844015915503,0.04351089199596203,-0.016352194207937022,0.2423350965021345,0.30038788858981663,0.061600957417134894,0.0203844015915503,0.04351089199596203,0.016352194207937022,0.2423350965021345,0.0014495929317792644,0.08343495194046446,0.0,3,0.3,0,12,0.08102832309633495,87.80522344075757,0.08067405384226277,79.94829737410629,0.016953462552015797,0.0,0,0,0,0
0.5,0.0,1,1,1,0,0,1,1,0,0.3895346282879222,0.0,0.3078216178335902,0.7759966042264255,0.0,0.5984136311994293,0.08938381667095238,0.00105602280872181,0.2993158832325845,-0.002189670422250136,0.0029231640930595937,0.06919131836588978,0.33610875564497045,0.1582466791412493,0.03296473415585961,0.23640705390154781,-0.12340092666684466,0.019837067863569535,-0.09875261972786376,0.12764435096345889,0.016483567113309727,-0.1306059480764473,-0.14024390521058394,0.06844654675441053,0.32324566984288006,-0.020076139899530318,0.05870365260598674,-0.15267066575737628,0.27179392309249534,0.28077370420042896,0.06628895844504212,0.020076139899530318,0.05870365260598674,0.15267066575737628,0.27179392309249534,0.027047913633161225,0.11341301197773367,5.0,3,0.3,0,12,0.10037135593060156,94.88565056852947,0.08772596494912767,55.057837162050944,0.02562481325258026,5.0,0,0,0,0
0.51,0.0,1,1,1,0,0,1,1,0,0.3972907497806668,0.0,0.3137936018751874,0.7756121492744628,0.0,0.5971984041597211,0.09276803966993095,0.0011494816583482977,0.2999858561081709,-0.0039603831839638975,0.005576642771828233,0.07204001954786952,0.3408784409398765,0.1543348945121192,0.02867007315937911,0.23671012016470513,-0.12336592859787145,0.019846462497527362,-0.0984743653455297,0.12762201039938326,0.016500966307000042,-0.11585177033209113,-0.13972492869977093,0.07872489148359524,0.3509048877808984,-0.010693902613193923,0.07400831326461307,-0.1405461469850642,0.21042282135322388,0.28133092809465876,0.04638586199976841,0.010693902613193923,0.07400831326461307,0.1405461469850642,0.21042282135322388,0.03246267378052864,0.08954243839349096,25.0,3,0.3,0,12,0.09298945757875188,71.11721852637405,0.08317793633258787,74.51922338663337,0.30087306678838943,25.0,0,0,0,0
0.52,0.0,1,1,1,0,0,1,1,0,0.4050429501741038,0.0,0.31975319788268336,0.7752200393436992,0.0,0.595959600749596,0.09638299850042047,0.0013056423552323337,0.3007085005925985,-0.006955008606136912,0.007133204098533019,0.07467355739865784,0.341266654087396,0.15023633343214018,0.024193629514271314,0.2370436189173152,-0.1233296092677903,0.019857217460164833,-0.09819689761545813,0.12760291004939156,0.016518956965205805,-0.10131265516670199,-0.140297231760609,0.08649232395728765,0.37040503654135865,-0.012208804762368996,0.07666838303445861,-0.458618344473192,0.1229151869859972,0.26216608723734003,0.034637913632745154,0.012208804762368996,0.07666838303445861,0.458618344473192,0.1229151869859972,0.05758711064534333,0.10443382904045748,25.0,3,0.3,0,12,0.1054265829504252,80.57170830722374,0.07619837924142833,51.12701193290776,0.03338611547144121,25.0,0,0,0,0
0.53,0.0,1,1,1,0,0,1,1,0,0.4127911529571451,0.0,0.325700170581432,0.774820278304128,0.0,0.5946972698748665,0.100172627456472,0.0014898776408640746,0.30147440749654114,-0.011216012450295014,0.008082546147552216,0.07734809468102216,0.3390877122843178,0.1462526882972606,0.019364582532897412,0.23740013818514794,-0.12328997368872895,0.019869274524906444,-0.0979134745087174,0.1275835959490281,0.01653749972503865,-0.08653813076098088,-0.1409630592563475,0.09263795409382543,0.38599187433753795,-0.009810450043708062,0.08185021066274474,-0.4070940116303519,0.07424617166590664,0.27888394273362727,0.026799278619607125,0.009810450043708062,0.08185021066274474,0.4070940116303519,0.07424617166590664,0.04681622784780476,0.08342595651111995,25.0,3,0.3,0,12,0.09372981607632705,78.35425423716316,0.06855201664253197,76.58619535525959,0.016843985903665537,25.0,0,0,0,0
0.54,0.0,1,1,1,0,1,1,1,0,0.4205352816581571,0.0,0.3316342851951342,0.7744128701012043,0.0,0.593411461370219,0.10410188131928988,0.0017174259803860634,0.3022605500929616,-0.01602518143612508,0.008823834671994435,0.08034213007502579,0.3386766158240626,0.1455913406110353,0.018909778445413236,0.23777576092657104,-0.12324501719718502,0.0198827081638748,-0.09762545592436356,0.12756178588138178,0.016556483464137073,-0.07188695286262814,-0.1417102093327595,0.09615980304135664,0.40037472834027654,-0.007709583236813123,0.08290169780848626,-0.3364465350389711,0.006114941511623448,0.3077647529811087,0.02016055331788058,0.007709583236813123,0.08290169780848626,0.3364465350389711,0.006114941511623448,0.02386953221402549,0.051739668768719195,15.0,3,0.3,0,12,0.05837873007271812,71.11783332881082,0.06693392513460056,59.620606415814656,0.06862332822043604,15.0,0.21000000000000005,0.0,0.0,0.0
0.55,0.0,1,1,1,0,0,1,1,0,0.42827525984571624,0.0,0.3375553074551057,0.7739978187559116,0.0,0.5921022259971487,0.10816518760310909,0.0020149803103693955,0.3031105637560091,-0.019025956224057897,0.008305741287106372,0.08342874942069736,0.33874512654303757,0.14560672332771527,0.018922250776661514,0.23817614596668152,-0.12319499223797796,0.019897789000236726,-0.0973347220397883,0.12754211492046855,0.016575561293697277,-0.05744604078035051,-0.14246320358299783,0.09568246268933614,0.41284374206905244,-0.0040110999346354296,0.09339052508999775,-0.3715771524962331,-0.1316606149601277,0.3037144088282652,0.015431517776663795,0.0040110999346354296,0.09339052508999775,0.3715771524962331,0.1316606149601277,0.03384089862684048,0.0532835163381397,15.0,3,0.3,0,12,0.0499656729628287,71.65790002973264,0.07007733135721897,76.39030597988476,0.04517693160003744,15.0,0,0,0,0
0.56,0.0,1,1,1,0,1,1,1,0,0.4360110111293624,0.0,0.34346300360952614,0.7735751283646175,0.0,0.5907696154420439,0.112300631131952,0.0023671381235644048,0.30411087116751273,-0.02380540778081326,0.006778119380696168,0.08645257785933527,0.3390055145980725,0.14567013102103,0.018933666579272243,0.2386006197073665,-0.12314073159257431,0.019914575552861385,-0.09704360662546097,0.12752529795023282,0.016594941815937847,-0.04298018556079081,-0.14492152670595507,0.08868366347143541,0.41297500610566484,9.868143724638644e-06,0.11828808058527285,-0.6150061260175501,-0.16262121672823546,0.29714338618822544,0.02303600502369757,9.868143724638644e-06,0.11828808058527285,0.6150061260175501,0.16262121672823546,0.046319617421300696,0.0693654905887229,5.0,3,0.3,0,12,0.06311937744494618,85.56092944494027,0.06698655857664526,87.15361144114921,0.16278458042545485,5.0,0.01,0.0,0.0,0.0
0.5700000000000001,0.0,1,0,1,0,1,1,1,0,0.44374245916035343,0.0,0.3493571404326669,0.7731448030991017,0.0,0.5894136823140772,0.11642193878712745,0.0028117660575863656,0.3053546761495251,-0.031827391995427785,0.004542110977316938,0.08933354763858775,0.3380803508968535,0.14569815183708867,0.018950912453196772,0.23902070441956802,-0.1231050130157208,0.020009203328505226,-0.09676126867566484,0.12751335219226906,0.01661454176402513,-0.02469695691932286,-0.14737770300801636,0.07762936714548238,0.4171325275174694,0.007499927568248644,0.12251302356736546,-1.0839698333724703,-0.2926400013022578,0.2757469150047439,0.026609931642884055,0.007499927568248644,0.12251302356736546,1.0839698333724703,0.2926400013022578,0.073610225427923,0.1077200846390557,20.0,3,0.3,0,12,0.09924925748353823,126.70593924077355,0.06804780436590142,103.35329645864347,0.39000730861887556,20.0,0,0,0,0
0.58,0.0,1,0,1,0,0,0,1,0,0.45146952763241865,0.0,0.3552374852340987,0.7727068472065224,0.0,0.5880344801431792,0.12063188614897731,0.003257041713431559,0.3060326803389422,-0.039986962497008664,0.0019023670360520661,0.0920468023904352,0.334953240860179,0.14583972927887986,0.01898795651651687,0.2404766066046517,-0.1221458393057894,0.024615044409972725,-0.09650879943598163,0.1274960475517654,0.016634221500752555,-0.0038643645661447235,-0.14929357436143453,0.06543012918691166,0.43033400442051195,0.002180892069742967,0.01568396423893096,-0.4489970335967564,-0.3216695702353464,0.2516444879488161,0.021135523211906704,0.002180892069742967,0.01568396423893096,0.4489970335967564,0.3216695702353464,0.1035929972852826,0.12690941256693228,40.0,3,0.3,0,12,0.12104941237631946,42.0614898694677,0.03539125238716342,10.464268023728826,0.20604465977344022,40.0,0,0,0,0
0.59,0.0,1,0,1,0,1,0,1,0,0.4591921402825117,0.0,0.3611038058678774,0.7722612650093053,0.0,0.5866320633778677,0.12494119388305229,0.0036194122016949652,0.3057651272846601,-0.04242676628409032,-0.0011473839627504923,0.09478170103805413,0.33406759523782903,0.14642189963057167,0.01900916621540545,0.24482191799790226,-0.12123309989525802,0.03352715570421419,-0.09628530610426704,0.12746545732136896,0.016654049932371684,0.01365267218809374,-0.15012174716373733,0.05150843608007942,0.43781772467553315,-0.009695393183881846,-0.07084978151582935,-0.07561311140074636,-0.33105379940118107,0.2694388495864037,0.02137441560697856,0.009695393183881846,0.07084978151582935,0.07561311140074636,0.33105379940118107,0.0916649562814737,0.1227347650723341,15.0,3,0.3,0,12,0.123895807691032,36.58414939830047,0.04705996884389427,23.3945053560954,0.14970557815657815,15.0,0.01,0.0,0.0,0.0
0.6,0.0,1,0,1,0,0,0,1,0,0.46691022089156364,0.0,0.3669558707417092,0.7718080609051936,0.0,0.585206487383183,0.129418596874499,0.003861101042276527,0.304650107083479,-0.04063583437911823,-0.004792990272986852,0.09776795417628023,0.33383972613005675,0.14680045021008842,0.019025974689224984,0.24922532734183067,-0.1208810169630547,0.045846703707694475,-0.0960836662802322,0.12741660913423597,0.016674985344278664,0.026782737535599316,-0.14809243101424013,0.03616899190460218,0.45691808782350074,-0.017616385229182782,-0.1560635320676211,0.4572450589483906,-0.4245256646150688,0.2927340687504824,0.009992133068062903,0.017616385229182782,0.1560635320676211,0.4572450589483906,0.4245256646150688,0.0742218019912268,0.10183032028847248,5.0,3,0.3,0,12,0.10854444953245071,38.62732734801882,0.053549410867306045,15.551808476782508,0.21605244693246517,5.0,0,0,0,0
0.61,0.0,1,0,1,0,1,0,1,0,0.4746236932852346,0.0,0.3727934488260932,0.7713472393670984,0.0,0.583757808438401,0.1341331735449833,0.004027871587430984,0.3027921271774499,-0.03341978334451937,-0.009990064112911146,0.10082863380342223,0.3329906979650806,0.1472586594793771,0.01904933069070655,0.257758146077676,-0.11938522177968414,0.05830404773236114,-0.09589583344501759,0.12735418274817475,0.016697860003575343,0.030831430564370238,-0.14477737701550095,0.019580335499618268,0.4793180204458347,-0.0268316477283767,-0.22829567764866102,1.037898918390865,-0.6319932166264258,0.28243761065077316,0.004694327160600087,0.0268316477283767,0.22829567764866102,1.037898918390865,0.6319932166264258,0.09035583817532006,0.12188181306429685,10.0,3,0.3,0,12,0.11241891686048149,57.248799652093695,0.06762123171557058,29.159834872614415,0.28078244153905496,10.0,0.01,0.0,0.0,0.0
0.62,0.0,1,0,1,0,1,0,1,1,0.4823324813346662,0.0,0.3786163096634422,0.7708788049431592,0.0,0.5822860837348953,0.13898235094440897,0.004175983992724937,0.30041529446899057,-0.023395285717296613,-0.01592794197525782,0.10349887805201616,0.33312198396380643,0.14730844330750203,0.01906808857098974,0.2704411816984887,-0.11743903886883343,0.06949692725506795,-0.09570162689521361,0.12729627303912888,0.016722309298047133,0.03077164928081566,-0.14441217839718024,0.017911124764119657,0.4707901811930369,-0.026346062359790777,-0.2243305195429287,0.5784283009259765,-0.36313822055013384,0.22889778282478795,0.011542300141629325,0.026346062359790777,0.2243305195429287,0.5784283009259765,0.36313822055013384,0.14971852683865422,0.18760688934007433,15.0,3,0.3,0,12,0.16612402007065763,70.27544020051768,0.08114499380819613,90.72041866874049,0.55744409244581,15.0,0.0,0.0,0.0,0.17
0.63,0.0,1,0,1,1,1,0,1,1,0.4900365089572325,0.0,0.38442422337718063,0.7704027622566278,0.0,0.5807913713738455,0.14365085490923504,0.004421870633023929,0.29867100255106704,-0.018331109752293198,-0.017211755128357265,0.10650024661593631,0.3332884503464453,0.14735464384858013,0.019085501034662194,0.2865044389401895,-0.11584289969357332,0.0759376996369456,-0.09544820970999217,0.1272480316320843,0.01674318278827905,0.030885008908353467,-0.14444700729865131,0.017942010381870835,0.45987615676373667,-0.016507904937416953,-0.1469138072993134,0.4896949254565406,0.07208587908196427,0.3555720381908587,0.030160352193495832,0.016507904937416953,0.1469138072993134,0.4896949254565406,0.07208587908196427,0.028852185186321933,0.07552044231723472,10.0,3,0.3,0,12,0.11606303925047505,188.7118230642547,0.14245453660449053,116.26982687278709,0.18401740205328654,10.0,0,0,0,0
0.64,0.0,1,0,1,1,1,0,1,1,0.4977357001172911,0.0,0.3902169606808198,0.7699191160058627,0.0,0.5792737303639162,0.1482757222836261,0.004785816321439412,0.29758843156838655,-0.013856417841174277,-0.014725559193914606,0.10981620129539309,0.3334565280230095,0.1474097477811354,0.01910305893537767,0.30762591502483133,-0.11228279551420467,0.0828824465695194,-0.09513199356820984,0.12721939521522552,0.016763677765155444,0.031107186869753306,-0.14446497281213555,0.01796686486032595,0.46768021845071794,-0.008392736882214608,-0.08710187499204258,0.37389490968840694,0.37891950957903225,0.32000778201363106,0.03005548166657318,0.008392736882214608,0.08710187499204258,0.37389490968840694,0.37891950957903225,0.07020917866718873,0.10865739721597652,0.0,3,0.3,0,12,0.09916182672123647,184.97537264269013,0.13235531815647705,70.78787674504244,0.3536053586170611,0.0,0,0,0,0
0.65,0.0,1,0,1,1,1,0,1,1,0.5054299788269336,0.0,0.39599429288700977,0.769427870964251,0.0,0.5777332206189978,0.1530462594809018,0.0052225450716872086,0.2970517229346806,-0.011355184142756582,-0.010436661503088862,0.11332430528969212,0.3336505867999044,0.14747304075763726,0.01912078872989595,0.32851923725467413,-0.1076199792156093,0.08814446115371541,-0.09476910265047238,0.1271967172245774,0.016786101242157375,0.03141039745735019,-0.14447606600740895,0.017990824467720545,0.4908952199393756,-0.00895584320388759,-0.0364205410147198,0.1833127374542518,0.4455897387264024,0.3712251720403924,0.014534758887558008,0.00895584320388759,0.0364205410147198,0.1833127374542518,0.4455897387264024,0.024769120846617365,0.048259722938062966,0.0,3,0.3,0,12,0.06330509353473801,164.04570520664072,0.12433282524255751,102.07099624702747,0.13705386265478547,0.0,0,0,0,0
0.66,0.0,1,0,1,1,1,0,1,1,0.5131192691467354,0.0,0.4017559919165674,0.7689290319801811,0.0,0.5761699029557643,0.15806943901898465,0.00574886247250111,0.2969003863370337,-0.007802660649646405,-0.005831838044088267,0.11686299693969066,0.33389321125629223,0.1475434345810783,0.019139320558497458,0.3472044189956155,-0.102231073488288,0.09028324859836098,-0.0943628908416353,0.12718513458412553,0.016810693983335845,0.031758643600003356,-0.14447891600929666,0.01801571526018725,0.5180485248225134,-0.00375241025180068,-0.001987418130471848,0.40408766158493176,0.4553509280504657,0.36732286172769973,0.004929255675777955,0.00375241025180068,0.001987418130471848,0.40408766158493176,0.4553509280504657,0.03443313018886768,0.043114796116446315,0.0,3,0.3,0,12,0.050955877050628,144.5862450831585,0.11374404675126393,60.90174038086782,0.17093027435796726,0.0,0,0,0,0
0.67,0.0,1,0,1,1,1,0,1,1,0.5208034951865055,0.0,0.4075018303074806,0.7684226039770037,0.0,0.5745838390913194,0.16333709164998095,0.006306632421700328,0.2970191104406932,-0.004905903203290514,-0.001162934502848545,0.1207731754015929,0.33416410193683355,0.1476185962646447,0.01915851066162888,0.36584206148537685,-0.09643432145002051,0.08944513357094233,-0.09393008441588667,0.1271698822617211,0.016837452588715107,0.03214880209869812,-0.1444835598120598,0.018042375456103862,0.5400670582282869,-0.008467586083295831,0.016652200027616776,0.29147027993347957,0.4715713956409621,0.4042158206730213,0.01926356304178145,0.008467586083295831,0.016652200027616776,0.29147027993347957,0.4715713956409621,0.003286009634459297,0.03101715875953658,0.0,3,0.3,0,12,0.029345005853295015,139.46117814009472,0.10620042009044954,81.92071730492003,0.29892594671889716,0.0,0,0,0,0
0.68,0.0,1,0,1,1,1,0,1,1,0.5284825811060347,0.0,0.4132315812238882,0.767908591952926,0.0,0.5729750916407594,0.1687907140283133,0.006885020413744447,0.2971537056388877,-0.00215734454985991,0.003308672547175817,0.12473921062928296,0.33445631561637734,0.14769426047697498,0.019178528591894617,0.3869070294401858,-0.0909372981724968,0.08760015107027781,-0.09348671543518787,0.12715461815454712,0.016865326311578555,0.032550628711767116,-0.14448848456904567,0.01807031933613648,0.5572441038802853,-0.011907538589691794,0.012097094946290476,0.21038143947127785,0.4151900914417951,0.4020025267368212,0.028761522774250592,0.011907538589691794,0.012097094946290476,0.21038143947127785,0.4151900914417951,0.011229054487067014,0.051898115851009397,0.0,3,0.3,0,12,0.04740960722320429,106.64939546110308,0.08845402738161698,46.384331431157065,0.28817680025457904,0.0,0,0,0,0
