time,trans_flag,des_cont_state_fl,des_cont_state_fr,des_cont_state_rl,des_cont_state_rr,cont_state_fl,cont_state_fr,cont_state_rl,cont_state_rr,vel_cmd_x,vel_cmd_y,vel_cmd_yaw,acc_cmd_x,acc_cmd_y,acc_cmd_yaw,base_pos_x,base_pos_y,base_pos_z,base_ang_roll,base_ang_pitch,base_ang_yaw,FL_foot_pos_x,FL_foot_pos_y,FL_foot_pos_z,FR_foot_pos_x,FR_foot_pos_y,FR_foot_pos_z,RL_foot_pos_x,RL_foot_pos_y,RL_foot_pos_z,RR_foot_pos_x,RR_foot_pos_y,RR_foot_pos_z,base_vel_x,base_vel_y,base_vel_z,base_vel_roll,base_vel_pitch,base_vel_yaw,x_vel_err,y_vel_err,z_vel_err,roll_vel_err,pitch_vel_err,yaw_vel_err,cmd_err,cont_err,terr_freq,terr_height,failed,gait_id,base,CoT,musculoskeletal,foot_force,MWE,stability,FL_stride_t,FR_stride_t,RL_stride_t,RR_stride_t
0.01,0.0,1,1,1,0,0,1,1,0,0.006283178692509316,0.0,0.005026527078818862,0.6283178692509316,0.0,0.5026527078818862,3.100218278311685e-05,-4.162127184485301e-05,0.3096156233190301,0.0020386424235849347,-0.001401139074016955,0.0002959576330225206,0.18372727574151243,0.13313208323187156,0.022391433720065662,0.18295045480327884,-0.13200680479540597,0.017453637864228766,-0.18304953963330048,0.13204199879147852,0.0173320258912478,-0.1768141608129691,-0.13088160598100007,0.0370346017341924,-0.00047585231048417626,-0.009015539523496478,-0.07532542798723485,0.2641876068001085,-0.1765244132120331,0.021016029459047375,0.006759031002993492,0.009015539523496478,0.07532542798723485,0.2641876068001085,0.1765244132120331,0.01598950238022851,0.03176407290671848,50.0,3,0.3,0,12,0.037539188672890404,230.63191266012797,0.09277485292643653,71.62566880648261,1.0336266372814884,50.0,0,0,0,0
0.02,0.0,1,1,1,0,0,1,1,0,0.014137091596022201,0.0,0.011309492449657768,0.7853912903512885,0.0,0.6282965370838907,-1.3999748557800819e-06,-0.0001882508147745306,0.3088127029439969,0.0037075964988699866,-0.0024677342754815257,0.00035821378410265316,0.18564292895996992,0.13615914517390937,0.026111475725344585,0.18280135745553278,-0.13190183378928436,0.01756872054394376,-0.1831116797725239,0.13203218125528204,0.01734063617318307,-0.16917750297901216,-0.13140868711750212,0.06086624247689448,-0.0034138707248421306,-0.01369403937433703,-0.08506898123489841,0.32306843501330623,-0.11275674074052526,-0.003088995796982101,0.01755096232086433,0.01369403937433703,0.08506898123489841,0.32306843501330623,0.11275674074052526,0.01439848824663987,0.04564348994184123,25.0,3,0.3,0,12,0.03687740670056373,42.44928931750816,0.07277481452641968,63.044164062652314,0.5020608972496342,25.0,0,0,0,0
0.03,0.0,1,1,1,0,0,1,1,0,0.02199086497214841,0.0,0.01759201134109972,0.7853773376126207,0.0,0.628251889144195,-7.419067079810361e-05,-0.00024221943068489859,0.3079755687264132,0.007347744794896194,-0.0035620105972533622,0.00010748126327087427,0.18913396092618842,0.13769235873441757,0.028282667434368997,0.18272088514932133,-0.13185494766572511,0.017723508125961795,-0.18317425988551111,0.13203293470763422,0.017349225471212926,-0.1642120844823679,-0.1324647658137453,0.07664567211436736,-0.012992976445431443,-0.00193020135757473,-0.07450677377616652,0.13763829599973043,-0.07946670624006978,-0.02305034469867457,0.034983841417579854,0.00193020135757473,0.07450677377616652,0.13763829599973043,0.07946670624006978,0.040642356039774286,0.07755639881492887,25.0,3,0.3,0,12,0.07356851240831921,31.933241008086362,0.0666341448410758,82.15585958298055,0.2884465952976488,25.0,0,0,0,0
0.04,0.0,1,1,1,0,0,1,1,0,0.02984442130731541,0.0,0.023873835730056265,0.7853556335166999,0.0,0.6281824388956546,-0.000226656273780974,-0.00026166941031566775,0.3073624703811116,0.005744517602185111,-0.004221590567666134,0.000204609708854237,0.19231888517257936,0.1392644049781313,0.027434957420025163,0.18266199282113632,-0.13181196200297582,0.017843416216759,-0.18323960878362855,0.13202972424025192,0.01735767507754879,-0.16172742978572782,-0.13293428347770944,0.08391893909333152,-0.017544243251424032,0.0001816099208036801,-0.04925429882272266,-0.28450906218563415,-0.05741165198962167,0.03165117919338538,0.04738866455873944,0.0001816099208036801,0.04925429882272266,0.28450906218563415,0.05741165198962167,0.007777343463329114,0.05534761794287224,25.0,3,0.3,0,12,0.05519396183226956,39.911018533666706,0.06216845648479312,86.33606323312469,0.1149154207362567,25.0,0,0,0,0
0.05,0.0,1,1,1,0,0,1,1,0,0.03769768309009279,0.0,0.030154717620856746,0.7853261782777381,0.0,0.628088189080048,-0.000392940792426948,-0.00020293531320750047,0.30693465376376905,0.0026290418905905335,-0.005210358605059362,0.0006485243886503793,0.1934337892114814,0.1401603400719674,0.0261204190842117,0.182625230897561,-0.13176868714630496,0.017938089010051228,-0.18330672650528604,0.1320284253230072,0.01736609466705638,-0.16180003135454568,-0.13396695273218232,0.08413886468907653,-0.014848659122469113,0.01032590745235373,-0.04085126186828068,-0.25756489182736986,-0.13850763108299405,0.06356709862700088,0.0525463422125619,0.01032590745235373,0.04085126186828068,0.25756489182736986,0.13850763108299405,0.03341238100614414,0.09628463067105977,25.0,3,0.3,0,12,0.07815165786320402,42.015331188853466,0.06319768530126915,100.06934463756743,0.029460057319204803,25.0,0,0,0,0
0.06,0.0,1,1,1,0,0,1,1,0,0.04555057281195724,0.0,0.036434409055038704,0.7852889721864452,0.0,0.6279691434181958,-0.0005246398690184162,-6.33659182530593e-05,0.3065212774800676,0.0001594008870747887,-0.006841552684836216,0.001234918360754359,0.19255799085898864,0.1404619859194548,0.02623039210056749,0.18259632838625792,-0.13172041086675615,0.01803243794447454,-0.18337713875365644,0.1320318245779056,0.017374572138285332,-0.16338832939960152,-0.13593579248079854,0.0805654610674939,-0.012203305474763568,0.018548932189255327,-0.04094795731042832,-0.19807971909986724,-0.17673852042558494,0.040683779605158496,0.05775387828672081,0.018548932189255327,0.04094795731042832,0.19807971909986724,0.17673852042558494,0.004249370550119792,0.08055218102609593,25.0,3,0.3,0,12,0.09292108529312648,49.047099576393855,0.07115516137155514,85.54997537762533,0.07567375200952553,25.0,0,0,0,0
0.07,0.0,1,0,1,0,0,1,1,0,0.05340301296805755,0.0,0.04271266212113687,0.7852440156100309,0.0,0.6278253066098166,-0.0006623320983457841,0.00012355758844343653,0.30621514727705423,-0.004179028359786067,-0.00823491865579018,0.0017877789929884047,0.18893839995658582,0.13943626271938456,0.025183496054590138,0.18256302689675602,-0.131659232627481,0.018174742516007203,-0.18344568718309914,0.132036383027185,0.017383027558902364,-0.16462024835005598,-0.1378179604593299,0.07153145636860048,-0.017797002502775234,0.02006736614578837,-0.02118306909663646,-0.7428436211641871,-0.12191495693823787,0.0702629748978512,0.07120001547083278,0.02006736614578837,0.02118306909663646,0.7428436211641871,0.12191495693823787,0.027550312776714332,0.11881769439333548,45.0,3,0.3,0,12,0.10155873986435102,60.8839541239872,0.06351010978316016,90.14785991744778,0.20605345655963847,45.0,0,0,0,0
0.08,0.0,1,0,1,0,0,1,1,0,0.06125492605797953,0.0,0.048989228964470284,0.7851913089921981,0.0,0.6276566843333414,-0.0008268507916902284,0.00031683410090942957,0.30579764673328375,-0.011641384198543249,-0.009084579050461894,0.0024704287212534864,0.1838373411028929,0.13685505473789636,0.022006432604568915,0.18200167205124781,-0.13066523900773316,0.01959555944326996,-0.18352994537673042,0.13203871304248826,0.017391811101361593,-0.16447414399411048,-0.14044797044008442,0.05664509336255322,-0.01000456052645253,0.0149989363578975,-0.07669780666413843,-0.7377878889472532,-0.025459095416271914,0.07321615534834587,0.07125948658443207,0.0149989363578975,0.07669780666413843,0.7377878889472532,0.025459095416271914,0.024226926383875587,0.11048534932620516,50.0,3,0.3,0,12,0.11482007526254397,35.23587203431926,0.03575193595391586,42.56227681010347,0.3020100076054608,50.0,0,0,0,0
0.09,0.0,1,0,1,0,0,0,1,0,0.06910623458651093,0.0,0.055263861796927174,0.7851308528531393,0.0,0.627463283245689,-0.0008107620379019503,0.00041648315293553944,0.3046007898826982,-0.017317807111504095,-0.008770457825270084,0.0033092233649669152,0.17731394129126687,0.13458310235770268,0.019064766945110362,0.18257180815792462,-0.12855128677865366,0.02717574029674072,-0.18364245156271017,0.13203140518043174,0.017401394564693196,-0.1672458758486967,-0.14075437756432557,0.038888293384019,0.01156687881845089,0.010557508315529273,-0.16973595922305865,-0.30309507957761467,0.06271410118517982,0.08660569232266638,0.05753935576806003,0.010557508315529273,0.16973595922305865,0.30309507957761467,0.06271410118517982,0.0313418305257392,0.09943869460932851,30.0,3,0.3,0,12,0.10754646959601806,48.44853345809163,0.0554246012872535,28.297476075048564,0.4935878068471581,30.0,0,0,0,0
0.1,0.0,1,0,1,0,1,0,1,0,0.07695686106440629,0.0,0.06153631290674721,0.7850626477895362,0.0,0.6272451109820033,-0.000560268226579299,0.00045457019246522324,0.3024067360660706,-0.017770366126953662,-0.00845400433540311,0.004023695567472464,0.17425971047436978,0.1349499091865935,0.019081005226763675,0.182139340914015,-0.1276893454242872,0.038828879329039806,-0.1839566391178998,0.1319925631206352,0.017413126315332483,-0.17046100659790905,-0.13819649941525075,0.02220133951782577,0.03522125999666765,0.004755217457955782,-0.2664874722242934,0.2338045693285542,-0.06711565097945019,0.057366011959638245,0.04173560106773864,0.004755217457955782,0.2664874722242934,0.2338045693285542,0.06711565097945019,0.0041703009471089625,0.050661119472803384,10.0,3,0.3,0,12,0.0670526366705039,41.71114550718971,0.057409349492285114,43.4109343971293,0.4867906882109678,10.0,0.09,0.0,0.0,0.0
0.11,0.0,1,0,1,0,1,0,1,1,0.08480672800915168,0.0,0.06780633466830074,0.784986694474539,0.0,0.6270021761553536,-5.9680311768850466e-05,0.00041904225765511854,0.299385418192237,-0.014983145447643774,-0.009665133644374269,0.004343603785866202,0.17309017785281602,0.13554820602735831,0.01909108310107499,0.1830092273274668,-0.12768920126550018,0.05385770146618596,-0.1841885193140427,0.13197523752667453,0.017428048934762297,-0.17221830252198664,-0.13691814224985746,0.016985004531113956,0.0521378877126513,0.001552588977155552,-0.3029586746108569,-0.031410884877508136,-0.015850318714427478,-0.00935057772827758,0.03266884029650038,0.001552588977155552,0.3029586746108569,0.031410884877508136,0.015850318714427478,0.07715691239657832,0.11137834167023425,10.0,3,0.3,0,12,0.07597850746406067,88.9988689765611,0.08700308174119924,138.26288147641367,0.7649042769846379,10.0,0.0,0.0,0.0,0.09999999999999999
0.12,0.0,1,0,1,0,1,0,1,1,0.09265575794572947,0.0,0.0740736795518646,0.7849029936577795,0.0,0.6267344883563855,0.0004478694578133322,0.00047233519086795365,0.2967887460238456,-0.016532474239173926,-0.007870857652904517,0.004460830556969855,0.1729384055676474,0.1355535881437936,0.01910019090552395,0.18408923593800208,-0.12961956979588504,0.06159058816159513,-0.18429066703615163,0.13197585337661874,0.017439379811337696,-0.1723122674474405,-0.13691470172869355,0.01699731720971351,0.05051515490187465,0.011459602389261667,-0.21944978274840954,-0.1969847228556537,0.29993752178874156,0.06484480033855529,0.04214060304385482,0.011459602389261667,0.21944978274840954,0.1969847228556537,0.29993752178874156,0.00922887921330931,0.0628290846464258,25.0,3,0.3,0,12,0.10099481191673607,113.4678621313902,0.12443197410547771,200.95257435168634,0.2315344005043512,25.0,0,0,0,0
0.13,0.0,1,0,1,1,1,0,1,1,0.10050387340738298,0.0,0.08033810013339421,0.784811546165351,0.0,0.6264420581529608,0.0011032134955346687,0.0005498810437057879,0.2948964507336955,-0.017643119641101008,-0.004395108805476111,0.005109461482954818,0.17282455051460943,0.13556451945622286,0.019107703181375224,0.184393412701359,-0.13096854818668918,0.06745838372385612,-0.18431990793955788,0.13197319644775696,0.01744840544234913,-0.17233181942743916,-0.1369154412070016,0.01700765772939461,0.07256863520261198,0.011775386758672048,-0.16097923757874258,-0.03472443962925254,0.4409632995838455,0.057523272545212036,0.027935238204771007,0.011775386758672048,0.16097923757874258,0.03472443962925254,0.4409632995838455,0.022814827588182172,0.06252545255162523,10.0,3,0.3,0,12,0.04946191269361129,136.2349186275127,0.12929909572123274,191.87282060069137,0.11744392616105193,10.0,0,0,0,0
0.14,0.0,1,0,1,1,1,0,1,1,0.10835099693638103,0.0,0.08659934910429141,0.7847123528998051,0.0,0.6261248970897206,0.0019007087906244757,0.0006362321204088988,0.2935701189787035,-0.018931495818116227,0.0008408217640436533,0.005638314065560839,0.17273595346120446,0.13557447194749672,0.019114520848200645,0.1883280555090002,-0.13088233576018043,0.07553471974679704,-0.18428689923931554,0.13197211620039323,0.01745664236754424,-0.17228209679606302,-0.1369155748623867,0.01701717046490206,0.09138485340370732,0.008894173789075654,-0.11062173999209253,-0.2723758639975217,0.5635924862335384,0.06466295978049282,0.016966143532673714,0.008894173789075654,0.11062173999209253,0.2723758639975217,0.5635924862335384,0.0219363893237986,0.04779670664554797,0.0,3,0.3,0,12,0.05515857109781157,133.63925174044712,0.12870746899586366,180.64028177013338,0.124216501097765,0.0,0,0,0,0
0.15,0.0,1,0,1,1,1,0,1,1,0.11619705108478236,0.0,0.09285717928116781,0.7846054148401324,0.0,0.6257830176876394,0.002947864742186808,0.0007196060742183842,0.29267442612182865,-0.021445797503408474,0.006470622978190788,0.006085841672225617,0.17269049273752937,0.13558348887109756,0.019120557221499995,0.1932093781513629,-0.1307855702104914,0.08266878834313629,-0.18420886385669125,0.13197209342556254,0.017465041225525668,-0.17218216086823754,-0.1369150614150475,0.017026936768607392,0.11654444147439183,0.007929732043143118,-0.061693837471610155,-0.2950887706640222,0.552633925698191,0.06625035185254968,0.00034739038960947266,0.007929732043143118,0.061693837471610155,0.2950887706640222,0.552633925698191,0.026606827428618127,0.034883949861370715,0.0,3,0.3,0,12,0.049127754022272076,122.78487903957651,0.11944604043330938,174.68508709437748,0.04325192135275846,0.0,0,0,0,0
0.16,0.0,1,0,1,1,1,0,1,1,0.12404195841520015,0.0,0.09911134361560314,0.7844907330417789,0.0,0.6254164334435333,0.0042386795483680935,0.000779972611254273,0.2922522753296348,-0.023891404988291867,0.011557684495778542,0.00669046586784213,0.17269899976544056,0.13559322643948366,0.019125581257942392,0.1974432810401436,-0.13008115772354217,0.08614228221120772,-0.18409271705339228,0.13196913263864182,0.017473844037557307,-0.17204784486918934,-0.13691778316068673,0.0170372185476019,0.1444076089381011,0.007228148401975906,-0.026200429618852283,-0.07052129447512921,0.45393143600156294,0.0644873135321461,0.020365650522900944,0.007228148401975906,0.026200429618852283,0.07052129447512921,0.45393143600156294,0.03462403008345705,0.0622178290083339,0.0,3,0.3,0,12,0.04214619493072381,107.35651294413799,0.11196552528187136,159.75508452803513,0.023560161029524407,0.0,0,0,0,0
0.17,0.0,1,0,1,1,1,0,1,1,0.13188564150156615,0.0,0.10536159520389834,0.7843683086366001,0.0,0.6250251588295203,0.005801828588083118,0.0008586030280502918,0.2921266182845645,-0.023354045834229644,0.015579659414028946,0.007256243420375282,0.1727625273512724,0.13560514492697992,0.01913019468246288,0.2000351283303585,-0.1291222073124423,0.08654891732930442,-0.18394454871283492,0.1319667095468569,0.017483144650124877,-0.17189806101008945,-0.13692053761879333,0.01704790080985588,0.16534529352023933,0.006020434259377092,0.0077396896766792275,0.17043337385305074,0.368349155040129,0.07983514570045702,0.03345965201867318,0.006020434259377092,0.0077396896766792275,0.17043337385305074,0.368349155040129,0.025526449503441323,0.0650065357814916,0.0,3,0.3,0,12,0.07194692714143465,103.36347379090816,0.10595598295717742,164.45740841293076,0.02378693676031582,0.0,0,0,0,0
0.18,0.0,1,0,1,1,1,1,1,1,0.1397280229298949,0.0,0.11160768729682284,0.7842381428328743,0.0,0.6246092092924496,0.007536312603258553,0.0009321259466740084,0.2922673618814955,-0.02183799662358707,0.018743850418438734,0.007810762387478084,0.17286639442420956,0.1356156850184838,0.01913479557954828,0.20029526148280655,-0.12892773696907056,0.08654397874405222,-0.18377971015935401,0.13196617270448868,0.017492844991189693,-0.17173602288540676,-0.13692159747011742,0.017058925381859852,0.1816467065938176,0.006490097817070704,0.028004000136582483,0.05069175488880146,0.23736950566197396,0.032339200130926025,0.04191868366392271,0.006490097817070704,0.028004000136582483,0.05069175488880146,0.23736950566197396,0.07926848716589682,0.12767726864689022,25.0,3,0.3,0,12,0.09525072283989727,83.15579993812199,0.09668741580604853,161.95759636150478,0.00386135994155401,25.0,0.0,0.09,0.0,0.0
0.19,0.0,1,0,0,1,1,1,1,1,0.1475690252990478,0.0,0.11784937330935583,0.7841002369152916,0.0,0.6241686012532984,0.009419675494869719,0.0010305423246264728,0.2926900374539785,-0.021852197934587408,0.020184052378383832,0.008163302920524305,0.17301182394460232,0.1356277189983161,0.019139586195305258,0.20046334653297376,-0.1289131066079419,0.08658839994649778,-0.18362755184182356,0.1318563151695038,0.01755920367574937,-0.17156274052710063,-0.13692062444890424,0.017070298725981592,0.18666283598934144,0.007330843195155961,0.06474352303820025,-0.1186052830615812,0.04773908721089708,0.06310339282002897,0.039093810690293634,0.007330843195155961,0.06474352303820025,0.1186052830615812,0.04773908721089708,0.054745980489326856,0.10117063437477646,35.0,3,0.3,0,12,0.12494544750169725,87.69210513010815,0.09889647313745589,170.05820423644604,0.028976887342352986,35.0,0,0,0,0
0.2,0.0,1,0,0,1,1,1,0,1,0.15540857122149707,0.0,0.124086406830421,0.7839545922449259,0.0,0.623703352106518,0.011143503845815047,0.0011868505219542593,0.2934847418292292,-0.02300428731079202,0.019482271851408495,0.008910081698357414,0.17317653475078967,0.13564849251499472,0.019144271268645985,0.20065481527560747,-0.12888882525249737,0.08663503846608743,-0.18354119445900835,0.13067746557559107,0.01935766426645205,-0.17140034678713725,-0.13691834364043928,0.01708134900247288,0.15171970573437663,0.019220139949209517,0.10252168500886341,-0.08597523045417688,-0.142408026862334,0.066126776153165,0.0036888654871204407,0.019220139949209517,0.10252168500886341,0.08597523045417688,0.142408026862334,0.057959630677256,0.08086863611358595,40.0,3,0.3,0,12,0.07832506984650738,80.55674858065206,0.08356446967315259,180.51068755597984,0.11359636369379439,40.0,0,0,0,0
0.21,0.0,1,0,0,1,1,1,0,1,0.16324658332408937,0.0,0.1303185416326145,0.7838012102592301,0.0,0.6232134802193492,0.012446132403816023,0.0014402614086838018,0.29468180717205605,-0.025211309890719836,0.017558704904252265,0.009735723616676266,0.1733378822835852,0.13567656719908808,0.019148878993291873,0.2008473004060892,-0.128856330211616,0.0866783997049056,-0.1823726015429948,0.12878059197591146,0.023170919758901565,-0.1712489298776223,-0.13691298619800882,0.01709195260278293,0.10830269801244446,0.023004737256670366,0.13650411094502968,-0.29538290783654036,-0.28730376544405867,0.10516534281992711,0.0549438853116449,0.023004737256670366,0.13650411094502968,0.29538290783654036,0.28730376544405867,0.02515319881268739,0.10310182138100266,25.0,3,0.3,0,12,0.1038094974997181,88.44670249013208,0.08882487580637574,175.06024133568576,0.13644086020297175,25.0,0,0,0,0
0.22,0.0,1,0,0,1,1,1,0,1,0.17108298424880955,0.0,0.1365455316819254,0.7836400924720183,0.0,0.6226990049310904,0.01340678793739554,0.001772402780620744,0.29610682792731485,-0.026859298235623916,0.013884275615865027,0.010886958135737803,0.17350439545440313,0.13571228549450404,0.019154152784314066,0.20104005946096512,-0.1288159687104795,0.08671881200731599,-0.18150691488685014,0.1261495062583109,0.02868152507001534,-0.17112493063848414,-0.13690503422867953,0.01710200311971871,0.07785304321756778,0.030974137877215768,0.15482753194154159,-0.277777322434898,-0.4284163259063112,0.09798122304276595,0.09322994103124177,0.030974137877215768,0.15482753194154159,0.277777322434898,0.4284163259063112,0.03856430863915945,0.162768387547617,25.0,3,0.3,0,12,0.13539802417401406,69.11623880279285,0.06486677610190528,154.38760469526346,0.13839729822670352,25.0,0,0,0,0
0.23,0.0,1,0,0,1,1,1,0,1,0.17891769665354415,0.0,0.1427671311474489,0.7834712404734601,0.0,0.6221599465523503,0.014044254331297273,0.0021494817031061215,0.29772483817515494,-0.029999369080759706,0.008874773487816512,0.012252676711466164,0.17366606120341277,0.13575395927022585,0.019160015667413405,0.20123499696896938,-0.12876955011340716,0.086757839524482,-0.1805774588667789,0.12396290014229407,0.03470988567831665,-0.17101919505123026,-0.13689899803653033,0.017111889738158415,0.04971536842450767,0.0351578620611276,0.16781296457969336,-0.2605405437535027,-0.5858438594078043,0.1545141514778274,0.1292023282290365,0.0351578620611276,0.16781296457969336,0.2605405437535027,0.5858438594078043,0.0117470203303785,0.17610721062054258,25.0,3,0.3,0,12,0.16614646673012085,67.35619594907624,0.061031629248675154,146.0467189403148,0.15435327050712305,25.0,0,0,0,0
0.24,0.0,1,0,0,1,1,1,0,1,0.18675064321284485,0.0,0.1489830944110912,0.7832946559300696,0.0,0.6215963263642293,0.01439222825061141,0.0025870467977663642,0.29946491669681846,-0.03290497566175761,0.002926582598142158,0.014228521555725059,0.17381616964269128,0.13580440863622556,0.019166478558891087,0.20142470627748169,-0.1287147518208921,0.0867924669598101,-0.17890715455118988,0.12205390891445025,0.04240646622013783,-0.17092792466067702,-0.13689603326253572,0.017121735327460447,0.01914845769536817,0.03861103848105388,0.18311622958865278,-0.39166759475993873,-0.6135009855356979,0.19142798665141544,0.1676021855174767,0.03861103848105388,0.18311622958865278,0.39166759475993873,0.6135009855356979,0.042444892240324245,0.2486581162388548,25.0,3,0.3,0,12,0.22653977570198292,69.82538614201275,0.06190791835756939,149.30258707973772,0.16811650347398072,25.0,0,0,0,0
0.25,0.0,1,1,0,1,1,1,0,1,0.19458174661869126,0.0,0.15519317607726604,0.7831103405846418,0.0,0.6210081666174844,0.014484497857543792,0.0030686267899440386,0.3012614481530885,-0.03576972330973399,-0.0032767876011283725,0.016493796595275525,0.17395489618639215,0.13585939465496608,0.019173329269540323,0.20160315660607586,-0.12865594265737237,0.08682263844508452,-0.17688143261637557,0.12065960398569026,0.04995304473463488,-0.1708524617997669,-0.13689346202157698,0.0171314822453284,0.0006899479324412219,0.04257094660533352,0.17990454082853033,-0.2891116348959984,-0.6456405985848211,0.21130563940043415,0.19389179868625003,0.04257094660533352,0.17990454082853033,0.2891116348959984,0.6456405985848211,0.056112463323168105,0.29257520861475167,20.0,3,0.3,0,12,0.2798031080008462,48.510052970521464,0.0490319571596099,121.97831988320259,0.22648264737232077,20.0,0,0,0,0
0.26,0.0,1,1,0,1,1,1,0,1,0.2024109295812544,0.0,0.16139713098258265,0.782918296256313,0.0,0.6203954905316611,0.014452799166484082,0.003520479772949375,0.30298574473776935,-0.03831539040681608,-0.010752690594122427,0.018638455006415224,0.17410638669697098,0.1359093240006703,0.019181087530219243,0.20177991820001098,-0.12860299783334755,0.08685523031218562,-0.172096378732044,0.12023609099192313,0.05398050366630369,-0.17081165571148765,-0.13689000954941416,0.017140862808246254,-0.002115747288931679,0.03943502401147675,0.16436758639577545,-0.1500610674957738,-0.8622112609948395,0.15576532216305797,0.20452667687018608,0.03943502401147675,0.16436758639577545,0.1500610674957738,0.8622112609948395,0.005631808819524686,0.24959350970118752,0.0,3,0.3,0,12,0.2634707754389839,56.440968008859514,0.05379428728482003,92.55625561028697,0.21405361875766532,0.0,0,0,0,0
0.27,0.0,1,1,0,1,1,1,0,1,0.21023811482965918,0.0,0.16759471420552421,0.7827185248404783,0.0,0.6197583222941561,0.014385378137095828,0.0039866198654390445,0.30446366363448324,-0.039857661938747777,-0.02063767583339926,0.020517875071618636,0.174272010324285,0.13595848677230638,0.019189967419923543,0.20195939638898058,-0.12855108187613026,0.08688975114192599,-0.16523067045356288,0.12048208708043481,0.057081379321050674,-0.17082160724972828,-0.13688425226189138,0.0171502333161358,-0.0063557162095363145,0.04091313434875288,0.1355375957728446,-0.12198739377369748,-1.139812416385089,0.16458714843911598,0.2165938310391955,0.04091313434875288,0.1355375957728446,0.12198739377369748,1.139812416385089,0.0030075657664082323,0.26051453115435663,0.0,3,0.3,0,12,0.2672841315430611,44.63560304851889,0.04412251040581045,90.27697018774118,0.09886480804979153,0.0,0,0,0,0
0.28,0.0,1,1,0,1,1,1,0,1,0.21806322511274712,0.0,0.17378568107611705,0.7825110283087938,0.0,0.619096687059284,0.014228601063484376,0.004460330168772515,0.30567736900198966,-0.03986256941605437,-0.03294269071488176,0.022653034036655934,0.17444454121056882,0.13600904770610206,0.01920009485821475,0.2021337311180987,-0.12849866260871684,0.08692336022421707,-0.15621512924865155,0.12149722137399868,0.06087305698137577,-0.17088152359606404,-0.13687961688977632,0.01716047176225957,-0.015284836304022593,0.04488814511171364,0.10886806586069747,0.06541016033009399,-1.3223517733785397,0.1492217630530112,0.2333480614167697,0.04488814511171364,0.10886806586069747,0.06541016033009399,1.3223517733785397,0.02456391802310584,0.3028001245515892,0.0,3,0.3,0,12,0.2799603980695766,42.93368852569184,0.04913231811324163,93.21863283951855,0.06905692671812846,0.0,0,0,0,0
0.29,0.0,1,1,0,1,1,1,0,1,0.2258861831998389,0.0,0.17996978718558976,0.7822958087091797,0.0,0.6184106109472703,0.014003288707889125,0.004938305321317354,0.30656153797166563,-0.040131988311062246,-0.04696854364143621,0.024720170636098084,0.17460811740368126,0.13605915639321875,0.01921000994580707,0.20230026170450352,-0.12844661532478438,0.08695559330475805,-0.14778827670895214,0.1235776459676966,0.06230877139964486,-0.17098072532550648,-0.13687524785064878,0.017172164948206642,-0.020862768732540945,0.045767836612819635,0.07123028023064754,-0.06052565957282897,-1.4658814771316038,0.15802473768827702,0.24674895193237986,0.045767836612819635,0.07123028023064754,0.06052565957282897,1.4658814771316038,0.02194504949731274,0.3144618380425122,0.0,3,0.3,0,12,0.31217616486140937,28.84246226561637,0.042538492152431315,75.09455666743948,0.08301606660296179,0.0,0,0,0,0
0.3,0.0,1,1,0,1,1,1,0,1,0.23370691188149645,0.0,0.186146788396022,0.7820728681657535,0.0,0.6177001210432242,0.013714013206712913,0.005443824829467763,0.30704739395742797,-0.040655613146547635,-0.0617096732317981,0.026787589759976835,0.17475002657064595,0.13611085466890346,0.019218760878191715,0.20242243608004998,-0.12836238749076645,0.08696342392304363,-0.1390106467632617,0.12615067778488379,0.060461169186045896,-0.17111107408071483,-0.13686701086289058,0.01718525368345239,-0.02819466427900093,0.05418372148068202,0.03465409520465827,0.011317776519895306,-1.5097162109035573,0.1366069077472335,0.26190157616049736,0.05418372148068202,0.03465409520465827,0.011317776519895306,1.5097162109035573,0.049539880648788504,0.3656251782899679,0.0,3,0.3,0,12,0.34559288173663927,29.96135580727421,0.049707879436461086,75.63893769298488,0.018042381945072794,0.0,0,0,0,0
0.31,0.0,1,1,0,1,1,1,0,1,0.241525333970285,0.0,0.19231644084998276,0.7818422088788551,0.0,0.6169652453960756,0.013396962453805788,0.006048177614642461,0.3072563536972217,-0.041615806355992074,-0.07726899089913175,0.02875185932087145,0.1748333025508543,0.13610500529323122,0.019227023876409538,0.20256273206708514,-0.12830122184385534,0.0869849792063599,-0.13163349171666505,0.12921899360981826,0.05320094911943854,-0.17126026261869873,-0.13684938117131004,0.01719961923428004,-0.027494778723120544,0.06963959462988042,0.01372931609397774,0.02109754123432638,-1.609370502001433,0.12481049912944052,0.26902011269340553,0.06963959462988042,0.01372931609397774,0.02109754123432638,1.609370502001433,0.06750594172054224,0.40616564904382824,0.0,3,0.3,0,12,0.38789070851941326,37.85982586127876,0.047888827077924384,91.34535467983764,0.08792057108379847,0.0,0,0,0,0
0.32,0.0,0,1,0,1,0,1,0,1,0.249341372301535,0.0,0.1984785009801572,0.7816038331249997,0.0,0.6162060130174452,0.013195653621011034,0.006885845989119909,0.30718357239354016,-0.0404233272548044,-0.09406071291061924,0.03050256481240954,0.17267730987006236,0.13282341937748368,0.020363594969869142,0.20270675958601497,-0.12822659531054334,0.08700200856189082,-0.12773025452054285,0.13212950352832178,0.03939969509894033,-0.17142617071975239,-0.13680728583854432,0.017216015826723052,-0.0030860340201764366,0.10104649169492996,-0.014812751291836084,0.08062620159792988,-1.796758254590862,0.07293281895697062,0.25242740632171146,0.10104649169492996,0.014812751291836084,0.08062620159792988,1.796758254590862,0.12554568202318658,0.47901958003982803,15.0,3,0.3,0,12,0.44553027144584795,114.77984173321492,0.07730443438280472,94.48892311923515,0.2722837899354871,15.0,0,0,0,0
0.33,0.0,0,1,0,1,0,1,0,1,0.2571549497341036,0.0,0.2046327255189626,0.781357743256858,0.0,0.6154224538805403,0.013100237512302455,0.007928666966604868,0.30670461465931,-0.048976068582150555,-0.11145555307686839,0.031824024041180676,0.16991022092493996,0.12998516842863922,0.025929952511461907,0.20285312909945966,-0.12813637464098804,0.087016039609981,-0.12627972076384292,0.13581632789589243,0.019112669406143784,-0.17234771990077258,-0.1372849556303628,0.01723344927906778,-0.026950131595070446,0.11533226256684818,-0.0664497239261645,-1.3928926763300729,-1.6432461243375636,0.0281353536519943,0.284105081329174,0.11533226256684818,0.0664497239261645,1.3928926763300729,1.6432461243375636,0.17649737186696832,0.5759347157629905,0.0,3,0.3,0,12,0.5264318455292744,100.88012439119385,0.08389807217161921,84.83590711726254,0.36335476901347585,0.0,0,0,0,0
0.34,0.0,0,1,0,1,0,1,1,1,0.2649659891511359,0.0,0.21077887150815186,0.7811039417032317,0.0,0.614614598918925,0.012851597375732996,0.00909424315279518,0.30603981565252647,-0.06227926814201301,-0.1259115572600975,0.033263442070369756,0.1669018335595611,0.1294606894046888,0.034860906946447945,0.20306252274309225,-0.12804715548723514,0.08704455755966847,-0.1260304766353477,0.13622347782623115,0.017111844644584442,-0.17483973056076563,-0.1383562575597041,0.017253611313843675,-0.02136364598668656,0.11582602559855806,-0.010307825523855516,-0.8552314796626361,-1.0656951558459915,0.1599835581213177,0.28632963513782245,0.11582602559855806,0.010307825523855516,0.8552314796626361,1.0656951558459915,0.05079531338683416,0.4529509741232147,20.0,3,0.3,0,12,0.5434781420530402,202.4447642532454,0.10585097213098696,265.2674698928657,0.9173130050089601,20.0,0.0,0.0,0.13999999999999999,0.0
0.35000000000000003,0.0,0,1,0,1,0,0,1,1,0.2727744134608264,0.0,0.21691669630840524,0.7808424309690531,0.0,0.6137824800253378,0.012814686375118615,0.010102892834177661,0.3063866566369817,-0.06501474859210292,-0.13302662603675297,0.03617961002297254,0.16006862514959022,0.1311176625450653,0.04160881361115351,0.2039869857228862,-0.12744280091696955,0.08710591476891735,-0.12609723429905184,0.13625905927753607,0.01712134319195216,-0.1757322157929602,-0.13847621155993797,0.017265068749697993,0.036818846925402986,0.08571895114984544,0.08036327041194441,0.26279909138149127,-0.5424353332215385,0.2675703675378467,0.23595556653542343,0.08571895114984544,0.08036327041194441,0.26279909138149127,0.5424353332215385,0.05065367122944145,0.3723281889147103,30.0,3,0.3,0,12,0.3951118260777386,475.9076031421995,0.15296340553285087,251.69578719113093,0.17604179874321918,30.0,0,0,0,0
0.36,0.0,0,1,0,1,0,1,1,1,0.2805801455971796,0.0,0.2230459576089092,0.7805732136353161,0.0,0.6129261300503952,0.013320048594957603,0.01097502053073718,0.30713654941753693,-0.06338010507258597,-0.13836020042761765,0.03928720498082467,0.15855816179475649,0.13471726755498334,0.053263543954187836,0.2027506605175786,-0.1259945269366607,0.08628064162109061,-0.12609226482949554,0.13628637805349442,0.017129921963195682,-0.17569853615109982,-0.13845778644858286,0.01727459246697763,0.07567037589398885,0.07222687049699639,0.07917519573169186,-0.06351405972371393,-0.4296631102221598,0.2869619866361158,0.20490976970319075,0.07222687049699639,0.07917519573169186,0.06351405972371393,0.4296631102221598,0.06391602902720658,0.34105266922739375,40.0,3,0.3,0,12,0.34405601817417086,267.54487206420157,0.13897494186240325,158.14561235525542,0.15090842304848334,40.0,0.0,0.01,0.0,0.0
0.37,0.0,0,1,0,1,0,1,1,1,0.2883831085207705,0.0,0.22916641343692262,0.7802962923590895,0.0,0.6120455828013432,0.01392249285043945,0.011724695149646155,0.30812009472926144,-0.06728524569844616,-0.14062987653096903,0.04209352674726752,0.16124500497483715,0.14007664707336678,0.0658198222854782,0.20280905248220268,-0.12580356092438025,0.08622618927864747,-0.12604161445419035,0.1363106683676352,0.017138950145973497,-0.17557135291312836,-0.13844204409823777,0.017284562232697115,0.0822201575523681,0.06385210117163363,0.10058200229166812,-0.3752590152655376,-0.16499447177251023,0.22614062244066654,0.20616295096840237,0.06385210117163363,0.10058200229166812,0.3752590152655376,0.16499447177251023,0.003025790996256078,0.27304084313629207,25.0,3,0.3,0,12,0.3050214220438152,143.93096460315644,0.10278550735434352,149.49710194677283,0.16149767096493345,25.0,0,0,0,0
0.38,0.0,0,1,1,1,0,1,1,1,0.29618322521950524,0.0,0.23527782216732931,0.780011669873476,0.0,0.6111408730406692,0.014608226009638969,0.012407294693607431,0.3092896422348954,-0.07128999892869028,-0.14139086767782283,0.04458276940424296,0.16615485745486502,0.1439445197479134,0.07796391991810633,0.20231626650387588,-0.1250507742043907,0.0858124608198946,-0.12595242545272453,0.13633030627520287,0.01714831611494458,-0.17541472989245707,-0.13843191405502045,0.01729499928848005,0.09076479207370865,0.045919684225134254,0.12216649526430903,-0.5266446058438486,0.041878789550694275,0.29570747857469304,0.2054184331457966,0.045919684225134254,0.12216649526430903,0.5266446058438486,0.041878789550694275,0.060429656407363724,0.31176777377829457,10.0,3,0.3,0,12,0.2836244143306619,126.47786853862435,0.09849375009873265,139.11857711540526,0.19049174017310455,10.0,0,0,0,0
0.39,0.0,0,1,1,1,0,1,1,1,0.3039804187093811,0.0,0.24137994253217698,0.7797193489875842,0.0,0.6102120364847669,0.015406734855735679,0.012939600546607899,0.3106610829038311,-0.0741524841789805,-0.14012662757546224,0.047642306878366465,0.1724698431250693,0.14681084075246847,0.08847749219078441,0.19910722043536772,-0.1224008726498152,0.08398698575961444,-0.12581291821907248,0.1363401486006875,0.0171584151407545,-0.17522709480528822,-0.1384359282602157,0.01730594945746783,0.11292947467613441,0.03749015760757498,0.13011739351686077,0.10731749065028712,0.13658778201873933,0.2967241702091911,0.19105094403324668,0.03749015760757498,0.13011739351686077,0.10731749065028712,0.13658778201873933,0.055344227677014135,0.28388532931783583,0.0,3,0.3,0,12,0.30996381929618994,147.65905666855923,0.10481725114025767,126.42937501461397,0.1743395369954019,0.0,0,0,0,0
0.4,0.0,0,1,1,1,0,1,1,1,0.3117746120352462,0.0,0.2474725336302022,0.7794193325865117,0.0,0.6092591098025207,0.016446998837842407,0.01341058793358961,0.3120355863388162,-0.07279902311594082,-0.1381921351491402,0.05050921530658914,0.17848848980746984,0.1502813120026095,0.09634059047216254,0.1944372197635681,-0.11930093578661344,0.08163631196934254,-0.1256428467044941,0.1363475204505834,0.017168796749638462,-0.17502748278538513,-0.13844390365361173,0.017316698643803335,0.13587418814723912,0.026946665254404215,0.11866522446205632,0.21803027201393518,0.18866634725600726,0.3108531737254017,0.17590042388800708,0.026946665254404215,0.11866522446205632,0.21803027201393518,0.18866634725600726,0.06338064009519953,0.26622772923761084,0.0,3,0.3,0,12,0.26768632398879444,123.03757779709485,0.09192831662645065,112.41774748534317,0.18522855874050947,0.0,0,0,0,0
0.41000000000000003,0.0,0,1,1,1,0,1,1,1,0.31956572827155894,0.0,0.2535553549363405,0.7791116236312734,0.0,0.6082821306138325,0.017769890556483967,0.013795531163295528,0.3133250195089516,-0.06870906043727008,-0.13621228855499434,0.05338649584565862,0.18364236548486237,0.15360707086184475,0.10050650428652433,0.18858786593756205,-0.11564737973474,0.0792287473933588,-0.1254510673255184,0.1363508951172138,0.017179250221561707,-0.17482239472013308,-0.13845683976731427,0.017327245235279287,0.1641938730184103,0.02131914381379591,0.10270740227324535,0.6205864704051997,0.19217357043115424,0.2827376177909682,0.15537185525314864,0.02131914381379591,0.10270740227324535,0.6205864704051997,0.19217357043115424,0.02918226285462766,0.2058732619215722,0.0,3,0.3,0,12,0.23071324695877693,131.86258221873294,0.09212685406217805,105.99715049449671,0.14172383321775228,0.0,0,0,0,0
0.42,0.0,0,1,1,1,0,1,1,1,0.32735369052314756,0.0,0.2596281663112222,0.778796225158862,0.0,0.6072811374881693,0.019370983079959637,0.01411205265246973,0.3144740293803119,-0.06375412064654683,-0.13405115501142184,0.05613587170275789,0.18858963634502612,0.1569081952310985,0.10116107563976239,0.1829391003557937,-0.1119817744823614,0.07729863160194081,-0.12525017873409355,0.13634915399100653,0.01718984387579442,-0.17460993598393568,-0.1384714229327472,0.01733818444260221,0.18680384694660007,0.012230826493322192,0.08832873839474668,0.5189340842431612,0.19927748511937,0.2912227952294758,0.14054984357654748,0.012230826493322192,0.08832873839474668,0.5189340842431612,0.19927748511937,0.0315946289182536,0.18437529898812327,5.0,3,0.3,0,12,0.19191813987585943,113.74820273282914,0.08983163060719138,104.74889749108343,0.1024042076892242,5.0,0,0,0,0
0.43,0.0,0,1,1,1,0,1,1,1,0.33513842192596877,0.0,0.2656907280106526,0.778473140282121,0.0,0.6062561699430369,0.02121204333169243,0.014375502660213344,0.31554751974499134,-0.05921169346843901,-0.1317693040258585,0.05891935112763394,0.1928895237333838,0.15923442993186174,0.09651156100271724,0.17887360184115464,-0.10934601761095884,0.07590912301494815,-0.12504110734593393,0.13634426219410542,0.017200692243741877,-0.17438082200385202,-0.13849141061821152,0.0173497299701538,0.20817671684307545,0.010188870536844934,0.07477224660779255,0.39289441932213115,0.21840172676303568,0.2866134167799744,0.1269617050828933,0.010188870536844934,0.07477224660779255,0.39289441932213115,0.21840172676303568,0.020922688769321796,0.15807326438906005,0.0,3,0.3,0,12,0.1680598179396262,94.93480517174919,0.07767073284653252,106.61120800590022,0.07626453966675928,0.0,0,0,0,0
0.44,0.0,0,1,1,0,0,1,1,1,0.3429198456478665,0.0,0.2717428006950765,0.7781423721897718,0.0,0.6052072684423926,0.023253115692095663,0.014613963933384811,0.31648318563333067,-0.058576501484302546,-0.12920784639555238,0.06173091267274956,0.1977652446263678,0.16048809982679027,0.08959974244266321,0.17788415758457402,-0.1084596040503536,0.07550190241919585,-0.12484145094380078,0.13633444632489444,0.017211814280035098,-0.17439506595924043,-0.1382147733527384,0.01747850006253643,0.2226585677499917,0.002821110302092497,0.06378001337933951,-0.10458200337696845,0.21587496121503175,0.30905974727486873,0.12026127789787477,0.002821110302092497,0.06378001337933951,0.10458200337696845,0.21587496121503175,0.03731694657979223,0.16039933477975948,10.0,3,0.3,0,12,0.1558053288312188,87.02729857724975,0.07015987109688684,111.00725013221208,0.07868142780563836,10.0,0,0,0,0
0.45,0.0,0,1,1,0,0,1,1,0,0.3506978848893299,0.0,0.2777841454390272,0.7778039241463419,0.0,0.6041344743950683,0.025447042666488055,0.01479403045992363,0.3174210104705562,-0.0599034641123832,-0.12830592753326386,0.06493524607990588,0.20372244676558438,0.16149542030925168,0.08001767146533775,0.17810583482308834,-0.10842058453696542,0.07553322104077079,-0.12465841244026638,0.13631567219509105,0.017222760704175027,-0.1764592058287477,-0.1360808588754077,0.018572441087497893,0.23662983060818238,-9.421596149500333e-07,0.06797576722641309,-0.0018692518139698522,-0.04719409538025997,0.3243058716327654,0.11406805428114752,9.421596149500333e-07,0.06797576722641309,0.0018692518139698522,0.04719409538025997,0.04652172619373823,0.1605907226345007,15.0,3,0.3,0,12,0.16503679451202274,128.25009080514107,0.08038428262345515,131.25494672154088,0.04153263742707847,15.0,0,0,0,0
0.46,0.0,0,1,1,0,0,1,1,0,0.35847246288425194,0.0,0.28381452374055854,0.7774577994922038,0.0,0.6030378301531358,0.027723885624328443,0.014997627953003334,0.3184453103027118,-0.05964201333805941,-0.1289909942278349,0.06815676399076115,0.21125354256699405,0.1619872157045482,0.07258172414807898,0.1783422338130936,-0.10838063487093229,0.07556732187112661,-0.1244747914601606,0.13629836553058375,0.017233567850036824,-0.17997869660758647,-0.13378335008253317,0.02013945460219385,0.24177160372858347,-0.0001665154613798214,0.0763556694022528,-0.0025097137028831443,-0.09568461910428938,0.31301220074804853,0.11670085915566847,0.0001665154613798214,0.0763556694022528,0.0025097137028831443,0.09568461910428938,0.029197677007489986,0.14606505162453826,0.0,3,0.3,0,12,0.14825801911536235,122.9681610723795,0.08679324317601803,145.22029837546359,0.1103636922950153,0.0,0,0,0,0
0.47000000000000003,0.0,0,1,1,0,0,1,1,0,0.3662435029006865,0.0,0.28983369753066096,0.7771040016434583,0.0,0.6019173790102417,0.030017316064640462,0.015183977273098075,0.31952235022412395,-0.06036338705904527,-0.12979441709642825,0.07136963329671255,0.21928781700025216,0.1628358405947262,0.06689884105065844,0.1785818948779874,-0.10834239175255496,0.07560257920100577,-0.12428954023901512,0.1362795946647316,0.017244474965446177,-0.18097500330918748,-0.13107036300058406,0.02466567165034958,0.24236684872489925,-0.00308567351136098,0.0766744690486465,0.07346598194790316,-0.10269448536228987,0.3057467258449197,0.12387665417578728,0.00308567351136098,0.0766744690486465,0.07346598194790316,0.10269448536228987,0.015913028314258726,0.142875356001407,0.0,3,0.3,0,12,0.14839261664790843,107.31033041422752,0.07808197862468103,137.11313789391338,0.10641179718056504,0.0,0,0,0,0
0.48,0.0,0,1,1,0,0,1,1,0,0.3740109282416059,0.0,0.29584142918265965,0.7767425340919398,0.0,0.6007731651998693,0.03228879638373274,0.015367025859637494,0.320584410067432,-0.05992161289395382,-0.1301235979633144,0.074459637171302,0.22725498276301231,0.1637339580930559,0.06298319134971528,0.17881070185930187,-0.10830545777279618,0.07563616539378226,-0.12409543328063,0.13626362432369185,0.017255357282331532,-0.17785133351989063,-0.1283908866524241,0.032397993724588764,0.23577485599203224,-0.0013818394700874015,0.07555057967306622,0.18825177083736497,0.002674764806653372,0.3052728059849766,0.13823607224957368,0.0013818394700874015,0.07555057967306622,0.18825177083736497,0.002674764806653372,0.009431376802316926,0.14904928852197802,0.0,3,0.3,0,12,0.14488215175147207,94.0466110433471,0.07268692097244504,132.83838869487678,0.12550291834131144,0.0,0,0,0,0
0.49,0.0,0,1,1,0,0,1,1,0,0.3817746622456579,0.0,0.3018374815215959,0.7763734004052003,0.0,0.5996052338936242,0.03447717154567059,0.01557159578773075,0.32164278590184925,-0.058252875146074586,-0.1295266065995373,0.0774738156070886,0.2350067249564374,0.16490486265831347,0.06045955308008538,0.1790270630434473,-0.10826837654746649,0.07566723499354924,-0.1238937123223672,0.13625088367068403,0.017266251961081086,-0.16999925269802885,-0.126274423399102,0.043932846237931894,0.22863541801387202,-0.0011728748347378274,0.07754657312090218,0.08732457616683795,0.08781279624353813,0.3048777333576552,0.1531392442317859,0.0011728748347378274,0.07754657312090218,0.08732457616683795,0.08781279624353813,0.0030402518360593267,0.15735237090258306,0.0,3,0.3,0,12,0.151144158696695,97.46316795755612,0.07637830753894866,136.52163475621484,0.06014890780459936,0.0,0,0,0,0
0.5,0.0,1,1,1,0,0,1,1,0,0.3895346282879222,0.0,0.3078216178335902,0.7759966042264255,0.0,0.5984136311994293,0.036622796949459045,0.015774370163158025,0.3227595798901887,-0.05794641118930029,-0.12810470380376815,0.0805937958855426,0.24179420188882042,0.1657377772212167,0.05923362585284564,0.1792417922006332,-0.10823045267807742,0.07569759597216577,-0.12368249151774768,0.13623850323493514,0.01727748751261178,-0.15966997036638436,-0.12457765116483133,0.0573772283172275,0.22833015585921668,-0.0022924826467671036,0.08936743863114989,0.006218967685370412,0.157623151997915,0.3244410600814996,0.1612044724287055,0.0022924826467671036,0.08936743863114989,0.006218967685370412,0.157623151997915,0.0166194422479094,0.180116397323382,5.0,3,0.3,0,12,0.1737323381358326,93.81751870825369,0.07176481839539267,140.54073216875284,0.11719244496482206,5.0,0,0,0,0
0.51,0.0,1,1,1,0,0,1,1,0,0.3972907497806668,0.0,0.3137936018751874,0.7756121492744628,0.0,0.5971984041597211,0.038814696832217055,0.01607498219717371,0.3239381250313583,-0.055609345133024464,-0.12586955389023546,0.08337306093961812,0.24613143812832994,0.16483252641997606,0.06108912231371508,0.17945469464317731,-0.10818816576463848,0.07572647804667809,-0.12344855437760952,0.1362396275518711,0.01728916366203287,-0.1478249154817164,-0.12521386728841943,0.06738153239974426,0.23871970917389648,0.010312891290862998,0.09404192215621393,0.27808222782624353,0.22103950271774989,0.2781994895212918,0.15857104060677032,0.010312891290862998,0.09404192215621393,0.27808222782624353,0.22103950271774989,0.03559411235389559,0.2044780442515289,25.0,3,0.3,0,12,0.1953170853958444,89.132421126817,0.07401412018110383,127.51594421046752,0.22331304077997072,25.0,0,0,0,0
0.52,0.0,1,1,1,0,0,1,1,0,0.4050429501741038,0.0,0.31975319788268336,0.7752200393436992,0.0,0.595959600749596,0.04108743387821543,0.016424435518279025,0.32523646952582824,-0.05522380519748702,-0.1235006820768505,0.08630640010477644,0.24864610976640097,0.16400958849250222,0.062286723368378594,0.17968570476184964,-0.10814160978017337,0.07575740781881538,-0.12321003368716832,0.13623979372040848,0.017301289358110178,-0.13405579299569614,-0.12511177596459083,0.07599791694713828,0.24830546557159067,0.010752610865151696,0.10717893012354682,-0.04252596523655133,0.2172833425009814,0.31813186547437694,0.15673748460251313,0.010752610865151696,0.10717893012354682,0.04252596523655133,0.2172833425009814,0.0016213324083064196,0.16911142787597125,25.0,3,0.3,0,12,0.17702890630919718,99.40064046294071,0.06304080950260779,133.0847614006,0.06322012427217394,25.0,0,0,0,0
0.53,0.0,1,1,1,0,0,1,1,0,0.4127911529571451,0.0,0.325700170581432,0.774820278304128,0.0,0.5946972698748665,0.043463004550722044,0.016804438869342707,0.3266584212981839,-0.056824170527051424,-0.1217590884595059,0.08925924252608337,0.25036909201714885,0.16444923344993434,0.06220780375133943,0.17994058745415814,-0.10809279667907598,0.07579238449098533,-0.12297157585942445,0.13624084171071038,0.017313595739918752,-0.1201467189116274,-0.1256309873588245,0.0827344494867527,0.26551791739470276,0.009615109893653957,0.12014683849614854,-0.26774842509001084,0.08117647749932691,0.3074659726312694,0.14727323556244232,0.009615109893653957,0.12014683849614854,0.26774842509001084,0.08117647749932691,0.018234197950162623,0.1751225434062589,25.0,3,0.3,0,12,0.18514363640725068,116.66250295209633,0.080576544707454,139.5858168800218,0.14688762383718945,25.0,0,0,0,0
0.54,0.0,1,1,1,0,0,1,1,0,0.4205352816581571,0.0,0.3316342851951342,0.7744128701012043,0.0,0.593411461370219,0.04603147160046409,0.017213789050026147,0.32823001498182935,-0.060360698872724126,-0.12136182923210481,0.0924199735391642,0.25154541454960094,0.16493094934552077,0.06304579457337625,0.18022800993110658,-0.10803994715878479,0.07583312144437754,-0.12273262754675832,0.13624041804973558,0.0173261245347672,-0.10698894575615053,-0.12596984940448985,0.08712837007735177,0.2881669773012597,0.012262199811340743,0.12401213029446548,-0.23402708617909151,-0.05387553522614509,0.29986833222674136,0.13236830435689745,0.012262199811340743,0.12401213029446548,0.23402708617909151,0.05387553522614509,0.03176595296839285,0.17639645713663105,25.0,3,0.3,0,12,0.16346556152583772,123.96655205509646,0.07390831852531608,135.81725566386606,0.09333241895880351,25.0,0,0,0,0
0.55,0.0,1,1,1,0,0,1,1,0,0.42827525984571624,0.0,0.3375553074551057,0.7739978187559116,0.0,0.5921022259971487,0.048818421422014244,0.017669164448109627,0.32979740046423395,-0.06388833754298145,-0.12236622575487455,0.09541898730811933,0.2517310552282278,0.16611844181586105,0.06454270210183208,0.18053900083347824,-0.10798505826167669,0.07587859594645607,-0.12249682250694799,0.1362407353890134,0.017338804750987202,-0.0950096766345293,-0.1266534392233721,0.08878853856410929,0.30749831622933915,0.011072775122956872,0.12232306193406767,-0.3471491766859276,-0.1623536122494628,0.3037529398714961,0.12077694361637709,0.011072775122956872,0.12232306193406767,0.3471491766859276,0.1623536122494628,0.033802367583609605,0.16565208632294356,25.0,3,0.3,0,12,0.18002654849077282,104.49699794278403,0.0703263543753783,126.37775076247223,0.1534183337905629,25.0,0,0,0,0
0.56,0.0,1,1,1,0,0,1,1,0,0.4360110111293624,0.0,0.34346300360952614,0.7735751283646175,0.0,0.5907696154420439,0.05177657202760592,0.0181430213370571,0.3313433805269852,-0.06734629321400204,-0.12427401653638381,0.0986680649476809,0.25173767398518043,0.16815403274399707,0.06619500395295524,0.18086643170079258,-0.10792835266396794,0.07592742467807934,-0.12226148333613548,0.13623809735572784,0.017351645252349057,-0.08401796500218578,-0.12688858561852892,0.08936541228441822,0.324596978759625,0.010537320021930708,0.11244365028243594,-0.17755762557669535,-0.2609162825788875,0.3033824267565456,0.1114140323697374,0.010537320021930708,0.11244365028243594,0.17755762557669535,0.2609162825788875,0.040080576852980554,0.16203192924464865,25.0,3,0.3,0,12,0.15816650181502961,97.50222318835415,0.06767446843842216,120.37073335332384,0.14804379726116113,25.0,0,0,0,0
0.5700000000000001,0.0,1,0,1,0,0,1,1,0,0.44374245916035343,0.0,0.3493571404326669,0.7731448030991017,0.0,0.5894136823140772,0.054911725338271725,0.018616950575863694,0.33282269066202624,-0.06975623585833213,-0.12657806836014251,0.10197919461941958,0.25106032448878096,0.17036195985228883,0.06729963511554307,0.18120242264797465,-0.1078729571903812,0.07597871622632663,-0.1220183669597791,0.1362334506476926,0.01736487054942995,-0.07322081594529917,-0.1260373321272199,0.0863415281819691,0.3396681711928183,0.005172132606976987,0.10147525712117955,-0.27715797966829947,-0.18854357366824617,0.3107191030849099,0.10407428796753515,0.005172132606976987,0.10147525712117955,0.27715797966829947,0.18854357366824617,0.038638037347757004,0.14788445792226915,45.0,3,0.3,0,12,0.14854129519328313,121.3046970023991,0.07076006789713868,103.86972431501374,0.12814609619673223,45.0,0,0,0,0
0.58,0.0,1,0,1,0,0,1,1,0,0.45146952763241865,0.0,0.3552374852340987,0.7727068472065224,0.0,0.5880344801431792,0.05818072393233136,0.019058035334776412,0.33411996114152176,-0.07062769843854153,-0.12763902551839323,0.10507055773082365,0.2500350634925942,0.17261221656629303,0.06732594199297828,0.18169942870652434,-0.10779774134638787,0.07606088272080186,-0.12175797346215331,0.13623190823279913,0.01737847892676267,-0.060122865807632986,-0.124752817864778,0.0775360048513938,0.34506145046077935,0.0019444365027724512,0.06782904170860252,0.22415524425983147,-0.03896097501417088,0.2811254929444149,0.1064080771716393,0.0019444365027724512,0.06782904170860252,0.22415524425983147,0.03896097501417088,0.07411199228968379,0.18246450596409555,50.0,3,0.3,0,12,0.16539743981041086,100.96090271836053,0.05108273135033057,79.46660949201599,0.07876739137135358,50.0,0,0,0,0
0.59,0.0,1,0,1,0,0,0,1,0,0.4591921402825117,0.0,0.3611038058678774,0.7722612650093053,0.0,0.5866320633778677,0.061573140374263306,0.019410545352314536,0.3349296346827148,-0.06770960069347788,-0.12735586690477008,0.10769513834401054,0.24979486032148351,0.17498020869552056,0.0675464479416849,0.1842299200562022,-0.10760648726953423,0.07658106583912544,-0.12149958305080708,0.1362275437555649,0.017392186702774065,-0.046394551591903005,-0.12349691515890565,0.06625817769088774,0.35145547821732304,-0.010452001198204644,0.004741479378525544,0.3997439594831454,0.04771941855298484,0.2564772665498979,0.10773666206518867,0.010452001198204644,0.004741479378525544,0.3997439594831454,0.04771941855298484,0.1046265393179795,0.22281520258137283,35.0,3,0.3,0,12,0.21124846330691968,76.87872393320228,0.048382376276213696,59.84869310124054,0.053441385631427085,35.0,0,0,0,0
0.6,0.0,1,0,1,0,0,0,1,0,0.46691022089156364,0.0,0.3669558707417092,0.7718080609051936,0.0,0.585206487383183,0.06513631660527613,0.019619649280772485,0.3350643716155315,-0.06273367223175537,-0.12654869638437694,0.11027859027203712,0.2508441488187494,0.17762520934615295,0.06828694645727257,0.18892410159434622,-0.10722024442323722,0.07810667876630836,-0.12126153387112382,0.13620984726399227,0.01740587498803814,-0.03346331303573527,-0.12166880541965545,0.055824013328865246,0.36012315687194324,-0.02001532176782273,-0.07161693902027874,0.7671784666070304,0.05962944498756878,0.26337009785953946,0.1067870640196204,0.02001532176782273,0.07161693902027874,0.7671784666070304,0.05962944498756878,0.10358577288216975,0.23038815866961287,25.0,3,0.3,0,12,0.22741117253607485,52.34271630851582,0.043484168598237755,52.52994268772137,0.022527878974605953,25.0,0,0,0,0
0.61,0.0,1,0,1,0,0,0,1,0,0.4746236932852346,0.0,0.3727934488260932,0.7713472393670984,0.0,0.583757808438401,0.06892768403361091,0.019736274224631714,0.3344696753806811,-0.053094447299927613,-0.12613042904115468,0.11298627633601574,0.2515210464664577,0.17954893245667422,0.06960953891531627,0.19650258221887748,-0.1049726047289183,0.08157533097554912,-0.1210452008304988,0.13617874620863027,0.017419817253197634,-0.02520092745162697,-0.12016398900867412,0.04385636456991021,0.37606284063982853,-0.02949915062006419,-0.14566698447567414,1.235740924810096,-0.020267186828060516,0.2721495010851274,0.0985608526454061,0.02949915062006419,0.14566698447567414,1.235740924810096,0.020267186828060516,0.1006439477409658,0.2287039510064361,25.0,3,0.3,0,12,0.22668273412209575,55.99837777744325,0.04408104587517247,47.56621510565383,0.16633309229121074,25.0,0,0,0,0
0.62,0.0,1,0,1,0,0,0,1,1,0.4823324813346662,0.0,0.3786163096634422,0.7708788049431592,0.0,0.5822860837348953,0.07298543522838741,0.019769974012714117,0.3331305375503668,-0.03983748249873805,-0.12643291633723575,0.11575515020070397,0.2507001348213974,0.18142868232133302,0.06995822591926668,0.20803192281199395,-0.1013882532554929,0.08786404155214156,-0.12085115846331301,0.13613468695379327,0.017434940179395092,-0.023619360920294874,-0.1190708941091958,0.0369545710917598,0.38604280559797755,-0.03852176535194817,-0.21225200948091377,1.255819344653355,0.02821185561113151,0.2569182607429626,0.09628967573668867,0.03852176535194817,0.21225200948091377,1.255819344653355,0.02821185561113151,0.12169804892047958,0.25650949000911644,30.0,3,0.3,0,12,0.2349888371579245,52.09660397998166,0.05095113519571505,93.1576469422158,0.44449993137754107,30.0,0.0,0.0,0.0,0.17
0.63,0.0,1,0,1,1,0,0,1,1,0.4900365089572325,0.0,0.38442422337718063,0.7704027622566278,0.0,0.5807913713738455,0.07717406253111996,0.01981068712991195,0.3315666864516864,-0.02906928035818413,-0.12506801172520188,0.11870692614107875,0.2492570554077352,0.18017672651197522,0.0705276832048744,0.222389987436588,-0.0982661648188129,0.09266910217222665,-0.12064099942215456,0.13608794782233247,0.01745052874749803,-0.02352552412129061,-0.11913996574453066,0.03700403528116776,0.40424063688969375,-0.03545835287859452,-0.22198423532246403,1.1111151322279704,0.2565117222320405,0.32786546558283125,0.08579587206753875,0.03545835287859452,0.22198423532246403,1.1111151322279704,0.2565117222320405,0.05655875779434938,0.17781298274048266,35.0,3,0.3,0,12,0.20696188951694688,130.2800079357549,0.10364129891201923,109.44122750300835,0.4013782050453847,35.0,0,0,0,0
0.64,0.0,1,0,1,1,0,0,1,1,0.4977357001172911,0.0,0.3902169606808198,0.7699191160058627,0.0,0.5792737303639162,0.08159692430305364,0.019920128159119938,0.3297351434248612,-0.01975624023286449,-0.12160063700628498,0.12190317885559387,0.2457283134288787,0.17695343590648083,0.07236683496749224,0.24030321026571932,-0.09556963909607792,0.10018934336201929,-0.12041504299476216,0.13604111776896868,0.01746721018186717,-0.02339839678637881,-0.11920760493525714,0.03706128825768373,0.42477250908999353,-0.03777791175512449,-0.24718130958535875,0.7741931821787355,0.4038537453833307,0.3320433147076356,0.07296319102729759,0.03777791175512449,0.24718130958535875,0.7741931821787355,0.4038537453833307,0.058173645973184196,0.16891474875560628,25.0,3,0.3,0,12,0.1770310489938957,109.87489519088474,0.09157467476429794,98.6922840812583,0.4452090591699638,25.0,0,0,0,0
0.65,0.0,1,0,1,1,0,0,1,1,0.5054299788269336,0.0,0.39599429288700977,0.769427870964251,0.0,0.5777332206189978,0.0862053742112395,0.020087670338923943,0.3277718139576878,-0.013578055830788376,-0.11643839662519095,0.1253215532586059,0.24328435600655973,0.17313738616101643,0.0741191088230495,0.25783229463350943,-0.09255663650714784,0.10608612886865762,-0.12016975611847697,0.13599581170112746,0.017484982562411627,-0.02322514839174203,-0.11927130187327939,0.03712890319544797,0.4411128137493777,-0.034142690543198344,-0.2535632306110489,0.5050475447824584,0.6244348721018143,0.353569609814003,0.06431716507755592,0.034142690543198344,0.2535632306110489,0.5050475447824584,0.6244348721018143,0.042424683073006786,0.14088453869376105,25.0,3,0.3,0,12,0.14748260641729988,106.22274459314524,0.0840271050418375,106.84818588333842,0.3566679634203065,25.0,0,0,0,0
0.66,0.0,1,0,1,1,0,0,1,1,0.5131192691467354,0.0,0.4017559919165674,0.7689290319801811,0.0,0.5761699029557643,0.09096087534954594,0.020334016338331564,0.3257510740736873,-0.010816477725911395,-0.10909250633958467,0.1288111597150997,0.24412095950232937,0.1696376498627834,0.07560636944416649,0.27496240792703674,-0.08819467676307348,0.11108326503455962,-0.11990118257711932,0.13595688585825697,0.01750398870239145,-0.02300231762398236,-0.11932585815848754,0.03720806620115456,0.4577819776697281,-0.03083768531922297,-0.25627921462061143,0.14520471280527134,0.8277278141399402,0.3651715239908866,0.05533729147700733,0.03083768531922297,0.25627921462061143,0.14520471280527134,0.8277278141399402,0.03658446792568082,0.12275944472191112,25.0,3,0.3,0,12,0.1347277267389504,112.89782698862618,0.08789803007046956,106.77485042515332,0.3598018063141384,25.0,0,0,0,0
0.67,0.0,1,0,1,1,0,0,1,1,0.5208034951865055,0.0,0.4075018303074806,0.7684226039770037,0.0,0.5745838390913194,0.09589692395847745,0.02067070840259146,0.3236639632024826,-0.009966620459559988,-0.10014354144519988,0.13239308166002575,0.24676537187772274,0.16674374356516813,0.07521433609208389,0.2914775984973881,-0.08392162532444167,0.11347493523295571,-0.11960765424815348,0.1359246195637056,0.017524227011005145,-0.02274159442484433,-0.11937281194777245,0.03729700298553787,0.4808826917304837,-0.026042373217452206,-0.2621615195244834,0.11138080868626565,0.9714011997324128,0.3635429095626707,0.03992080345602178,0.026042373217452206,0.2621615195244834,0.11138080868626565,0.9714011997324128,0.04395892074480989,0.10992209741828388,25.0,3,0.3,0,12,0.11378859205945,106.34827209207678,0.08453720604575098,104.88876066547405,0.44391953111551397,25.0,0,0,0,0
0.68,0.0,1,0,1,1,0,0,1,1,0.5284825811060347,0.0,0.4132315812238882,0.767908591952926,0.0,0.5729750916407594,0.10101552336475045,0.021061317934204713,0.3216088434370356,-0.008757861790578388,-0.08909482488590448,0.13615539704963678,0.2498456330114145,0.1653008098206749,0.07098242474251854,0.3066223754563022,-0.07920399968948379,0.1116331638677936,-0.11926867098030834,0.13589762796789348,0.017545626804773146,-0.02251175078738668,-0.11944766444728089,0.03737508995493047,0.5015419783120416,-0.026739458494369553,-0.24997092788355363,0.343320365162323,1.2403251077332285,0.4041308569350391,0.02694060279399313,0.026739458494369553,0.24997092788355363,0.343320365162323,1.2403251077332285,0.009100724288849116,0.0627807855772118,25.0,3,0.3,0,12,0.08189110539197453,111.08330894692446,0.09185346639687904,115.68123356216181,0.4942376271351341,25.0,0,0,0,0
