time,trans_flag,des_cont_state_fl,des_cont_state_fr,des_cont_state_rl,des_cont_state_rr,cont_state_fl,cont_state_fr,cont_state_rl,cont_state_rr,vel_cmd_x,vel_cmd_y,vel_cmd_yaw,acc_cmd_x,acc_cmd_y,acc_cmd_yaw,base_pos_x,base_pos_y,base_pos_z,base_ang_roll,base_ang_pitch,base_ang_yaw,FL_foot_pos_x,FL_foot_pos_y,FL_foot_pos_z,FR_foot_pos_x,FR_foot_pos_y,FR_foot_pos_z,RL_foot_pos_x,RL_foot_pos_y,RL_foot_pos_z,RR_foot_pos_x,RR_foot_pos_y,RR_foot_pos_z,base_vel_x,base_vel_y,base_vel_z,base_vel_roll,base_vel_pitch,base_vel_yaw,x_vel_err,y_vel_err,z_vel_err,roll_vel_err,pitch_vel_err,yaw_vel_err,cmd_err,cont_err,terr_freq,terr_height,failed,gait_id,base,CoT,musculoskeletal,foot_force,MWE,stability,FL_stride_t,FR_stride_t,RL_stride_t,RR_stride_t
0.01,0.0,0,0,1,1,0,0,1,1,0.006283178692509316,0.0,0.005026527078818862,0.6283178692509316,0.0,0.5026527078818862,0.00029378726457664575,-1.9797232679742556e-05,0.30964197544976385,0.000891802869294246,-0.0008412612383119633,-1.6794538522184388e-05,0.1803090637007277,0.13231742942612473,0.01891648092497511,0.18354120683270306,-0.13095781189412206,0.025660244194171178,-0.18301214707451602,0.1320481531291209,0.017332120250526356,-0.18399201549076885,-0.1320073674305399,0.017333879793674872,0.06681769190817267,-0.004907959920716234,-0.04016743434550881,0.46002362593547247,-0.30915008011615674,0.0017552465937204094,0.06053451321566336,0.004907959920716234,0.04016743434550881,0.46002362593547247,0.30915008011615674,0.003271280485098453,0.06871375362147804,30.0,3,0.3,0,7,0.03937474769301693,222.18050773631452,0.12130687354393747,104.27775940751658,0.4013138813816167,30.0,0,0,0,0
0.02,0.0,0,0,1,1,1,0,1,1,0.014137091596022201,0.0,0.011309492449657768,0.7853912903512885,0.0,0.6282965370838907,0.0013453524445407679,-0.00018880680255325413,0.3104644771976546,0.010546043277864452,-0.008873179842175283,9.13349158817217e-05,0.18063222944218663,0.13230107368601315,0.018931029020672147,0.18268628308857845,-0.1287985246305399,0.03322223509078376,-0.18336563116927174,0.13214337043212615,0.01734180502327473,-0.18398676496153082,-0.13201818386917552,0.017343992864647023,0.15036374666365296,-0.028287200413218888,0.2033695217041271,1.3580983355166218,-1.3846001289365875,0.030488648044645385,0.13622665506763076,0.028287200413218888,0.2033695217041271,1.3580983355166218,1.3846001289365875,0.019179155594987618,0.18369301107583727,25.0,3,0.3,0,7,0.1319556173825065,863.9266401282591,0.2711851441286185,422.19093022848966,0.5085706099987722,25.0,0.01,0.0,0.0,0.0
0.03,0.0,0,0,1,1,1,0,0,1,0.02199086497214841,0.0,0.01759201134109972,0.7853773376126207,0.0,0.628251889144195,0.0030875851608500086,-0.00044519322583935896,0.312429260561349,0.023893266383218936,-0.024747706485092946,-0.00012176366405220714,0.1819766053447021,0.1314828784295335,0.023638995494110804,0.18718597720081168,-0.12637311250226418,0.04622975874753352,-0.18963716023981408,0.1326435175096782,0.017749223645443762,-0.1839815443653242,-0.13201663657380644,0.017356592299801465,0.19850472036882894,-0.01656586795602482,0.14555848289556775,0.7340826884352917,-1.5230196569467631,-0.022104178538479364,0.17651385539668052,0.01656586795602482,0.14555848289556775,0.7340826884352917,1.5230196569467631,0.03969618987957908,0.23277591323228441,30.0,3,0.3,0,7,0.2033205451993653,258.4660527223381,0.12678405460490055,113.70427131297151,0.21401287200166064,30.0,0,0,0,0
0.04,0.0,0,0,1,1,1,0,1,1,0.02984442130731541,0.0,0.023873835730056265,0.7853556335166999,0.0,0.6281824388956546,0.005151750370965441,-0.0006409649492687631,0.3131867471319659,0.022565854134496542,-0.037219433073282016,-0.0008067727484346259,0.1880951736846248,0.1319398223242316,0.05063997049532967,0.19477341257237393,-0.12648871194299277,0.06385416179214688,-0.19562707077412272,0.13161402098536681,0.017831187720157377,-0.1839538514163576,-0.132015152515305,0.01736893962989247,0.21300091481571318,-0.019423102764815327,0.02096707998758474,-0.5134037847569519,-1.0241721086425877,-0.028267983809276115,0.18315649350839777,0.019423102764815327,0.02096707998758474,0.5134037847569519,1.0241721086425877,0.052141819539332376,0.2547214158125455,20.0,3,0.3,0,7,0.2612840720183415,184.81050459475213,0.09645019515814504,42.47645291966772,0.9005201664537426,20.0,0.0,0.0,0.01,0.0
0.05,0.0,0,0,1,1,0,0,1,1,0.03769768309009279,0.0,0.030154717620856746,0.7853261782777381,0.0,0.628088189080048,0.007280291532055909,-0.0008251287373845593,0.31318834567120846,0.018851702135515274,-0.04679912855315127,-0.0010010914682247367,0.19413987834586505,0.13460944255713528,0.07823750539505372,0.199179974893745,-0.12919180137813707,0.07607353822542393,-0.19591085518032123,0.13134063676731098,0.017845561583996222,-0.1839093831462395,-0.13202684128074366,0.017382120763570097,0.21546153018380151,-0.017630423093851526,-0.04138809782639633,-0.4262241188129331,-0.8834214122870685,0.006303282033557029,0.17776384709370874,0.017630423093851526,0.04138809782639633,0.4262241188129331,0.8834214122870685,0.023851435587299716,0.21924570577485997,5.0,3,0.3,0,7,0.22024921572309583,35.14348236336174,0.06365065183206876,50.25392850136443,0.5384607940230974,5.0,0,0,0,0
0.06,0.0,0,0,1,1,0,0,1,1,0.04555057281195724,0.0,0.036434409055038704,0.7852889721864452,0.0,0.6279691434181958,0.009503927473308603,-0.000982363426383832,0.31259638957036856,0.015398347826148538,-0.05500479139185366,-0.001154854993078443,0.19939236601283833,0.13786272165642582,0.10202404844674476,0.20243014824158542,-0.13144236492991462,0.08794407775466592,-0.1958876190021983,0.13131928950140276,0.017859108574034166,-0.18387733425779954,-0.1320368808280508,0.01739647431364927,0.2234049202336704,-0.016301209691248004,-0.09748121827556257,-0.24066140459556562,-0.7947910254123352,0.006039497801941126,0.17785434742171316,0.016301209691248004,0.09748121827556257,0.24066140459556562,0.7947910254123352,0.030394911253097578,0.22455046836605874,0.0,3,0.3,0,7,0.22930826182365455,28.87230369981455,0.062472041181078034,55.61148534052829,0.3793684671297284,0.0,0,0,0,0
0.07,0.0,0,0,1,1,0,0,1,1,0.05340301296805755,0.0,0.04271266212113687,0.7852440156100309,0.0,0.6278253066098166,0.011787472135630422,-0.0011311850258780628,0.3116076008972957,0.013448605920667203,-0.06273399789647494,-0.001131238944648531,0.20337664903844596,0.1405703738496183,0.11665614900693844,0.20573636735457246,-0.13282898981755573,0.09622349037173178,-0.19586016344925058,0.13130815362971685,0.017873103751295832,-0.183855821189175,-0.1320485380283554,0.01741204156616688,0.21835207469886497,-0.014906893852344555,-0.12344579854959586,-0.10139045746711482,-0.7218286140198443,0.010890866796477858,0.16494906173080742,0.014906893852344555,0.12344579854959586,0.10139045746711482,0.7218286140198443,0.03182179532465901,0.211677750907811,0.0,3,0.3,0,7,0.21374941406545403,14.773877182160623,0.0695129866105208,53.720523019659325,0.477488197651326,0.0,0,0,0,0
0.08,0.0,0,0,1,1,0,0,1,1,0.06125492605797953,0.0,0.048989228964470284,0.7851913089921981,0.0,0.6276566843333414,0.014006914570597303,-0.0012675821121554914,0.3104133010387801,0.0129384797641434,-0.06906596045197988,-0.001029493249931346,0.20640642649773544,0.14255547036955324,0.12086533438441056,0.20981518746878466,-0.1335714647589334,0.09949364402434106,-0.19582600297149058,0.1312959442783015,0.01788615815915459,-0.1838317374897789,-0.13206114961973087,0.01742716707935854,0.21055460146578947,-0.01606927503232662,-0.1440403639047482,-0.0509605880796061,-0.5326237817015211,0.031994796286115595,0.14929967540780995,0.01606927503232662,0.1440403639047482,0.0509605880796061,0.5326237817015211,0.01699443267835469,0.18236338311849123,0.0,3,0.3,0,7,0.19582640548955005,10.677555863875957,0.06523232376204625,59.455506271447895,0.1262614962837476,0.0,0,0,0,0
0.09,0.0,0,0,1,1,0,0,1,1,0.06910623458651093,0.0,0.055263861796927174,0.7851308528531393,0.0,0.627463283245689,0.01619813397985718,-0.0014074650456895417,0.30905589558873203,0.013027297449335187,-0.07290051024925992,-0.000665771511174526,0.2095229975470002,0.14340692691719487,0.11865278823180789,0.2137772629612775,-0.1333912490347036,0.09849002236443993,-0.19577367122571798,0.13127969915026938,0.01789779039400982,-0.18378794027865197,-0.13207751646382854,0.017441216248490016,0.20900133341672586,-0.015943063246412762,-0.15980338556633783,-0.002948455045994561,-0.2313538662818262,0.050292360483968894,0.13989509883021495,0.015943063246412762,0.15980338556633783,0.002948455045994561,0.2313538662818262,0.0049715013129582805,0.160809663389586,0.0,3,0.3,0,7,0.16822472701065408,19.91631542646715,0.06971440325007353,74.68101901108268,0.18006718840551217,0.0,0,0,0,0
0.1,0.0,0,0,1,1,0,0,1,1,0.07695686106440629,0.0,0.06153631290674721,0.7850626477895362,0.0,0.6272451109820033,0.018456648866944904,-0.001533224435131616,0.3074489206232283,0.01344162768183308,-0.07420538848913583,-0.0001572691229667008,0.21293237398133386,0.14302264960325445,0.11329741826965758,0.21730156241214196,-0.13259277335408048,0.09469728051182619,-0.19570653185949496,0.13126209626528546,0.017908941573522075,-0.18372783724012665,-0.13209511115697467,0.017454858820462327,0.2172087107480522,-0.015003634598570799,-0.19311733029191008,0.03932041892937518,-0.03002005794626913,0.06007620584205628,0.1402518496836459,0.015003634598570799,0.19311733029191008,0.03932041892937518,0.03002005794626913,0.0014601070646909284,0.15671559134690763,0.0,3,0.3,0,7,0.1607596925866275,26.38907259675248,0.06373725617139944,69.58012527458168,0.3580356825094557,0.0,0,0,0,0
0.11,0.0,0,0,1,1,0,1,1,1,0.08480672800915168,0.0,0.06780633466830074,0.784986694474539,0.0,0.6270021761553536,0.02080074392078251,-0.0016541126223576688,0.3054846344379483,0.013238028990277631,-0.07343157209886475,0.0005110999888400173,0.21687107686963833,0.14176806073167506,0.10587041565204788,0.21798419283739315,-0.13205189296082046,0.09391014173888353,-0.19563436705694826,0.13124335849896399,0.01792019022811292,-0.18365549197113457,-0.13211384066710524,0.01746841764921936,0.2197689956756433,-0.012427136859669907,-0.2257750218462852,-0.19715307273822197,0.17377289144035707,0.05957747137808229,0.13496226766649164,0.012427136859669907,0.2257750218462852,0.19715307273822197,0.17377289144035707,0.008228863290218456,0.15561826781638,10.0,3,0.3,0,7,0.15929118076075643,24.495634125580057,0.06349814733887352,93.33946908316295,0.31614420944446586,10.0,0.0,0.09999999999999999,0.0,0.0
0.12,0.0,0,0,1,1,0,0,1,1,0.09265575794572947,0.0,0.0740736795518646,0.7849029936577795,0.0,0.6267344883563855,0.023193003151749467,-0.0017175705685607916,0.30340700361274603,0.009847038721348305,-0.07102857460913281,0.0010435260772084245,0.22024295525259993,0.13989543095532608,0.09682583332591051,0.2174204357736551,-0.1318523595664946,0.09351968535294593,-0.1955520274180397,0.13122955055976862,0.017931567766489548,-0.183586259270989,-0.1321137359629411,0.01748123150173317,0.22835367810041807,-0.008889679480809211,-0.22599688809190854,-0.5670708774910171,0.3164977123468439,0.07141060856899244,0.1356979201546886,0.008889679480809211,0.22599688809190854,0.5670708774910171,0.3164977123468439,0.002663070982872162,0.14725067061836997,15.0,3,0.3,0,7,0.1638355478482225,38.5919654355038,0.07231447455195586,98.3153751734848,0.34692817022420686,15.0,0,0,0,0
0.13,0.0,0,0,1,1,0,1,1,1,0.10050387340738298,0.0,0.08033810013339421,0.784811546165351,0.0,0.6264420581529608,0.025639716001082728,-0.0017408511908346602,0.30135845826262303,0.0030859123836620437,-0.06739206255987074,0.0020475056889501147,0.22330290834832767,0.13743336621581387,0.08643169478454434,0.21675290497760333,-0.13190696767545598,0.09243441830794966,-0.1954590680563731,0.13121289263203226,0.017942844457523033,-0.18347371541680693,-0.13212165267974432,0.017493793040551403,0.2319154790831533,0.0007316062710367477,-0.21724226160879756,-0.6366326099181506,0.46561176937538545,0.0900113686061779,0.13141160567577032,0.0007316062710367477,0.21724226160879756,0.6366326099181506,0.46561176937538545,0.009673268472783686,0.14181648041959075,25.0,3,0.3,0,7,0.1582673446234375,40.5351466506817,0.06963826336925942,108.08833711786583,0.29053957118077933,25.0,0.0,0.01,0.0,0.0
0.14,0.0,0,0,1,1,0,1,1,1,0.10835099693638103,0.0,0.08659934910429141,0.7847123528998051,0.0,0.6261248970897206,0.028062069289131658,-0.0016601599570106927,0.29950061541742234,-0.005065537521889837,-0.06206118416789019,0.0029771426245801874,0.22573503726041275,0.13500906904020146,0.07466375335763928,0.21629770847493324,-0.13167261263780178,0.09328384865290137,-0.19534568193542423,0.13120572194256228,0.017953452629565353,-0.1833137382547936,-0.13212641044494794,0.017505491386087535,0.22666302076976655,0.014966372782679855,-0.18269765175335045,-0.9374216986864294,0.5895898666161452,0.10698159682347089,0.11831202383338552,0.014966372782679855,0.18269765175335045,0.9374216986864294,0.5895898666161452,0.020382247719179472,0.15366064433524484,25.0,3,0.3,0,7,0.14380833979998414,37.421662747532984,0.07768663703342285,102.80414440516202,0.22311513116925397,25.0,0,0,0,0
0.15,0.0,0,0,1,1,0,1,1,1,0.11619705108478236,0.0,0.09285717928116781,0.7846054148401324,0.0,0.6257830176876394,0.030407814429144635,-0.0014600106299577356,0.2980394568140223,-0.014436957068374577,-0.05573947066782825,0.004175801799776802,0.22651342923329693,0.13294587968262966,0.06076109103691328,0.21576363763454146,-0.13174264159631519,0.09185401558238605,-0.19521305766921224,0.13120217788158647,0.01796349451411114,-0.18338028675679655,-0.132141628814954,0.017517816951405252,0.2255705320868001,0.02516984053997764,-0.1393166871308981,-0.9338703999237173,0.6689928280051552,0.14270428953554587,0.10937348100201776,0.02516984053997764,0.1393166871308981,0.9338703999237173,0.6689928280051552,0.04984711025437806,0.18439043179637343,25.0,3,0.3,0,7,0.173243792689936,100.90723832064984,0.08707387470624839,169.33740172470388,0.23771199067520854,25.0,0,0,0,0
0.16,0.0,0,0,0,0,0,1,1,0,0.12404195841520015,0.0,0.09911134361560314,0.7844907330417789,0.0,0.6254164334435333,0.03271239174392742,-0.001120946139687218,0.29701680259026014,-0.023979695019392854,-0.04917117188327058,0.005730040425308065,0.22577968657422048,0.13164068640387183,0.046579414047380197,0.21551346898490434,-0.1314188482465823,0.09317939415808889,-0.19506025902803142,0.1312037131513511,0.017973404421611522,-0.1835593547154197,-0.1321880644416375,0.017531718330815627,0.22443341224875943,0.04311356285292801,-0.08451781103436952,-1.047144175396417,0.6810192431878187,0.17158642448351394,0.10039145383355928,0.04311356285292801,0.08451781103436952,1.047144175396417,0.6810192431878187,0.0724750808679108,0.2159800975543981,45.0,3,0.3,0,7,0.21459946747043337,90.27413655747242,0.09271659660710205,118.86852809590937,0.07292880386897005,45.0,0,0,0,0
0.17,0.0,0,0,0,0,0,1,1,1,0.13188564150156615,0.0,0.10536159520389834,0.7843683086366001,0.0,0.6250251588295203,0.03511002698883966,-0.0006452804699522293,0.2972990179079593,-0.027895413021008397,-0.03922538068128678,0.00816276524004022,0.22173911321963846,0.13023540719082724,0.026585516649785312,0.21475844458904453,-0.13151314165914535,0.09181095883079188,-0.194765647400452,0.13119671368041802,0.017988118387185503,-0.18320096476321063,-0.1321921758879438,0.01754869671410894,0.2674459302709019,0.048007972425044884,0.13437887909897733,-0.029150057337153708,1.3048072035964147,0.3910032748295171,0.13556028876933576,0.048007972425044884,0.13437887909897733,0.029150057337153708,1.3048072035964147,0.2856416796256187,0.46920994081999934,75.0,3,0.3,0,7,0.3512095355159529,478.62068564194806,0.15591003867928077,323.8415489279203,0.6875988498622148,75.0,0.0,0.0,0.0,0.01
0.18,0.0,0,0,0,0,1,1,1,1,0.1397280229298949,0.0,0.11160768729682284,0.7842381428328743,0.0,0.6246092092924496,0.038038609346743815,-5.558937274513959e-06,0.30000954616342945,-0.02844151630365887,-0.023059114069242215,0.0122260880568947,0.21791021977825462,0.1275453909070546,0.01700766181230698,0.21480878940295167,-0.13126322748172964,0.09262424692349319,-0.19424503652024044,0.13118751424295147,0.01802531353949574,-0.18260165074203194,-0.13219827178904017,0.017587824276528885,0.3254757547060988,0.055326191551129444,0.3845892112210313,-0.02979958751225882,1.7629831836965586,0.4498221384060244,0.1857477317762039,0.055326191551129444,0.3845892112210313,0.02979958751225882,1.7629831836965586,0.33821445110920156,0.5792883744365349,80.0,3,0.3,0,7,0.5730517002798964,657.8826619209037,0.19244179623504368,370.8550386509969,0.992330609601678,80.0,0.12999999999999998,0.0,0.0,0.0
0.19,0.0,0,0,0,0,1,1,1,1,0.1475690252990478,0.0,0.11784937330935583,0.7841002369152916,0.0,0.6241686012532984,0.04120488208655376,0.0006608598154543969,0.305055130358689,-0.033444126577647545,-0.006854081634642739,0.015205674604801284,0.21820843157212969,0.12761058342163067,0.01702506702636522,0.21518080793059913,-0.13119914109180458,0.09271822693400471,-0.1953706646432105,0.1305004404969263,0.019171317573364405,-0.1818692510091584,-0.13217645344750328,0.01765422632951333,0.318145826930874,0.045853296792494766,0.5753480043856727,-1.0629615575676532,1.3852719227494856,0.25339824993844584,0.1705768016318262,0.045853296792494766,0.5753480043856727,1.0629615575676532,1.3852719227494856,0.13554887662909001,0.351978975053411,100.0,3,0.3,0,7,0.4367198298766337,412.97037198063526,0.13065912220446646,341.6172800617641,0.4948244830371482,100.0,0,0,0,0
0.2,0.0,1,1,0,0,1,1,0,0,0.15540857122149707,0.0,0.124086406830421,0.7839545922449259,0.0,0.623703352106518,0.04413313060163746,0.00143113850812127,0.31072727949647205,-0.04382482328969218,0.003735209485426161,0.017348062563768647,0.2185252766324003,0.12766847746401955,0.017045697928286307,0.2156121056033044,-0.13107811713504142,0.09279508809084322,-0.19443424757462996,0.12736769047041266,0.029105564501563708,-0.1805257574710305,-0.13227705699629827,0.021439284211046905,0.26743128172033204,0.04988707519271979,0.573814819360768,-0.7784848585488886,0.7760129472673711,0.23954887837672945,0.11202271049883497,0.04988707519271979,0.573814819360768,0.7784848585488886,0.7760129472673711,0.11546247154630844,0.2773722572378632,65.0,3,0.3,0,7,0.3195600877586151,133.96809147285222,0.07719942245174642,158.80241265762942,0.8847157106109758,65.0,0,0,0,0
0.21,0.0,1,1,0,0,1,1,0,0,0.16324658332408937,0.0,0.1303185416326145,0.7838012102592301,0.0,0.6232134802193492,0.04682322799704495,0.002201962382556747,0.31574313462600073,-0.0488965420897333,0.007591897179697327,0.018732870468633363,0.21672118595587472,0.12698795374512084,0.017079877702552232,0.2159390300328466,-0.13017563398592194,0.09249104653033127,-0.19082900574266742,0.1234648424681413,0.04087991876059796,-0.17312464299497554,-0.13292497928517508,0.039503496049173525,0.26059146686937107,0.0521798817825792,0.4690796089303756,-0.4817528982798808,0.3146506507042581,0.1069729321301646,0.0973448835452817,0.0521798817825792,0.4690796089303756,0.4817528982798808,0.3146506507042581,0.023345609502449904,0.1728703748303108,0.0,3,0.3,0,7,0.19191130720760427,116.72292631144714,0.07186900203281055,37.50148264663314,0.92144839413803,0.0,0,0,0,0
0.22,0.0,1,1,0,0,1,1,0,0,0.17108298424880955,0.0,0.1365455316819254,0.7836400924720183,0.0,0.6226990049310904,0.04932888160167344,0.0030197068845395545,0.3200128668810604,-0.05271297612465486,0.009906133501270453,0.020044919714541122,0.21686559306775277,0.12671111205738722,0.01710310395787168,0.21577617493862697,-0.12899107023648695,0.09191031197645108,-0.18548655154674573,0.12007645926391376,0.05288814265636749,-0.16569038556634616,-0.13310438672414487,0.060183920844605276,0.23747084815141511,0.05697488115737251,0.40622310419242047,-0.47751961587320474,0.11957423302635822,0.15850678755442782,0.06638786390260557,0.05697488115737251,0.40622310419242047,0.47751961587320474,0.11957423302635822,0.021961255872502417,0.1453240009324805,15.0,3,0.3,0,7,0.14920185921328724,70.04888975659998,0.05836207185799047,63.45531497787025,0.8105155394476076,15.0,0,0,0,0
0.23,0.0,1,1,0,0,1,1,0,0,0.17891769665354415,0.0,0.1427671311474489,0.7834712404734601,0.0,0.6221599465523503,0.051643624626853096,0.0038463737155545194,0.3236957361459352,-0.05849541230373071,0.01111388050613149,0.02132090129611169,0.21718877742902992,0.12676702711979504,0.01712172013242927,0.21556364064432698,-0.12731432176123836,0.09075852163681347,-0.17883017531616868,0.11794979513820968,0.06415813682222707,-0.1595945164739797,-0.13456126426632786,0.07814118827224387,0.2225954862557955,0.057833394740452126,0.3445153181093775,-0.766620789139692,0.08721531733561087,0.1376617732250543,0.043677789602251355,0.057833394740452126,0.3445153181093775,0.766620789139692,0.08721531733561087,0.00510535792239461,0.10661654226509809,0.0,3,0.3,0,7,0.12184931047130565,29.47680703230011,0.04756158888417353,42.654527698138104,0.9441732064062327,0.0,0,0,0,0
0.24,0.0,1,1,0,0,1,1,0,0,0.18675064321284485,0.0,0.1489830944110912,0.7832946559300696,0.0,0.6215963263642293,0.05382725194616072,0.004679092007778563,0.326711230826281,-0.06553533433248579,0.012149014491195098,0.02269519896008229,0.21746060547181967,0.1268252885137724,0.017137203197849643,0.21561746286694797,-0.1267601127033281,0.09146534338354537,-0.16982938018231664,0.116595919192394,0.07514455495073258,-0.15396633129848358,-0.13547577278817566,0.09415567207637238,0.21057893225923996,0.06159458423533499,0.27937315568217624,-0.7604113669974858,0.054187271930745295,0.14571387522413726,0.023828289046395112,0.06159458423533499,0.27937315568217624,0.7604113669974858,0.054187271930745295,0.003269219186953942,0.08869209246868404,0.0,3,0.3,0,7,0.09420414114604647,22.498294779687615,0.04110691882176622,63.03465721087859,0.7257369327499728,0.0,0,0,0,0
0.25,0.0,1,1,0,0,1,1,0,0,0.19458174661869126,0.0,0.15519317607726604,0.7831103405846418,0.0,0.6210081666174844,0.0558993618946678,0.005548357900844307,0.3291953103406221,-0.07371089000222626,0.012065129401057861,0.024332526738698162,0.21770224434564417,0.12688836742642182,0.017151136441677095,0.21487181013262732,-0.1258461580978376,0.09020977599204952,-0.1597720028442656,0.11559474296581468,0.08552084371121685,-0.14866760491211187,-0.13588405266714915,0.1080175156245263,0.20237252376285605,0.06673803530286694,0.22702208192352655,-0.633107079447319,-0.055095670928946794,0.17135802768058547,0.00779077714416479,0.06673803530286694,0.22702208192352655,0.633107079447319,0.055095670928946794,0.01616485160331943,0.09069366405035116,0.0,3,0.3,0,7,0.09129415730464303,23.62967572551356,0.042010051072835834,44.73429534955791,0.6111405082599264,0.0,0,0,0,0
0.26,0.0,1,1,0,0,1,1,0,0,0.2024109295812544,0.0,0.16139713098258265,0.782918296256313,0.0,0.6203954905316611,0.057879475333263056,0.006437712682070772,0.33112599190117586,-0.08089415694233819,0.011502564196905096,0.026049086547366644,0.21790866868970138,0.12695319923433668,0.01716364802014897,0.21512473303192428,-0.1257449005204497,0.09024161670840594,-0.1499583411167778,0.1146618210425739,0.09392949611629334,-0.14393779613888313,-0.13609142971331842,0.1187444546568456,0.19479703367221335,0.07048455445147804,0.17660623816696744,-0.8171685933220241,-0.11486580079891959,0.16561056261690837,0.007613895909041046,0.07048455445147804,0.17660623816696744,0.8171685933220241,0.11486580079891959,0.0042134316343257205,0.08231188199484481,5.0,3,0.3,0,7,0.08039955297899284,17.809795300589812,0.041142973318769475,51.068595799249245,0.5251601202231453,5.0,0,0,0,0
0.27,0.0,1,1,0,0,1,1,0,0,0.21023811482965918,0.0,0.16759471420552421,0.7827185248404783,0.0,0.6197583222941561,0.059790816944170704,0.007328202799664526,0.3325800217040833,-0.08950100054113411,0.009473665306116263,0.027833347199204723,0.21809822826622538,0.1270185254206918,0.01717536620894472,0.21537957340653355,-0.1256717312812786,0.09028479826809346,-0.14099170770640757,0.11404154504839176,0.1003452854917975,-0.13971742204103252,-0.13643482247122096,0.12654683057334193,0.18801836784555542,0.07207227924070611,0.1329802524665485,-0.8572507929031865,-0.31778525071950814,0.15495454648956133,0.022219746984103755,0.07207227924070611,0.1329802524665485,0.8572507929031865,0.31778525071950814,0.01264016771596288,0.10693219394077275,0.0,3,0.3,0,7,0.09333110201687109,22.497956194140222,0.044081357003075874,64.21240297595335,0.3392183963898048,0.0,0,0,0,0
0.28,0.0,1,1,0,0,1,1,0,0,0.21806322511274712,0.0,0.17378568107611705,0.7825110283087938,0.0,0.619096687059284,0.061596896225551985,0.00823151073540418,0.33362015676154005,-0.09676004778804514,0.006217229864255547,0.02982383236400056,0.21826963718079476,0.12708789815878793,0.017186597035130147,0.2156141197493763,-0.12559661733102673,0.09032135847831962,-0.1323772626832868,0.11354907470290529,0.10412935347501452,-0.13593089040702455,-0.13685253186205665,0.1311605006329708,0.1769032467701808,0.07738247211435322,0.09292257320408664,-0.6426957155042874,-0.3890789412585589,0.1856904086896023,0.04115997834256632,0.07738247211435322,0.09292257320408664,0.6426957155042874,0.3890789412585589,0.011904727613485239,0.1304471780704048,0.0,3,0.3,0,7,0.11677525956544996,19.862572944421807,0.04711424280222009,61.446696536524065,0.25573662034317873,0.0,0,0,0,0
0.29,0.0,1,1,0,0,1,1,0,0,0.2258861831998389,0.0,0.17996978718558976,0.7822958087091797,0.0,0.6184106109472703,0.06330092340201562,0.009138983872566255,0.3342830067104072,-0.10367553187921284,0.0016222914902945806,0.03213833360227433,0.21842793345311295,0.1271599447654708,0.017197330847704306,0.21514862706019175,-0.12510479818032214,0.0904128794123101,-0.12490814459821498,0.113321811714795,0.10443163838806366,-0.1322297129337664,-0.13762647015903914,0.13254260439150523,0.16813942132069143,0.08094982699966957,0.060850002930269195,-0.7045517413245893,-0.5789243899158427,0.18550913207995018,0.057746761879147485,0.08094982699966957,0.060850002930269195,0.7045517413245893,0.5789243899158427,0.005539344894360421,0.14423593377317748,0.0,3,0.3,0,7,0.13617137401616503,24.32222471979943,0.04877499684696031,72.08264860346424,0.10796917013335733,0.0,0,0,0,0
0.3,0.0,1,1,0,0,1,1,0,0,0.23370691188149645,0.0,0.186146788396022,0.7820728681657535,0.0,0.6177001210432242,0.06489087527134346,0.010063585987360117,0.33459509795547376,-0.1087092036753456,-0.00447852652470937,0.034786556605809205,0.21857513692019293,0.12723615987829137,0.017207920062408455,0.2141309485207442,-0.12427015734542392,0.08911038511344421,-0.1178142199458021,0.11286495629056253,0.10262251811424777,-0.1283874308249536,-0.13846508729649035,0.13103408979937314,0.15503272589916015,0.08536544996180817,0.02007702869639933,-0.3625084380782458,-0.6632987448872842,0.2053083405813908,0.0786741859823363,0.08536544996180817,0.02007702869639933,0.3625084380782458,0.6632987448872842,0.019161552185368802,0.18320118812951328,0.0,3,0.3,0,7,0.17034008672780065,23.870685479083967,0.0458323755666087,66.28661931145746,0.04491239959131971,0.0,0,0,0,0
0.31,0.0,1,1,0,0,1,1,0,0,0.241525333970285,0.0,0.19231644084998276,0.7818422088788551,0.0,0.6169652453960756,0.06634582029683624,0.010976210888446622,0.33455361366084785,-0.1127526487199726,-0.011528729201975452,0.03758903100493946,0.21870602761380184,0.12731284651698144,0.017218041748312207,0.21431733956942914,-0.12419121433173513,0.08913321392030377,-0.11154273930598024,0.11230043114050314,0.09767691427873673,-0.12380837508910206,-0.13946376740862795,0.1264961431208771,0.14215315602551432,0.08679000597164747,-0.008286307637847474,-0.36952888570851716,-0.8087150266620893,0.20341536618728817,0.09937217794477068,0.08679000597164747,0.008286307637847474,0.36952888570851716,0.8087150266620893,0.011098925337305415,0.19726110925372356,0.0,3,0.3,0,7,0.18774110764063087,31.185605926717965,0.05198943166695197,77.50325103424157,0.14638297302039677,0.0,0,0,0,0
0.32,0.0,1,1,0,0,1,1,0,0,0.249341372301535,0.0,0.1984785009801572,0.7816038331249997,0.0,0.6162060130174452,0.06768423221664924,0.01188273494131312,0.33426612203431066,-0.11704084686693314,-0.020315248608306913,0.040693324267811304,0.21883280194266322,0.12739188477522584,0.017227949390148323,0.21450098854166694,-0.12411164274414938,0.08915542370200044,-0.10493458747610354,0.11204987846929138,0.09028314754656758,-0.11804398364560176,-0.14096524854212805,0.11790790963975549,0.13129639601398774,0.08987249387503793,-0.031454241476492055,-0.4450850660651206,-1.0053313923261535,0.2095802619702939,0.11804497628754726,0.08987249387503793,0.031454241476492055,0.4450850660651206,1.0053313923261535,0.011101760990136683,0.21901923115272187,0.0,3,0.3,0,7,0.21131598436395055,37.67318603628563,0.05013780866911224,80.17811737327756,0.3111088232066357,0.0,0,0,0,0
0.33,0.0,1,1,0,0,1,1,0,0,0.2571549497341036,0.0,0.2046327255189626,0.781357743256858,0.0,0.6154224538805403,0.06890055489361398,0.012788181464501822,0.33380578378771775,-0.12239639685853587,-0.03145869084573749,0.04420101854751176,0.21896350597756875,0.12747373583496638,0.01723779405502973,0.2146890223671214,-0.12402943436217297,0.08917877420724876,-0.09603143929763258,0.11262583323200566,0.08203321856235934,-0.11049047275860407,-0.1422442501113852,0.10648828170776763,0.11599360288528841,0.09137739972355358,-0.04595928064551506,-0.6146968350650802,-1.302511706878566,0.22500730550397413,0.14116134684881515,0.09137739972355358,0.04595928064551506,0.6146968350650802,1.302511706878566,0.02037457998501152,0.25291332655738025,0.0,3,0.3,0,7,0.23666578272671185,55.98228929994855,0.050713015433067186,96.39920414999199,0.4580217239132687,0.0,0,0,0,0
0.34,0.0,1,1,0,0,1,1,0,0,0.2649659891511359,0.0,0.21077887150815186,0.7811039417032317,0.0,0.614614598918925,0.06996908080693612,0.013731843303234051,0.33323653013273463,-0.12827063120748605,-0.04578613167350931,0.04845151353853249,0.2191147390599575,0.12756414215763395,0.017248560844971422,0.2148885964799149,-0.12394036309214322,0.08920434089180446,-0.08359799249909144,0.1148559061021149,0.0724974278978934,-0.1021586475485656,-0.1442756302521518,0.09151940502277822,0.10325309688363038,0.10191104665708835,-0.04527910139419994,-0.43507153156326306,-1.7065313436931815,0.25839666499917535,0.16171289226750551,0.10191104665708835,0.04527910139419994,0.43507153156326306,1.7065313436931815,0.04761779349102349,0.31124173241561737,0.0,3,0.3,0,7,0.28847188892916903,84.77015852198187,0.04691237108942977,111.29746226853709,0.7372358478967558,0.0,0,0,0,0
0.35000000000000003,0.0,1,1,0,0,1,1,0,0,0.2727744134608264,0.0,0.21691669630840524,0.7808424309690531,0.0,0.6137824800253378,0.07095399803759718,0.014778851297217935,0.3325356801875209,-0.1317350411827061,-0.06436456369222898,0.05360462285426684,0.2194144267088923,0.12776840304164452,0.017268317448596138,0.2150930954799789,-0.12384381997583245,0.08923052841241746,-0.07009167676715386,0.11868000610036937,0.05842569254377386,-0.0947601436478964,-0.14681004542544615,0.07416438963464832,0.09210697438118234,0.1169823460249861,-0.09586025981877379,-0.30511959635624536,-1.9922688318692459,0.2689209302554614,0.18066743907964408,0.1169823460249861,0.09586025981877379,0.30511959635624536,1.9922688318692459,0.05200423394705614,0.34965401905168636,0.0,3,0.3,0,7,0.3367970565272352,47.82912712806845,0.035841200204924636,65.6389425722466,0.47083407707475167,0.0,0,0,0,0
0.36,0.0,0,0,0,0,1,1,0,0,0.2805801455971796,0.0,0.2230459576089092,0.7805732136353161,0.0,0.6129261300503952,0.07172303825281245,0.015871277839445676,0.33128941037777343,-0.13580903240445585,-0.08394314737863762,0.058786913728752874,0.21958836633216988,0.12774984902233585,0.01757783674147126,0.21558545621996733,-0.12367038591532845,0.08952532239556676,-0.05751420047998057,0.12206531845643646,0.04106156444084062,-0.08318582179676012,-0.1476192352211899,0.061163432243261096,0.05657506762514101,0.12289384418605037,-0.12397367267804502,-0.3559749202410556,-2.0655812148798565,0.22739824767790212,0.22400507797203859,0.12289384418605037,0.12397367267804502,0.3559749202410556,2.0655812148798565,0.004352290068992931,0.3512512122270819,20.0,3,0.3,0,7,0.35569492099063627,66.02589030093779,0.05088866301760794,89.31164197147339,0.42757866510845766,20.0,0,0,0,0
0.37,0.0,0,0,0,0,0,0,0,0,0.2883831085207705,0.0,0.22916641343692262,0.7802962923590895,0.0,0.6120455828013432,0.07260619430291892,0.0171025235296795,0.32930379601567866,-0.1332835075497734,-0.10661982980326457,0.06301865807666826,0.21932573735770208,0.1252223284048443,0.023542798508112556,0.22323346815941555,-0.12213371122439755,0.09354743028175655,-0.052174858586085004,0.11936685327534446,0.024513642061522248,-0.08056209385169191,-0.14783184545355346,0.04225383980692152,0.08880018423828998,0.1556323187178788,-0.2453929348175873,0.42075242425569215,-2.5157986374255787,0.03880178142479329,0.1995829242824805,0.1556323187178788,0.2453929348175873,0.42075242425569215,2.5157986374255787,0.19036463201212933,0.5455798750124887,40.0,3,0.3,0,7,0.48690425054597564,133.6717803008881,0.09656411048799944,0.0,0.6720552740007095,40.0,0,0,0,0
0.38,0.0,0,0,0,0,0,0,1,0,0.29618322521950524,0.0,0.23527782216732931,0.780011669873476,0.0,0.6111408730406692,0.07364959701703462,0.018245102639035952,0.3264774919933325,-0.13615294196750097,-0.1299353729478938,0.06742497023352764,0.22570133456665387,0.1277241246283923,0.03283214971447107,0.22798381700766035,-0.12136909712364298,0.09122284051348936,-0.05304207837070812,0.11770035414145412,0.01741585267257774,-0.07713475892373797,-0.14219762392677443,0.029118335896151204,0.06285800792738927,0.13161244813068962,-0.2831227059622422,-0.11530336434711913,-1.975744267300533,0.24426414254418072,0.23332521729211597,0.13161244813068962,0.2831227059622422,0.11530336434711913,1.975744267300533,0.008986320376851403,0.373923985799657,15.0,3,0.3,0,7,0.45553443769503266,123.4395909338973,0.10070359709671231,132.932638531174,1.191296031620926,15.0,0.0,0.0,0.18000000000000002,0.0
0.39,0.0,0,0,0,0,0,0,1,0,0.3039804187093811,0.0,0.24137994253217698,0.7797193489875842,0.0,0.6102120364847669,0.07462538486780923,0.01908892546028325,0.3237595022560597,-0.12915834002608573,-0.14577183163564,0.07281261844704146,0.23197230354434312,0.13599503303365026,0.04103361085845955,0.22936371445701104,-0.11999164016033062,0.088472922076157,-0.05337271734365823,0.1177167929140606,0.017441346329955754,-0.07583375968080308,-0.13498355037139476,0.01754919359499371,0.07672102892347134,0.09632470512164028,-0.25952663147418464,1.6653354234944142,-1.4299377821783839,0.3313117743345375,0.22725938978590976,0.09632470512164028,0.25952663147418464,1.6653354234944142,1.4299377821783839,0.08993183180236053,0.41351592670991055,25.0,3,0.3,0,7,0.43185719805987155,239.03521692035207,0.12022305948211727,166.57563861653784,0.14103487468405973,25.0,0,0,0,0
0.4,0.0,0,0,1,1,0,0,1,0,0.3117746120352462,0.0,0.2474725336302022,0.7794193325865117,0.0,0.6092591098025207,0.0759037009416573,0.019699166080738167,0.321481598805475,-0.11200811265095234,-0.1576076072073742,0.0774489272273043,0.23310514852979594,0.1471047382913025,0.04702618561749025,0.22934406240990274,-0.11661757555228061,0.08734130930629297,-0.05355952878225889,0.11772475437616056,0.017457121588827007,-0.07601835220734954,-0.13500445194087674,0.017579820478800162,0.11378324847471309,0.06690167519548504,-0.20791849197498158,1.525029941704081,-0.8810595839767552,0.32996141659337014,0.1979913635605331,0.06690167519548504,0.20791849197498158,1.525029941704081,0.8810595839767552,0.08248888296316795,0.347381921719186,25.0,3,0.3,0,7,0.3532716650442164,312.6767804919475,0.13924759019435884,154.59064367316412,0.48149421009929916,25.0,0,0,0,0
0.41000000000000003,0.0,0,0,1,1,0,0,1,0,0.31956572827155894,0.0,0.2535553549363405,0.7791116236312734,0.0,0.6082821306138325,0.07758975998737304,0.020145289053125716,0.31978838318833225,-0.10130775897511704,-0.1638989209947097,0.08220187828777692,0.23059420555031335,0.1551451679000835,0.05741349689402289,0.22894170508259568,-0.11316516221462343,0.08953003784563296,-0.053636292219438775,0.11771085887377537,0.017468607339742537,-0.07605740490170293,-0.13504026648751516,0.017600274734843047,0.16790462561568226,0.03996552015369716,-0.1697706299494049,1.0425787675833107,-0.501567875549148,0.43509497068559827,0.15166110265587668,0.03996552015369716,0.1697706299494049,1.0425787675833107,0.501567875549148,0.18153961574925775,0.3731662385588316,25.0,3,0.3,0,7,0.37640814463956557,366.8910604470062,0.15668004592476154,141.0650224978374,0.11692254680264114,25.0,0,0,0,0
0.42,0.0,0,0,1,1,0,0,1,1,0.32735369052314756,0.0,0.2596281663112222,0.778796225158862,0.0,0.6072811374881693,0.07968363500846361,0.02053156232263102,0.3186062712122848,-0.08983158366606485,-0.1670950141830141,0.08689622806570174,0.2260345786755121,0.15983575969703748,0.0678026601733338,0.2292165871048575,-0.10919056264854536,0.09258479830508748,-0.05360976173486193,0.11769367567829042,0.01747803241149344,-0.07600470849649466,-0.13509520337836892,0.017625263742595543,0.21098224141337177,0.03207678514905124,-0.13080927916778046,1.383971097954664,-0.2527134343239406,0.4314925881696684,0.11637144910977579,0.03207678514905124,0.13080927916778046,1.383971097954664,0.2527134343239406,0.1718644218584462,0.3203126561172732,5.0,3,0.3,0,7,0.337326369479584,282.8370480967312,0.130897873634173,154.93816023147815,0.06765818264108503,5.0,0.0,0.0,0.0,0.22000000000000006
0.43,0.0,0,0,1,1,0,0,1,1,0.33513842192596877,0.0,0.2656907280106526,0.778473140282121,0.0,0.6062561699430369,0.08217246409226835,0.0209100195525708,0.3177244025401465,-0.07725531095786528,-0.1689196623452731,0.091562905658944,0.22219511006858575,0.16174057808919443,0.07811905798917548,0.23260476495944132,-0.10556725489891772,0.0972533190766923,-0.05352750526353145,0.1176719877227141,0.017487610834868147,-0.07596224783079711,-0.13515365178775732,0.017644786148123898,0.25481958926511034,0.020542066560098698,-0.12903933847283736,1.2950878862430575,-0.2066202117272456,0.4499179224050262,0.08031883266085843,0.020542066560098698,0.12903933847283736,1.2950878862430575,0.2066202117272456,0.18422719439437363,0.2850880936153308,0.0,3,0.3,0,7,0.3015325525817464,273.7405476685012,0.13128996117014524,137.16004253559362,0.14348055392730785,0.0,0,0,0,0
0.44,0.0,0,0,1,1,0,0,1,1,0.3429198456478665,0.0,0.2717428006950765,0.7781423721897718,0.0,0.6052072684423926,0.08507504947709267,0.021256321715363017,0.3168656610805101,-0.06581195430883954,-0.17043031734987202,0.09616820540377635,0.22064272649693142,0.16347838443139862,0.08836927458136495,0.23904873005249755,-0.1027704290058306,0.10260268969494984,-0.05341885771437091,0.11764672890459091,0.017498603867028575,-0.07591825603040303,-0.13522325275948024,0.017663927930468892,0.2897781295215533,0.012731300856186954,-0.13516745660786222,1.0494159864163874,-0.16008475912443088,0.44333316867351286,0.05314171612631319,0.012731300856186954,0.13516745660786222,1.0494159864163874,0.16008475912443088,0.17159036797843635,0.2374633849609365,0.0,3,0.3,0,7,0.2507601116842782,209.161170486471,0.11370516728558626,120.20055411703667,0.1091831946973556,0.0,0,0,0,0
0.45,0.0,0,0,1,1,0,0,1,1,0.3506978848893299,0.0,0.2777841454390272,0.7778039241463419,0.0,0.6041344743950683,0.0882933978349553,0.021586175067390256,0.31598599842897024,-0.05695669286660596,-0.17146855170912412,0.10074315401126295,0.2217612135042526,0.16524797802780686,0.0970500863912081,0.24803802439570277,-0.10044994826398432,0.10746081284791797,-0.05329281571651995,0.1176187499399288,0.017511052915155756,-0.07586892749157106,-0.13530526927854158,0.017684334748835795,0.3175852242058741,0.007669065617582218,-0.14823432325366007,0.9245614239975564,-0.10342032355764694,0.434988803989967,0.03311266068345581,0.007669065617582218,0.14823432325366007,0.9245614239975564,0.10342032355764694,0.1572046585509398,0.1979863848519778,0.0,3,0.3,0,7,0.2176840415662203,156.7370695722298,0.10132003832533767,111.00288083979721,0.11806043508442998,0.0,0,0,0,0
0.46,0.0,0,0,1,1,0,0,1,1,0.35847246288425194,0.0,0.28381452374055854,0.7774577994922038,0.0,0.6030378301531358,0.09179220408637248,0.021918780138113787,0.31502685147780707,-0.049297540156424506,-0.17227551825860976,0.10512418877458075,0.22559722513213437,0.16720971146238614,0.10252977615459205,0.2585254940733852,-0.09852779329131765,0.11098783005275126,-0.0531548735642543,0.11759065916242478,0.017525056398861413,-0.07582056689637282,-0.13538554767427013,0.017706336322984267,0.34237947931815926,0.0029761181102429075,-0.16411824548324971,0.7460597384395253,-0.1206937167311268,0.4200093715324928,0.016092983566092678,0.0029761181102429075,0.16411824548324971,0.7460597384395253,0.1206937167311268,0.13619484779193425,0.15526394946826982,0.0,3,0.3,0,7,0.17173159661422482,126.69939823689114,0.09225321856684578,98.57819264728656,0.1744944135697195,0.0,0,0,0,0
0.47000000000000003,0.0,0,0,1,1,0,0,1,1,0.3662435029006865,0.0,0.28983369753066096,0.7771040016434583,0.0,0.6019173790102417,0.0955789340667804,0.02226281610499806,0.31390711399097215,-0.043893899055025755,-0.1734215305468736,0.10924875646856763,0.23191748014036154,0.16965984926969774,0.10472722536006027,0.27036059417268943,-0.09684967858348091,0.11322415280248108,-0.053062925992672316,0.11755642149450865,0.017541720923673038,-0.07576547042252338,-0.13547660715386817,0.017730330104733294,0.36802807482877864,0.0016095120959116254,-0.18847268046232096,0.5995249131954632,-0.1553890219634371,0.38083479709881374,0.0017845719280921157,0.0016095120959116254,0.18847268046232096,0.5995249131954632,0.1553890219634371,0.09100109956815278,0.09439518359215651,0.0,3,0.3,0,7,0.11694021373072276,115.41455902797865,0.08429722399706616,91.90846980537002,0.3123573242379112,0.0,0,0,0,0
0.48,0.0,0,0,1,1,0,0,1,1,0.3740109282416059,0.0,0.29584142918265965,0.7767425340919398,0.0,0.6007731651998693,0.0996419560368423,0.022634438695936326,0.3125867459362339,-0.039642258880271286,-0.17473282283909275,0.11315762995960618,0.24019161897033622,0.1719444895789981,0.10421399920380572,0.2832173478567436,-0.09531828944898921,0.11421825974495951,-0.05291591159334097,0.11753231534396091,0.01756026788159107,-0.07570678412068563,-0.13557172055742034,0.017756244322956027,0.38776597332403406,0.00047760771248625284,-0.21289413771121976,0.484106901200766,-0.1096456602911778,0.368121815438892,0.013755045082428141,0.00047760771248625284,0.21289413771121976,0.484106901200766,0.1096456602911778,0.07228038625623234,0.08651303905114674,0.0,3,0.3,0,7,0.09485331324096966,94.31374025927147,0.07600422493029564,87.63887587742597,0.38841308899132154,0.0,0,0,0,0
0.49,0.0,0,0,1,1,0,0,1,1,0.3817746622456579,0.0,0.3018374815215959,0.7763734004052003,0.0,0.5996052338936242,0.1039234587170121,0.02302996912287775,0.3110602220906603,-0.036964769122406795,-0.17507851744264347,0.11682425483804307,0.25028365084916593,0.17426303779421723,0.1028162628200405,0.29607896973692227,-0.0933556173693895,0.11362625806352686,-0.05275530680714424,0.11751015987068161,0.017580403865500555,-0.07564757042825465,-0.13566908221276122,0.017782940180095214,0.4057961241691719,-0.003305800077712008,-0.23854873240434604,0.17299943213590352,0.016538399157476874,0.3613602861061955,0.024021461923513954,0.003305800077712008,0.23854873240434604,0.17299943213590352,0.016538399157476874,0.05952280458459963,0.08685006658582559,0.0,3,0.3,0,7,0.0809125155744455,79.74766252127614,0.0679080763800586,91.75962146736308,0.40170890446858576,0.0,0,0,0,0
0.5,0.0,0,0,1,1,0,0,1,1,0.3895346282879222,0.0,0.3078216178335902,0.7759966042264255,0.0,0.5984136311994293,0.10841396951423565,0.02344328715486492,0.30934434623118323,-0.03559381647535248,-0.17386973825798502,0.12038693124046312,0.26147595971733567,0.17627069409720433,0.10003107969548802,0.30853479940605794,-0.09142611146033497,0.11107206914524298,-0.05257027958918403,0.11748994517968289,0.017601376777303696,-0.07547193288521989,-0.1357562587229893,0.017867672605125562,0.4219912474660443,-0.003068865703801513,-0.25585922966854147,0.220309570911178,0.201831134334808,0.3461297872302028,0.03245661917812209,0.003068865703801513,0.25585922966854147,0.220309570911178,0.201831134334808,0.038308169396612635,0.07383365427853625,0.0,3,0.3,0,7,0.08044160309302492,70.32396917917188,0.06591022782250401,96.49683885103556,0.4325802840850377,0.0,0,0,0,0
0.51,0.0,0,0,1,1,0,0,1,1,0.3972907497806668,0.0,0.3137936018751874,0.7756121492744628,0.0,0.5971984041597211,0.1130616754911509,0.023883580878475984,0.3075203171530081,-0.03428338223477706,-0.17068069877565817,0.12369480053549106,0.27320524941018354,0.17851990096837675,0.09391799924057591,0.3196878454339404,-0.08895258048760937,0.10474184522148121,-0.05235326973088328,0.1174737518461618,0.01762249719313877,-0.07531084289869239,-0.13585501951935086,0.017943064082006188,0.4348041402480877,-0.004564127216725597,-0.26262984951090323,0.19489431152467784,0.42032355030000207,0.3289959152895661,0.037513390467420915,0.004564127216725597,0.26262984951090323,0.19489431152467784,0.42032355030000207,0.01520231341437872,0.05727983109852523,0.0,3,0.3,0,7,0.06317488883220285,66.04218321384221,0.06480404835098345,96.2031508846047,0.5174600298407404,0.0,0,0,0,0
0.52,0.0,0,0,1,1,0,0,1,1,0.4050429501741038,0.0,0.31975319788268336,0.7752200393436992,0.0,0.595959600749596,0.11782097591610906,0.0243466400061143,0.30567120412413046,-0.03295374458886023,-0.16492761539129264,0.12678499077747876,0.28574314173580584,0.18010635356108462,0.08479471546696442,0.32994282676990216,-0.08568051513830041,0.0944823907092451,-0.05209718942899724,0.11746198078278894,0.017643325085313757,-0.0749957949547218,-0.13590088864430652,0.01810528423909405,0.4471718365637961,-0.004965106081781988,-0.26443006580227624,0.17248738870598374,0.7123646338097461,0.3166352390617021,0.04212888638969231,0.004965106081781988,0.26443006580227624,0.17248738870598374,0.7123646338097461,0.003117958820981259,0.05021195129245556,0.0,3,0.3,0,7,0.050786203074281853,74.7249521959451,0.06888198143139558,101.64967257466728,0.6279359473802257,0.0,0,0,0,0
0.53,0.0,0,0,1,1,0,0,1,1,0.4127911529571451,0.0,0.325700170581432,0.774820278304128,0.0,0.5946972698748665,0.122762431776474,0.024835875119559977,0.303765638299478,-0.03187851121418186,-0.1566393946584561,0.12963606829431187,0.29842703470219323,0.18116385177808356,0.07291440607331699,0.3402266702949769,-0.08265844565480734,0.08170282177942728,-0.05180196825796124,0.11745465474253357,0.0176648807444853,-0.07484289368831493,-0.13597295147209895,0.018186251261642583,0.4733299901099196,-0.007458519643915872,-0.2730305363774175,0.17632146988791517,0.9191355631962947,0.30758588982224805,0.06053883715277453,0.007458519643915872,0.2730305363774175,0.17632146988791517,0.9191355631962947,0.018114280759183976,0.08611163755587438,0.0,3,0.3,0,7,0.07469026480175844,103.70617792784874,0.07424092999251569,107.42492266148045,0.6825994035053351,0.0,0,0,0,0
0.54,0.0,0,0,1,1,0,0,1,1,0.4205352816581571,0.0,0.3316342851951342,0.7744128701012043,0.0,0.593411461370219,0.12801587721798685,0.025356906451085993,0.3017016362680682,-0.03006000175827637,-0.14658758621255763,0.13238627948534562,0.3108295309253153,0.181651489151502,0.060007291974056715,0.34970662788282225,-0.07974772397986184,0.06843763547362058,-0.051469719652594836,0.11745084410071768,0.01768819694684777,-0.07477095247493423,-0.13608180387208482,0.018222368996759247,0.5079333629151517,-0.008746753465095333,-0.29741837533104426,0.2332666980924996,1.0971654258991577,0.2839980168929111,0.08739808125699455,0.008746753465095333,0.29741837533104426,0.2332666980924996,1.0971654258991577,0.04763626830222312,0.14378110302431302,0.0,3,0.3,0,7,0.11355842001458896,97.27542791500666,0.07398043451019126,96.97333664074952,0.560614610489262,0.0,0,0,0,0
0.55,0.0,0,0,1,1,0,0,1,1,0.42827525984571624,0.0,0.3375553074551057,0.7739978187559116,0.0,0.5921022259971487,0.13360388777972104,0.025916564482577273,0.2993305515525312,-0.03018115852513343,-0.13378649662638487,0.13482207263393425,0.3199501618603265,0.18234147938645529,0.046517920080480474,0.35772193444092815,-0.07796648778551629,0.05736030594742282,-0.051103189389037074,0.11745414547035617,0.01771406396062379,-0.07438738442232971,-0.13610875612908738,0.01842758035757608,0.5355336184765059,-0.009810198480782274,-0.33001684194064074,-0.14166128410056683,1.4607324699523567,0.2815463328041742,0.1072583586307897,0.009810198480782274,0.33001684194064074,0.14166128410056683,1.4607324699523567,0.05600897465093152,0.17307753176250348,0.0,3,0.3,0,7,0.1661231895332808,63.9963549076174,0.07395914022017128,96.75307183007207,0.5139904919184688,0.0,0,0,0,0
0.56,0.0,0,0,0,0,0,1,1,1,0.4360110111293624,0.0,0.34346300360952614,0.7735751283646175,0.0,0.5907696154420439,0.1393960496548648,0.026601522171097902,0.2967857019665765,-0.03549024813487228,-0.11927485680733008,0.1371484954559436,0.3240265582720916,0.18189628056002644,0.032916691458721975,0.35808635517323695,-0.07769260716021605,0.05727125117500781,-0.05072302441724663,0.11747178527393556,0.017742100940789984,-0.07399256539739864,-0.1361358703715197,0.01864043274487104,0.5562716900044508,0.01077110136583788,-0.31656901956482975,-0.8649033961809831,1.3720456117085469,0.2738872884810674,0.12026067887508834,0.01077110136583788,0.31656901956482975,0.8649033961809831,1.3720456117085469,0.06957571512845873,0.20060749536938496,30.0,3,0.3,0,7,0.18621439991993036,44.37138890317546,0.0689298144111413,193.59930436828714,0.2817737014368351,30.0,0.0,0.19000000000000003,0.0,0.0
0.5700000000000001,0.0,0,0,0,0,0,1,1,1,0.44374245916035343,0.0,0.3493571404326669,0.7731448030991017,0.0,0.5894136823140772,0.14522530986531124,0.027491418237229278,0.29523851746039936,-0.035821773029467874,-0.10096493111001781,0.1407645087255954,0.3228950596454853,0.1802704202555086,0.016870559780409355,0.35821904946586935,-0.07760817065619599,0.05728533440369071,-0.05019915326824026,0.11748413539951824,0.017771937901842838,-0.07386030229526977,-0.1364012133064105,0.01867765968714935,0.5904656440965845,0.018609498802267158,-0.11545931335592488,0.5120358446166062,2.187256324113557,0.5631571840888874,0.1467231849362311,0.018609498802267158,0.11545931335592488,0.5120358446166062,2.187256324113557,0.21380004365622046,0.3791327273947187,75.0,3,0.3,0,7,0.2609251897069701,357.75723870797646,0.13121370664180965,324.53046327288587,0.5230652057382743,75.0,0,0,0,0
0.58,0.0,0,0,0,0,1,1,1,1,0.45146952763241865,0.0,0.3552374852340987,0.7727068472065224,0.0,0.5880344801431792,0.15136595960121477,0.028603712719790456,0.2959070200708379,-0.028694786166342186,-0.07614885158388196,0.14561431403442857,0.3226053854153973,0.17995680284245436,0.015277693383328073,0.35845203571001283,-0.07748658596928179,0.05728630965399806,-0.049562709009355194,0.11751322643786272,0.017820386803855892,-0.07349184777854373,-0.1366466621933538,0.018881295967074385,0.6557545478682242,0.023475341999381012,0.15679698411195112,0.908660710091034,2.6953608193392204,0.5176766374893786,0.20428502023580553,0.023475341999381012,0.15679698411195112,0.908660710091034,2.6953608193392204,0.16243915225527994,0.39019951449046647,90.0,3,0.3,0,7,0.41383311177831017,603.749867792462,0.17759047691240962,474.5615963876027,0.801751132158131,90.0,0.21000000000000005,0.0,0.0,0.0
0.59,0.0,0,0,0,0,1,1,1,1,0.4591921402825117,0.0,0.3611038058678774,0.7722612650093053,0.0,0.5866320633778677,0.1576688823564901,0.029892191854973275,0.2986845192357853,-0.02944552789318193,-0.049735169439522275,0.14953917222662313,0.3228193498687976,0.18006045195878112,0.015322211020491833,0.35879646492590506,-0.07736405115352593,0.057274756980498887,-0.056247932840165576,0.11717017354201394,0.020795748940159814,-0.0728525538308687,-0.13668672341032784,0.019473870375906505,0.6498800570692541,0.0311363015742415,0.27233297584157373,-0.8085479866801973,2.3904720036034566,0.4443777046576443,0.1906879167867424,0.0311363015742415,0.27233297584157373,0.8085479866801973,2.3904720036034566,0.08327389878976693,0.30509811715075086,100.0,3,0.3,0,7,0.3283087750054454,298.5039595953905,0.12930069766427316,281.20525571958086,0.36566448988544265,100.0,0,0,0,0
0.6,0.0,1,1,0,0,1,1,0,0,0.46691022089156364,0.0,0.3669558707417092,0.7718080609051936,0.0,0.585206487383183,0.1637584169067247,0.031182702125254445,0.3015486791944055,-0.03406002849396638,-0.02925771624005513,0.15325794650956479,0.32306077971569674,0.1801443410290591,0.015360431579265449,0.359175655673304,-0.07724303332948484,0.057260178348384594,-0.06671135598477143,0.11783255821741273,0.026719780458924647,-0.06916782065805271,-0.13876239385214598,0.025135818700865842,0.6148760518047441,0.02715321844663108,0.24785930045380572,-0.026475351732350813,1.763462959433611,0.3853588367634415,0.1479658309131805,0.02715321844663108,0.24785930045380572,0.026475351732350813,1.763462959433611,0.018402966021732303,0.19352201538154387,55.0,3,0.3,0,7,0.2590084531707953,40.534266536240196,0.07097794239125463,115.16011245005014,0.9164926849814234,55.0,0,0,0,0
0.61,0.0,1,1,0,0,1,1,0,0,0.4746236932852346,0.0,0.3727934488260932,0.7713472393670984,0.0,0.583757808438401,0.1696854321104922,0.03248283734803494,0.3036555839702215,-0.03273033755736944,-0.015224424673652148,0.1564583937837098,0.32286108544076586,0.17995680958963794,0.015400913514295705,0.3595611507057259,-0.0771223708554889,0.057246561515318733,-0.07150487653595569,0.11684558646540319,0.03943744808388197,-0.05898165506821498,-0.13759195382353084,0.04178505714350311,0.6036615787376007,0.03071854339431512,0.17067479254144002,-0.06744507272575972,1.2177338549493464,0.37594497548287403,0.1290378854523661,0.03071854339431512,0.17067479254144002,0.06744507272575972,1.2177338549493464,0.003151526656780812,0.16290795550346204,0.0,3,0.3,0,7,0.17438658828856798,86.79605859698384,0.07247257852567991,60.46519068660125,0.48257662066959206,0.0,0,0,0,0
0.62,0.0,1,1,0,0,1,1,0,0,0.4823324813346662,0.0,0.3786163096634422,0.7708788049431592,0.0,0.5822860837348953,0.1754974920646079,0.03376529689771188,0.3052619024013524,-0.03556829598287526,-0.004286959738673879,0.15997594589745084,0.3231681922892365,0.1800643256921038,0.015434584953408825,0.35995532684034404,-0.07700075195399776,0.05722988948667099,-0.07200132823789018,0.11673045779719698,0.051975312170749965,-0.047668786742821545,-0.1349501657569487,0.05937337771460344,0.5896136561855128,0.030197327986529056,0.14041585441994844,-0.37460751837033834,0.9415384723404792,0.3898005315833465,0.10728117485084654,0.030197327986529056,0.14041585441994844,0.37460751837033834,0.9415384723404792,0.011184221919904314,0.1486627247572799,0.0,3,0.3,0,7,0.15839541807473717,27.373853787025286,0.05185020916691356,73.44171628374413,0.6403727239451156,0.0,0,0,0,0
0.63,0.0,1,1,0,0,1,1,0,0,0.4900365089572325,0.0,0.38442422337718063,0.7704027622566278,0.0,0.5807913713738455,0.1812105618829745,0.035068596428787305,0.30654832821965994,-0.039167760857132146,0.004309613814251323,0.16359976155393624,0.3234805000143062,0.1801742252757905,0.015467033976331285,0.36035360421969287,-0.07687686999997756,0.05721127146598623,-0.06871689704973338,0.11701417481689276,0.06345495880075566,-0.03584291569436154,-0.13271541327755051,0.07419868640065319,0.5787164063729047,0.03264270268242915,0.12121898065553757,-0.3493051094928351,0.7494688457335035,0.3917029020343712,0.08867989741567217,0.03264270268242915,0.12121898065553757,0.3493051094928351,0.7494688457335035,0.007278678657190563,0.12860127875529187,0.0,3,0.3,0,7,0.14108608413240073,29.614591400105684,0.0558082818282152,75.9581345618683,0.5670405138610635,0.0,0,0,0,0
0.64,0.0,1,1,0,0,1,1,0,0,0.4977357001172911,0.0,0.3902169606808198,0.7699191160058627,0.0,0.5792737303639162,0.1868046010162308,0.03637920362641562,0.30761095843712855,-0.0426773643217741,0.011035226762697192,0.16718873543542448,0.32380002982411227,0.1802850122222761,0.015498341661172782,0.3607527713729342,-0.07675303077719178,0.057191893889599416,-0.062260050905139225,0.11730281399363414,0.07390947897830205,-0.02295829303851027,-0.13018079679728764,0.08663860555076522,0.5677599874854322,0.03351907630274949,0.10089308259412264,-0.2762667092851467,0.5593217907666899,0.3883168391710292,0.07002428736814109,0.03351907630274949,0.10089308259412264,0.2762667092851467,0.5593217907666899,0.0019001215097905755,0.10544348518068115,0.0,3,0.3,0,7,0.11339648762650764,28.83436347839834,0.05430388358333708,77.57510683149246,0.3906094768250541,0.0,0,0,0,0
0.65,0.0,1,1,0,0,1,1,0,0,0.5054299788269336,0.0,0.39599429288700977,0.769427870964251,0.0,0.5777332206189978,0.19229523922734032,0.03769465838037891,0.30840752627791346,-0.04573007640800959,0.01571026709563239,0.17096882246125436,0.3241234736203529,0.18039796439798814,0.015528566433551966,0.3611533097898072,-0.07662748937419521,0.057171042907054215,-0.053639439049579074,0.1182952254236365,0.0831501104533964,-0.010036853572104737,-0.1275392064765931,0.0969220216030964,0.5552932714275088,0.033021616216424146,0.07796669665850678,-0.32853893940610507,0.35264878254917764,0.4017003827363424,0.049863292600575204,0.033021616216424146,0.07796669665850678,0.32853893940610507,0.35264878254917764,0.0057060898493326295,0.08859099866633198,0.0,3,0.3,0,7,0.09784625175821679,23.6547098253835,0.05322148084857573,81.4060473595242,0.3351160335020369,0.0,0,0,0,0
0.66,0.0,1,1,0,0,1,1,0,0,0.5131192691467354,0.0,0.4017559919165674,0.7689290319801811,0.0,0.5761699029557643,0.1976487207792715,0.038986866608930415,0.3089793759254094,-0.04880596792323623,0.01850678721140664,0.17476651286962258,0.32445100768452245,0.18050958057375968,0.015557690272593044,0.36155188534079996,-0.07650418429450244,0.05715043468251521,-0.04317895214536949,0.11952544520686148,0.09124536657858101,0.0019783934640184853,-0.12522511100770353,0.10462378938995259,0.541641947209577,0.030419041636288915,0.05907599027234611,-0.2912091110525992,0.16962588949601484,0.3881787489171886,0.02852267806284159,0.030419041636288915,0.05907599027234611,0.2912091110525992,0.16962588949601484,0.013577242999378791,0.0725189626985093,0.0,3,0.3,0,7,0.07794134902846679,22.744263807770725,0.05328374503175639,85.88025674073032,0.2693887705122622,0.0,0,0,0,0
0.67,0.0,1,1,0,0,1,1,0,0,0.5208034951865055,0.0,0.4075018303074806,0.7684226039770037,0.0,0.5745838390913194,0.20286146829416832,0.04024399742766115,0.30933180032195157,-0.05102230844342334,0.019392018530676625,0.17866632101782653,0.3247822076136706,0.18062109117830338,0.01558582387519522,0.36194590448025615,-0.07638238540139378,0.05712963369290039,-0.03162687087606039,0.12100963993772358,0.09793485432135121,0.012430835210544083,-0.12310445862511879,0.11016830485634907,0.5267632651919983,0.029377265668741815,0.03510721185734055,-0.1796671447957316,-0.01941668154103463,0.39512485234397865,0.005959770005492859,0.029377265668741815,0.03510721185734055,0.1796671447957316,0.01941668154103463,0.012376977963501956,0.04771401363773663,0.0,3,0.3,0,7,0.05568354353451445,19.83473910643843,0.05301527610758818,86.52280498600938,0.2088883426022865,0.0,0,0,0,0
0.68,0.0,1,1,0,0,1,1,0,0,0.5284825811060347,0.0,0.4132315812238882,0.767908591952926,0.0,0.5729750916407594,0.20794152198935778,0.041477826013292335,0.30942234500754084,-0.05198388182131563,0.0186488756919021,0.18266136225264235,0.3251126527289947,0.18073188811120652,0.015613213666161918,0.36225425725043325,-0.07609124185917515,0.05700898000452176,-0.01936183226783114,0.12268230891509303,0.10275840887453135,0.021870184236041312,-0.12120306082404499,0.11355388347686338,0.5193396064902022,0.027621681193889892,0.0002041837180934685,-0.11093039527974813,-0.18780602010251826,0.3937659425000603,0.009142974615832578,0.027621681193889892,0.0002041837180934685,0.11093039527974813,0.18780602010251826,0.019465638723827894,0.056230294533550364,0.0,3,0.3,0,7,0.05006664002862983,17.998609917981717,0.045608975794353225,70.24223152908135,0.08522969739840947,0.0,0,0,0,0
