time,trans_flag,des_cont_state_fl,des_cont_state_fr,des_cont_state_rl,des_cont_state_rr,cont_state_fl,cont_state_fr,cont_state_rl,cont_state_rr,vel_cmd_x,vel_cmd_y,vel_cmd_yaw,acc_cmd_x,acc_cmd_y,acc_cmd_yaw,base_pos_x,base_pos_y,base_pos_z,base_ang_roll,base_ang_pitch,base_ang_yaw,FL_foot_pos_x,FL_foot_pos_y,FL_foot_pos_z,FR_foot_pos_x,FR_foot_pos_y,FR_foot_pos_z,RL_foot_pos_x,RL_foot_pos_y,RL_foot_pos_z,RR_foot_pos_x,RR_foot_pos_y,RR_foot_pos_z,base_vel_x,base_vel_y,base_vel_z,base_vel_roll,base_vel_pitch,base_vel_yaw,x_vel_err,y_vel_err,z_vel_err,roll_vel_err,pitch_vel_err,yaw_vel_err,cmd_err,cont_err,terr_freq,terr_height,failed,gait_id,base,CoT,musculoskeletal,foot_force,MWE,stability,FL_stride_t,FR_stride_t,RL_stride_t,RR_stride_t
0.01,0.0,0,0,1,1,0,0,1,1,0.006283178692509316,0.0,0.005026527078818862,0.6283178692509316,0.0,0.5026527078818862,0.00028293366444078405,-1.6853266012631095e-05,0.3095892750567131,0.000344771447075325,-0.0006226532592501499,-3.522296727085656e-05,0.1796576371630784,0.1325053555048751,0.019345497963735664,0.18377048113024363,-0.1309629315385718,0.02615470427151606,-0.18303558100664438,0.1320424112154695,0.017332099328117745,-0.18429755452428656,-0.1319431720739453,0.01733440726426555,0.06356175158710213,-0.003900100016101499,-0.0754542354711458,0.15902918498336516,-0.198380939374169,0.0028456039742009685,0.057278572894592816,0.003900100016101499,0.0754542354711458,0.15902918498336516,0.198380939374169,0.0021809231046178938,0.06335959601531221,40.0,3,0.3,0,7,0.0393192493263187,166.87789477106026,0.10549567166431321,37.6801265813749,0.3393713363607877,40.0,0,0,0,0
0.02,0.0,0,0,1,1,1,0,1,1,0.014137091596022201,0.0,0.011309492449657768,0.7853912903512885,0.0,0.6282965370838907,0.0013361602656489146,-0.00016740890184739388,0.3101332562058914,0.009220640451763455,-0.007756182091237074,0.00010234033114584288,0.17988971442365634,0.1324985189713761,0.019357173573238462,0.18233280643164687,-0.12960813470023297,0.03368063890445039,-0.18333735394488834,0.1321221313216193,0.01734158639219316,-0.18429769903757473,-0.1319524177479155,0.01734458784499812,0.15329918354895558,-0.02376482378020856,0.18643263907045307,1.574433564032361,-1.303485819668463,0.017412314466718253,0.1391620919529334,0.02376482378020856,0.18643263907045307,1.574433564032361,1.303485819668463,0.006102822017060484,0.1690297377502024,15.0,3,0.3,0,7,0.13010475760327203,913.9080939365458,0.2808199490084508,189.71249763841055,0.5500809646446698,15.0,0.01,0.0,0.0,0.0
0.03,0.0,0,0,1,1,1,0,0,1,0.02199086497214841,0.0,0.01759201134109972,0.7853773376126207,0.0,0.628251889144195,0.0031663297791575695,-0.00040216986314547433,0.3121174193485813,0.024548977826083642,-0.023695151928766478,-0.00021656461854304345,0.18108685172452163,0.13176570035789084,0.023192343541400595,0.1857198375347086,-0.12727356350363084,0.04626555453933598,-0.18914419288518367,0.13289741487435436,0.01800881651213579,-0.18427610193498378,-0.1319500084841305,0.017357411630402303,0.21066778060849087,-0.01378699407317809,0.15422665081090384,0.876626122102795,-1.5797719653369116,-0.02965022236382916,0.18867691563634245,0.01378699407317809,0.15422665081090384,0.876626122102795,1.5797719653369116,0.04724223370492888,0.24970614341444944,30.0,3,0.3,0,7,0.21530216065840788,337.0947789024965,0.14575571064886123,92.94605468174613,0.30239301445002065,30.0,0,0,0,0
0.04,0.0,0,0,1,1,0,0,0,1,0.02984442130731541,0.0,0.023873835730056265,0.7853556335166999,0.0,0.6281824388956546,0.005337760217309881,-0.0005750115572665057,0.31296293188096513,0.023760798638181552,-0.036716833889792966,-0.0009600797538091384,0.18745842341249336,0.13188101667245922,0.04947361068808345,0.1934109035158003,-0.1272085729762649,0.06382653028509006,-0.1953834382416337,0.13220617868264128,0.018414716697492478,-0.1845411014289459,-0.1317770978830802,0.017370964054959442,0.22283017965446655,-0.018956693201626306,0.029247204612773917,-0.6030486978259985,-1.0721964167455824,-0.02873822036321206,0.19298575834715115,0.018956693201626306,0.029247204612773917,0.6030486978259985,1.0721964167455824,0.05261205609326833,0.2645545076420458,25.0,3,0.3,0,7,0.2718908926216126,190.80797950876914,0.09523783817156665,16.00584825852701,0.9304805834635457,25.0,0,0,0,0
0.05,0.0,0,0,1,1,0,0,1,1,0.03769768309009279,0.0,0.030154717620856746,0.7853261782777381,0.0,0.628088189080048,0.007604663229389178,-0.0007554432224521798,0.31304217680858415,0.018590017537995145,-0.04636312963927658,-0.0013193275852569448,0.19366776721045914,0.1343272541808866,0.07884311899035895,0.19807635593549358,-0.12939122189468094,0.07739534835675001,-0.19568028354851255,0.1317083173682148,0.018427674865732352,-0.1844778532619333,-0.13178595143694916,0.017383869995617418,0.2312155116839845,-0.014372126367485128,-0.034419002150539765,-0.40358439447224104,-0.8589965175894954,-0.011978072106262172,0.19351782859389172,0.014372126367485128,0.034419002150539765,0.40358439447224104,0.8589965175894954,0.04213278972711892,0.2500227446884958,5.0,3,0.3,0,7,0.2518518551403382,54.01677852165669,0.06802444886458747,35.29609071091179,0.558371887202487,5.0,0.0,0.0,0.02,0.0
0.06,0.0,0,0,1,1,0,0,1,1,0.04555057281195724,0.0,0.036434409055038704,0.7852889721864452,0.0,0.6279691434181958,0.00998966862190829,-0.0008918189926698009,0.3125075178365696,0.014923205403206692,-0.05499911922374823,-0.0014688981583861292,0.19903308598050043,0.13744241086094958,0.1029940358769614,0.20132713928329005,-0.13181862867401412,0.08989699541707534,-0.19588106063743643,0.13140701547628347,0.01844131974710775,-0.1844347137951989,-0.13179514863182928,0.01739861949610519,0.23734120995459534,-0.014414206348266442,-0.0908552927736441,-0.3002750798277501,-0.8696816332640183,0.0071787777183747944,0.1917906371426381,0.014414206348266442,0.0908552927736441,0.3002750798277501,0.8696816332640183,0.02925563133666391,0.2354604748275685,10.0,3,0.3,0,7,0.24064040637370968,27.367553064626833,0.06003633551450076,18.10548408037541,0.5452616539278141,10.0,0,0,0,0
0.07,0.0,0,0,1,1,0,0,1,1,0.05340301296805755,0.0,0.04271266212113687,0.7852440156100309,0.0,0.6278253066098166,0.01240794198439413,-0.0010142228220909374,0.3116133903996078,0.012921463588867482,-0.06301721608822675,-0.0015530486355280846,0.20335419894955173,0.14017997452857203,0.11806823574823419,0.20455405527869586,-0.13333524986140918,0.09810285486678255,-0.19583714576884007,0.13139928345118923,0.018453697689638393,-0.18439807010398288,-0.13180357419382568,0.017414110856948828,0.23459671677858637,-0.013379984723923362,-0.11122973112902024,-0.10034677176003544,-0.7480048354343966,0.005811192411485781,0.18119370381052882,0.013379984723923362,0.11122973112902024,0.10034677176003544,0.7480048354343966,0.03690146970965109,0.23147515824410325,0.0,3,0.3,0,7,0.23650629770369083,16.41629988356399,0.07184144661975274,37.578896301566964,0.47991932141407245,0.0,0,0,0,0
0.08,0.0,0,0,1,1,0,0,1,1,0.06125492605797953,0.0,0.048989228964470284,0.7851913089921981,0.0,0.6276566843333414,0.01480849721677267,-0.0011510923899080035,0.3105537688043313,0.012491294309986264,-0.06970337340216837,-0.0014428482285926913,0.20657513806535668,0.14230821408645225,0.12303175160491668,0.2085037923337132,-0.1339374521636967,0.10149854624701297,-0.19578325619163045,0.13138685292092492,0.018465139354532173,-0.18435530731735664,-0.13181646964553737,0.017429445725145543,0.2306323004712251,-0.015289731027006195,-0.1336606215605854,0.009080188234387915,-0.5727944370327751,0.0313972165667022,0.16937737441324557,0.015289731027006195,0.1336606215605854,0.009080188234387915,0.5727944370327751,0.017592012397768086,0.20225911783801986,0.0,3,0.3,0,7,0.2135155722163896,14.46303721607641,0.06793823765492507,25.151568192788783,0.12116329832163114,0.0,0,0,0,0
0.09,0.0,0,0,1,1,0,0,1,1,0.06910623458651093,0.0,0.055263861796927174,0.7851308528531393,0.0,0.627463283245689,0.017202511708700644,-0.0013027956870291656,0.309322619556049,0.012327518394024788,-0.074096766451901,-0.0010518334795089504,0.2098649750472622,0.1434443534076282,0.1212770573543911,0.2125805259976227,-0.13387885649556425,0.1005099379226923,-0.19571381376163371,0.13136844156923588,0.01847541763483959,-0.18429283109646058,-0.1318350490459873,0.017443936042354696,0.23137260729101974,-0.01777593406414295,-0.14871206803753925,-0.020905244727311374,-0.32216463109021265,0.06092721703180065,0.16226637270450883,0.01777593406414295,0.14871206803753925,0.020905244727311374,0.32216463109021265,0.005663355234873477,0.18570566200352528,0.0,3,0.3,0,7,0.1884849407920556,22.364175367068007,0.07164580401510298,43.73833162905227,0.15725994634635226,0.0,0,0,0,0
0.1,0.0,0,0,1,1,0,0,1,1,0.07695686106440629,0.0,0.06153631290674721,0.7850626477895362,0.0,0.6272451109820033,0.01965327487852558,-0.0014712698224006123,0.30788748615066375,0.012148298941992689,-0.07633725613075426,-0.0003409405438546225,0.2140682717144965,0.14326302400252117,0.11516341390630686,0.21629897595199526,-0.13275266948792253,0.09648710936834905,-0.19563220818369417,0.1313440755931896,0.018485154803166093,-0.18421344024603237,-0.13185935692181952,0.017458120570547825,0.23476931714823843,-0.01948149566078113,-0.17822835930542053,-0.06723690560887961,-0.10282340386562987,0.08129354415454038,0.15781245608383215,0.01948149566078113,0.17822835930542053,0.06723690560887961,0.10282340386562987,0.019757231247793168,0.19705118299240645,0.0,3,0.3,0,7,0.1955617556819017,26.18596311790717,0.06426809312268912,26.84213950066903,0.3474154268449716,0.0,0,0,0,0
0.11,0.0,0,0,1,1,0,0,1,1,0.08480672800915168,0.0,0.06780633466830074,0.784986694474539,0.0,0.6270021761553536,0.022161391140833615,-0.0016267265821962107,0.3060709188796618,0.012170207821840754,-0.07599819747674896,0.0004497576334107664,0.2183014006016069,0.14212479841373538,0.10702434852608712,0.2201759261859082,-0.13143176990526947,0.09052298383640793,-0.19553955966157668,0.13132045691941677,0.01849465749722351,-0.1841246111498308,-0.1318828813654887,0.017472019872930206,0.2374862651560621,-0.016387835045240984,-0.22025793480505657,0.12193945701887496,0.18272205306679987,0.07178108358079127,0.15267953714691043,0.016387835045240984,0.22025793480505657,0.12193945701887496,0.18272205306679987,0.003974748912490528,0.17304212110464195,0.0,3,0.3,0,7,0.18465311544096927,16.601124708426234,0.05136668063628559,37.7755620923831,0.4366627425065033,0.0,0,0,0,0
0.12,0.0,0,0,1,1,0,0,1,1,0.09265575794572947,0.0,0.0740736795518646,0.7849029936577795,0.0,0.6267344883563855,0.024741820623454484,-0.0017683666653463576,0.30381868509128884,0.012413220525372843,-0.07260920560995565,0.0012946817067708268,0.22226402487882205,0.14072138779111748,0.09756937703048953,0.22352507611407013,-0.13002659477694184,0.08326227396301285,-0.19543540668443854,0.1312952415259946,0.0185040778738024,-0.184021385707831,-0.13190793873402695,0.01748567652759453,0.24480609166662992,-0.017780041493016926,-0.2696089209923571,0.04101563002210024,0.49464098134839696,0.09513757303895849,0.15215033372090045,0.017780041493016926,0.2696089209923571,0.04101563002210024,0.49464098134839696,0.021063893487093893,0.19099426870101127,0.0,3,0.3,0,7,0.18013291658957836,16.90916798963516,0.05227173677756751,25.71400345376056,0.5136065630203641,0.0,0,0,0,0
0.13,0.0,0,0,1,1,0,0,1,1,0.10050387340738298,0.0,0.08033810013339421,0.784811546165351,0.0,0.6264420581529608,0.027400569071781268,-0.0018953888101463493,0.301043453043858,0.01224245277342374,-0.06624661416353783,0.0022797802750691974,0.22538947596290818,0.13957596546378323,0.08603204097725906,0.22613866078359882,-0.12847576313443768,0.07490868580590603,-0.19532553967523303,0.13127035342846824,0.01851372030293935,-0.18390905761846435,-0.131932670327654,0.017499331571433574,0.24742973519096195,-0.015860408508054355,-0.31955303598616375,-0.037037960656783706,0.7661633391348317,0.07804700380521004,0.14692586178357897,0.015860408508054355,0.31955303598616375,0.037037960656783706,0.7661633391348317,0.0022910963281841668,0.1650773666198175,0.0,3,0.3,0,7,0.17721435375204023,12.51137768816883,0.043506869890600514,33.56076760176366,0.680246316189093,0.0,0,0,0,0
0.14,0.0,0,0,1,1,0,0,1,1,0.10835099693638103,0.0,0.08659934910429141,0.7847123528998051,0.0,0.6261248970897206,0.03011823475085569,-0.0019990430492229957,0.2977492870083836,0.011453674980509122,-0.05745124806186297,0.003213629052214254,0.2269704027329235,0.13830316279549124,0.07170746325426997,0.2275767574714178,-0.12671327104044075,0.06446983569989911,-0.195212440767433,0.13124767774315838,0.018523764338751997,-0.1837921121924277,-0.13195522646208227,0.017513134376003464,0.2523873973708318,-0.012534067415327919,-0.3728459232199768,-0.02538749728461879,1.0102743996743708,0.0794922305261374,0.1440364004344508,0.012534067415327919,0.3728459232199768,0.02538749728461879,1.0102743996743708,0.00710711857815402,0.16367758642793273,0.0,3,0.3,0,7,0.1640148844584155,16.344672801064785,0.04631970747671731,21.500277978097067,0.832740527431796,0.0,0,0,0,0
0.15,0.0,0,0,1,1,0,0,1,1,0.11619705108478236,0.0,0.09285717928116781,0.7846054148401324,0.0,0.6257830176876394,0.03290030287522955,-0.002051991600757735,0.2938516525867513,0.011484312160741729,-0.0464359779223007,0.004021998824300942,0.22554737673172115,0.1378077027968562,0.05392587617778029,0.2262998982697621,-0.12563082012291904,0.05154305117807784,-0.19509676472605283,0.13122962690802356,0.01853437533658167,-0.18367659197480166,-0.1319733091208605,0.017527492103534714,0.265742805449282,-0.011216704820379144,-0.4358280261449592,-0.04826696940104546,1.192466571530086,0.06881975039835679,0.14954575436449968,0.011216704820379144,0.4358280261449592,0.04826696940104546,1.192466571530086,0.02403742888281102,0.18479988806768985,0.0,3,0.3,0,7,0.18001771431048705,22.153405736037342,0.05003571330417032,28.775853024689752,0.9998749313267017,0.0,0,0,0,0
0.16,0.0,0,0,0,0,0,0,1,1,0.12404195841520015,0.0,0.09911134361560314,0.7844907330417789,0.0,0.6254164334435333,0.03583914343308439,-0.002081018724662962,0.2892859805605905,0.01063151987075388,-0.03319044590090603,0.005009149441998832,0.22062093728028537,0.1382175604580626,0.03465991914191163,0.2209264702188415,-0.12552613849919117,0.036774812066388385,-0.19497059420529872,0.13120929758149466,0.018546003572024378,-0.18354431053882178,-0.13199354453492737,0.017542749711283945,0.2845902426336022,-0.007978383053784618,-0.49889701521950863,-0.0883523667063577,1.43137071544884,0.08705715788334636,0.16054828421840206,0.007978383053784618,0.49889701521950863,0.0883523667063577,1.43137071544884,0.012054185732256778,0.18058085300444346,10.0,3,0.3,0,7,0.1764149318776421,16.91917132997465,0.052907424406636504,20.829341450487796,1.0897416006105605,10.0,0,0,0,0
0.17,0.0,0,0,0,0,1,0,1,1,0.13188564150156615,0.0,0.10536159520389834,0.7843683086366001,0.0,0.6250251588295203,0.039088621897361855,-0.0021533045864920454,0.28557990898208635,0.015706035346355424,-0.011406902212338865,0.007067914858936608,0.2141281403700469,0.1370624682715425,0.01696338116409457,0.204226184882423,-0.12344803173090584,0.014255741822252838,-0.19462542697224977,0.13115855080330016,0.01856070699145737,-0.18320826504247395,-0.13204248646183195,0.017557954713496637,0.3622654650489372,-0.02192217258516311,-0.25779515322780944,1.094220628211219,3.0477976808637197,0.281110037763619,0.23037982354737105,0.02192217258516311,0.25779515322780944,1.094220628211219,3.0477976808637197,0.17574844255972064,0.4280504386922548,55.0,3,0.3,0,7,0.3050231565561134,639.7310002281234,0.18420573404033458,267.56843776033,2.2442779748716255,55.0,0.12999999999999998,0.0,0.0,0.0
0.18,0.0,0,0,0,0,1,1,1,1,0.1397280229298949,0.0,0.11160768729682284,0.7842381428328743,0.0,0.6246092092924496,0.04301627078345139,-0.0023234644454885683,0.2845591618267976,0.01948210714622089,0.017739002185365615,0.010066730257731487,0.21404441088314763,0.13707501288719076,0.0170060181770878,0.20396677172198527,-0.12339833232749693,0.014312580660579027,-0.2022357827554112,0.13086382258438348,0.01872515165791261,-0.18263651460780922,-0.1320815194774796,0.01758815808521705,0.3984166833789872,-0.011117976569245382,0.046177710610581756,-0.8890528538907849,2.6167248107528587,0.1547645362687815,0.25868866044909233,0.011117976569245382,0.046177710610581756,0.8890528538907849,2.6167248107528587,0.043156848971958664,0.3129634859902964,90.0,3,0.3,0,7,0.4008759139080298,542.1645227589086,0.21411364478834777,203.34198672753564,1.6506466052349675,90.0,0.0,0.17,0.0,0.0
0.19,0.0,0,0,0,0,1,1,0,1,0.1475690252990478,0.0,0.11784937330935583,0.7841002369152916,0.0,0.6241686012532984,0.046907272598747135,-0.002364516223535315,0.28570003333915556,0.009524533957715537,0.043032028921500265,0.011571259004879689,0.21409027633688996,0.13707358910714046,0.017032925435935903,0.20306287478038,-0.12322794070559934,0.014349926906274568,-0.21808735760889764,0.1301045418781364,0.025070522296357145,-0.18217739600241661,-0.13234208630528882,0.017745797414868286,0.36816411353996864,-0.009793116691264606,0.166252322893835,-0.6849005439326334,2.2775484662595944,0.11665129757475982,0.22059508824092083,0.009793116691264606,0.166252322893835,0.6849005439326334,2.2775484662595944,0.001198075734596002,0.23158628066678144,75.0,3,0.3,0,7,0.25389089269152865,302.91717474991935,0.1483174836965671,183.42231505083637,0.48847580314524874,75.0,0,0,0,0
0.2,0.0,1,1,0,0,1,1,0,0,0.15540857122149707,0.0,0.124086406830421,0.7839545922449259,0.0,0.623703352106518,0.05048794372451828,-0.0024425756927223216,0.28712717796181875,0.00686300969043524,0.06081329897604748,0.013231823163446078,0.21422640825752595,0.13708373536261953,0.017051456961983513,0.2032527336844504,-0.12321949892863615,0.01437632269850564,-0.2215053369331914,0.13084768418573048,0.041229927372622655,-0.18376796457033562,-0.13545100566002613,0.02060190410531962,0.32769505207942984,-0.007827355466942248,0.1812789914446567,0.11110788767810065,1.5411020051776503,0.14729103114887182,0.17228648085793277,0.007827355466942248,0.1812789914446567,0.11110788767810065,1.5411020051776503,0.023204624318450814,0.20331846064332582,45.0,3,0.3,0,7,0.23799363694080894,106.91094614771616,0.09611509907962124,67.736354476483,0.6859618333808384,45.0,0,0,0,0
0.21,0.0,1,1,0,0,1,1,0,0,0.16324658332408937,0.0,0.1303185416326145,0.7838012102592301,0.0,0.6232134802193492,0.05367436972296552,-0.002529123469870924,0.28880056224010986,0.011018258889127018,0.07428660112032981,0.014799839884811657,0.21440440054419257,0.13709476409859742,0.017066729764405653,0.2034505463825729,-0.12321014490315214,0.01440003641116272,-0.2179072361573377,0.12922262150104244,0.053200725722316516,-0.18129780302066711,-0.13573520145946805,0.034520274142919694,0.29089576388663785,-0.014079254122926453,0.1908800752560421,0.2822563981819511,1.1462106934899108,0.13505771559315002,0.12764918056254848,0.014079254122926453,0.1908800752560421,0.2822563981819511,1.1462106934899108,0.004739173960535525,0.14646760864601047,0.0,3,0.3,0,7,0.1703370635214224,128.8272439462944,0.10192410447709048,85.49996067800654,0.5371853365038113,0.0,0,0,0,0
0.22,0.0,1,1,0,0,1,1,0,0,0.17108298424880955,0.0,0.1365455316819254,0.7836400924720183,0.0,0.6226990049310904,0.05663555547054797,-0.0026445244047412393,0.2904857140549937,0.013389750945555024,0.08349179814166874,0.016513161015527533,0.2146064644679637,0.13710664199120515,0.017080627885267347,0.20368253271290812,-0.12319932290858975,0.014422662286835253,-0.2098762431450992,0.12878696539173515,0.06396911928988186,-0.178366659616073,-0.13584785452878415,0.04906113962255251,0.2690047443572993,-0.013484238222629496,0.195725577521202,0.3012406704103257,0.7766791234331987,0.1673660314928142,0.09792176010848977,0.013484238222629496,0.195725577521202,0.3012406704103257,0.7766791234331987,0.030820499810888802,0.14222649814200805,0.0,3,0.3,0,7,0.15410440088488006,50.14624524499221,0.06442397677235048,48.25439983727155,0.5382924638774391,0.0,0,0,0,0
0.23,0.0,1,1,0,0,1,1,0,0,0.17891769665354415,0.0,0.1427671311474489,0.7834712404734601,0.0,0.6221599465523503,0.05937396355017142,-0.0027704292988117514,0.2922243665520471,0.01677562950326307,0.08991318772255341,0.018124221086030616,0.21482884073659173,0.13711686366525305,0.017094019002701744,0.20392530301339365,-0.12318964555939109,0.014444720859391441,-0.19943138518723597,0.12736513964035107,0.0739447853011646,-0.1744692393303212,-0.13565265049408737,0.062356054569098235,0.24841007776486426,-0.013839023752505411,0.19563522773370473,0.29222825954758797,0.4498104778277308,0.16134345425177793,0.06949238111132011,0.013839023752505411,0.19563522773370473,0.29222825954758797,0.4498104778277308,0.018576323104329023,0.10190772796815455,0.0,3,0.3,0,7,0.10393632741091405,58.5398115195966,0.05829997555241996,68.54660503213509,0.3602548013164639,0.0,0,0,0,0
0.24,0.0,1,1,0,0,1,1,0,0,0.18675064321284485,0.0,0.1489830944110912,0.7832946559300696,0.0,0.6215963263642293,0.06194771764280232,-0.002883916311172506,0.29396243366325514,0.019435953002734117,0.09304011937025702,0.019864278146032113,0.21506897835786778,0.137128918704439,0.01710732989173741,0.20419038662225472,-0.1231777490975125,0.014467047714139314,-0.18785446034287692,0.1266739007320941,0.08253195215538955,-0.16747733915675883,-0.13534131219825507,0.0743661520466242,0.23137347953305332,-0.012961918456505994,0.1988107682421021,0.20217009942303255,0.20519423942751408,0.15096262569490407,0.04462283632020847,0.012961918456505994,0.1988107682421021,0.20217009942303255,0.20519423942751408,0.0019795312838128687,0.059564286060527334,0.0,3,0.3,0,7,0.08747729125394363,49.43543921831018,0.060371169591482234,43.41180713547893,0.4358095071050043,0.0,0,0,0,0
0.25,0.0,1,1,0,0,1,1,0,0,0.19458174661869126,0.0,0.15519317607726604,0.7831103405846418,0.0,0.6210081666174844,0.06436211274028744,-0.0030181383016321204,0.29567190775351765,0.020370308764086298,0.09361964916566845,0.021322985452892733,0.21532078000910035,0.13713769138125886,0.01712072412652052,0.20446788574920363,-0.12316868289332329,0.014489677937774142,-0.1757660105189488,0.12617492157355928,0.0900825406735429,-0.1602498964827069,-0.1357177029977664,0.0831437088668463,0.21679380482453817,-0.014093584656858657,0.18838867659238345,0.0831316918621603,-0.06288019746246623,0.1566999484344656,0.022212058205846902,0.014093584656858657,0.18838867659238345,0.0831316918621603,0.06288019746246623,0.001506772357199565,0.037812415219905124,0.0,3,0.3,0,7,0.05450860909360583,45.067747594544116,0.05678842476743401,59.89733536582439,0.33355213607267087,0.0,0,0,0,0
0.26,0.0,1,1,0,0,1,1,0,0,0.2024109295812544,0.0,0.16139713098258265,0.782918296256313,0.0,0.6203954905316611,0.06662974834834158,-0.003158880629320095,0.2972526475470971,0.021099846296262475,0.09184356068720811,0.022764029813199766,0.21557849833337178,0.13714512496426698,0.017134314181037197,0.20474996804394094,-0.12316083888776726,0.014512625438270615,-0.16403634015716828,0.125868800641776,0.09614345628640791,-0.15365242465890963,-0.1363244664471193,0.0892667289234029,0.2053987215867393,-0.017746941872621717,0.16667757504930716,0.0022991320707759274,-0.29486009409949293,0.13708301907232123,0.002987792005484907,0.017746941872621717,0.16667757504930716,0.0022991320707759274,0.29486009409949293,0.02431411191026142,0.04504884578836804,0.0,3,0.3,0,7,0.040509978820626916,34.89149688881347,0.05150113833316814,36.07015951708394,0.33674624570248357,0.0,0,0,0,0
0.27,0.0,1,1,0,0,1,1,0,0,0.21023811482965918,0.0,0.16759471420552421,0.7827185248404783,0.0,0.6197583222941561,0.06877269601538379,-0.003312669635728303,0.29862023473206567,0.02166488099226675,0.08795965777019865,0.02435091188183019,0.21583333577113448,0.13715521556369054,0.01714787901549919,0.2050341554091646,-0.12315061128860302,0.014535915048511094,-0.15296895847868883,0.12557784962930793,0.10023074650021827,-0.14817894308247043,-0.1363773003955715,0.0931006698730189,0.19609192760444585,-0.015759959147089705,0.14357244480572004,0.13279256239516612,-0.4671013057072248,0.19807310910992582,0.014146187225213325,0.015759959147089705,0.14357244480572004,0.13279256239516612,0.4671013057072248,0.0304783949044016,0.06038454127670463,0.0,3,0.3,0,7,0.04191465111947616,31.964845949769103,0.04857399980574719,51.279852896377314,0.23865328593036028,0.0,0,0,0,0
0.28,0.0,1,1,0,0,1,1,0,0,0.21806322511274712,0.0,0.17378568107611705,0.7825110283087938,0.0,0.619096687059284,0.07080540599564247,-0.0034479881540331837,0.29968351174058977,0.022639027818217368,0.08215492414801462,0.026070413110433517,0.21608298660421454,0.13716553388327465,0.017161292241289622,0.20531233110308394,-0.1231402646118102,0.014559191363481078,-0.14379978671253546,0.1253177780127757,0.10228893607586459,-0.14284010916618742,-0.1366335340301651,0.0947709003301421,0.1896691325529224,-0.015939420035294097,0.10469784758455139,0.07538497058810295,-0.6637804959481001,0.16703680898579237,0.028394092559824724,0.015939420035294097,0.10469784758455139,0.07538497058810295,0.6637804959481001,0.006748872090324681,0.0510823846854435,0.0,3,0.3,0,7,0.05179570685327225,24.114824218607744,0.04711552857894511,29.10115786216887,0.20391778332294908,0.0,0,0,0,0
0.29,0.0,1,1,0,0,1,1,0,0,0.2258861831998389,0.0,0.17996978718558976,0.7822958087091797,0.0,0.6184106109472703,0.0727284971308925,-0.0035775062214915897,0.3003871620349285,0.023276428051411946,0.07483887315575943,0.027737626333825073,0.2163181121366835,0.13717631997994498,0.0171741559801534,0.20557952949712438,-0.1231296352794482,0.014582096983356718,-0.13579981676972355,0.12550294539735524,0.10168804568925202,-0.1369107245053301,-0.13690865112833678,0.09486324122783582,0.1823732040501731,-0.01574175554463711,0.06314438145281727,0.03427741770855175,-0.8227493065824437,0.18955368361484587,0.043512979149665815,0.01574175554463711,0.06314438145281727,0.03427741770855175,0.8227493065824437,0.009583896429256111,0.06883863112355904,0.0,3,0.3,0,7,0.06291779175519868,21.893099772530856,0.045442069370952784,41.93168979186676,0.07989089144708905,0.0,0,0,0,0
0.3,0.0,1,1,0,0,1,1,0,0,0.23370691188149645,0.0,0.186146788396022,0.7820728681657535,0.0,0.6177001210432242,0.07453824448558137,-0.0036911516797196917,0.30068065259618465,0.02378370209220844,0.0658140431141927,0.02936937081290134,0.21653872564057158,0.13718675847835923,0.017186498328912947,0.20583216084334768,-0.12311948616551961,0.01460453214172433,-0.12980497354013143,0.12584139734073377,0.09858929337268216,-0.13113196718481537,-0.1377363802478256,0.09268327324987771,0.1726589578048406,-0.016428133241103187,0.025035531145523624,0.004593945606435642,-0.9440900480471209,0.18460617500730656,0.061047954076655836,0.016428133241103187,0.025035531145523624,0.004593945606435642,0.9440900480471209,0.001540613388715445,0.07901670070647447,0.0,3,0.3,0,7,0.07370384220765984,19.871812273289894,0.04529539907760137,28.787082127145926,0.03693552873421996,0.0,0,0,0,0
0.31,0.0,1,1,0,0,1,1,0,0,0.241525333970285,0.0,0.19231644084998276,0.7818422088788551,0.0,0.6169652453960756,0.07620704435042874,-0.003812037307200298,0.30066227839479664,0.023664615967015357,0.05595961725465526,0.031088174096656988,0.21673620104186525,0.13719783833850394,0.017197947292041937,0.20606823374913324,-0.12310890571424393,0.014626302687676396,-0.12510782343080062,0.12624219770688472,0.09183928209145527,-0.12477548706164879,-0.13849502405014544,0.08835998096973413,0.15983621609396953,-0.015980468911670518,-0.008032706032388233,-0.04381871335933375,-1.0335573923177341,0.2066663748857543,0.08168911787631547,0.015980468911670518,0.008032706032388233,0.04381871335933375,1.0335573923177341,0.014349934035771533,0.11201952082375752,0.0,3,0.3,0,7,0.09759423035970143,25.429086188841715,0.04583824893666784,45.07603747118755,0.14151298495365733,0.0,0,0,0,0
0.32,0.0,1,1,0,0,1,1,0,0,0.249341372301535,0.0,0.1984785009801572,0.7816038331249997,0.0,0.6162060130174452,0.07773934837145079,-0.003884903696710276,0.30036070586372204,0.023233888823751443,0.04504907098412736,0.03297982253974285,0.21691534514657815,0.13721348510835474,0.017208699550622514,0.20629459746964068,-0.12309384565875836,0.01464777996384034,-0.12157735452320997,0.1266613102954913,0.08171664649801658,-0.11725409083249211,-0.1394841284356797,0.08139257231720987,0.1496529771389895,-0.011842340755516455,-0.03426287619004369,-0.16013734933649282,-1.1665018040766761,0.22994459091510158,0.09968839516254549,0.011842340755516455,0.03426287619004369,0.16013734933649282,1.1665018040766761,0.031466089934944375,0.14299682585300633,0.0,3,0.3,0,7,0.12617101756621635,30.707505006328223,0.044925800164392474,30.88000462876611,0.2679023714381019,0.0,0,0,0,0
0.33,0.0,1,1,0,0,1,1,0,0,0.2571549497341036,0.0,0.2046327255189626,0.781357743256858,0.0,0.6154224538805403,0.0791541386401012,-0.00393994800346888,0.2998665056642676,0.020493546109753936,0.03207184775852423,0.035048419174318134,0.21708844176958242,0.13723177771927153,0.017219135787980955,0.20653055369877651,-0.12307573899789835,0.014670045801282866,-0.11684027604903119,0.12724095101373828,0.06965683951177723,-0.10854510157445665,-0.14099648782163374,0.07261672075786033,0.1349648326163503,-0.012058253659279396,-0.04925474074474946,-0.43513574037750424,-1.4469554443585606,0.2392360812651418,0.12219011711775327,0.012058253659279396,0.04925474074474946,0.43513574037750424,1.4469554443585606,0.034603355746179176,0.16885172652321184,0.0,3,0.3,0,7,0.1577714392085857,52.01721797421843,0.054104161490477774,60.33958107138354,0.4025479201775407,0.0,0,0,0,0
0.34,0.0,1,1,0,0,1,1,0,0,0.2649659891511359,0.0,0.21077887150815186,0.7811039417032317,0.0,0.614614598918925,0.0804200517953319,-0.004005457460132055,0.29948394038048154,0.01647535809621781,0.015408109793284996,0.03716799688974918,0.21729918731533335,0.13725246087591045,0.01723172919131266,0.2068043723673904,-0.12305465089630974,0.014695754672181954,-0.11032748158623185,0.12719092109090296,0.05624309580046882,-0.09770942235417454,-0.14212172078620597,0.06278562782822303,0.12002437949703497,-0.009975150249653956,-0.006828400991620845,-0.38965599159329856,-1.9528756611513878,0.24894581890771977,0.1449416096541009,0.009975150249653956,0.006828400991620845,0.38965599159329856,1.9528756611513878,0.03816694739956791,0.19308370730332278,0.0,3,0.3,0,7,0.1826570749120366,100.36780668175963,0.06764898025969288,62.082372282697555,0.5745130290655052,0.0,0,0,0,0
0.35000000000000003,0.0,1,1,0,0,1,1,0,0,0.2727744134608264,0.0,0.21691669630840524,0.7808424309690531,0.0,0.6137824800253378,0.08154444265955153,-0.004067110018672019,0.2998493679819653,0.011351953040444087,-0.008871809371681083,0.03917563579674461,0.2177786752074356,0.13732264315231163,0.01743944886137519,0.20749130361806625,-0.12304259347125218,0.014946153053509131,-0.09827472440807425,0.12672129135290544,0.045988271421244634,-0.08130565818099572,-0.14179981116881973,0.05371795787609698,0.10049591310077095,-0.011479776237800592,0.06983247281915075,-0.6343990042387111,-2.7104226241434493,0.21030301264709017,0.1722785003600555,0.011479776237800592,0.06983247281915075,0.6343990042387111,2.7104226241434493,0.006613683661315067,0.19037196025917114,0.0,3,0.3,0,7,0.1887580387616054,264.5673887433387,0.09564188430884532,117.14110821923512,1.0850527606001563,0.0,0,0,0,0
0.36,0.0,0,0,0,0,0,0,0,0,0.2805801455971796,0.0,0.2230459576089092,0.7805732136353161,0.0,0.6129261300503952,0.08243202736393047,-0.004122872174875269,0.2999504209614291,0.008043908473121678,-0.03353243008671014,0.04087923104633709,0.22372631121033615,0.13925027164171272,0.021959741448498854,0.21656261477491628,-0.12389520729326806,0.01895045732784756,-0.08211727510921504,0.1242953849719875,0.03587827738529245,-0.06743338851631517,-0.14154426126972913,0.04216453542288651,0.07809633320570065,-0.010249850918750539,-0.04953472722812761,-0.29486803375931736,-2.3836865018450633,0.1956153603338227,0.20248381239147895,0.010249850918750539,0.04953472722812761,0.29486803375931736,2.3836865018450633,0.027430597275086482,0.24016426058531595,0.0,3,0.3,0,7,0.22878403420556204,49.03909162189315,0.06513097201796089,0.0,0.14263544049940746,0.0,0,0,0,0
0.37,0.0,0,0,0,0,0,0,0,0,0.2883831085207705,0.0,0.22916641343692262,0.7802962923590895,0.0,0.6120455828013432,0.08327662476362595,-0.0041616358636467465,0.2987819396286,0.00560079204784192,-0.0570864947840064,0.04293682806326809,0.23237165174434612,0.13896889746914318,0.033033635335642325,0.22979419668170067,-0.12365624991703018,0.02688838695783305,-0.06445475823090557,0.12177479416441914,0.025946653398075836,-0.056493138827765854,-0.14077398308975342,0.030768916720816997,0.07812750702812073,-0.006087316478610971,-0.17641297657752317,-0.0857667644369684,-2.410273607096027,0.23112160827602396,0.21025560149264977,0.006087316478610971,0.17641297657752317,0.0857667644369684,2.410273607096027,0.0019551948391013374,0.21829811281036207,0.0,3,0.3,0,7,0.21784213793556156,54.95609533623313,0.035149977044122496,0.0,0.5536814492322852,0.0,0,0,0,0
0.38,0.0,0,0,0,0,0,0,0,0,0.29618322521950524,0.0,0.23527782216732931,0.780011669873476,0.0,0.6111408730406692,0.08425501832372287,-0.0041888667877526325,0.2966014053676689,0.0037897550048256413,-0.08262100010130302,0.04510575110531653,0.23865505235359405,0.1388310885818712,0.04304551766511719,0.24334975050162833,-0.1225302339448004,0.03425257194769246,-0.05221804319755363,0.11917703128048324,0.016490233722490116,-0.05164433342747679,-0.14002683688955986,0.01744636564579144,0.08548788038798714,-0.010895092985555604,-0.2794400096671257,-0.3739452797048215,-2.750881090493411,0.23480296438917686,0.21069534483151808,0.010895092985555604,0.2794400096671257,0.3739452797048215,2.750881090493411,0.00047485777815245434,0.22206529559522614,0.0,3,0.3,0,7,0.22392453731435208,37.50294773658119,0.0358682442442925,59.99840655209211,1.0601645027645166,0.0,0,0,0,0
0.39,0.0,0,0,0,0,0,0,1,1,0.3039804187093811,0.0,0.24137994253217698,0.7797193489875842,0.0,0.6102120364847669,0.0852679305974862,-0.004237231039298845,0.2941792696727787,0.003374975227429864,-0.10553893045577722,0.04744415515593829,0.24252006636403822,0.13953681379556654,0.04948090059680299,0.2520936358662764,-0.12242039709670219,0.03928670616017424,-0.05246513973605388,0.11912586214194938,0.016524802960029478,-0.05196137389417482,-0.1400837236871135,0.01748382761172451,0.08385006942991403,-0.008287237442419172,-0.195167921820602,0.07019515224139516,-1.803640588982474,0.23005579495256162,0.22013034927946706,0.008287237442419172,0.195167921820602,0.07019515224139516,1.803640588982474,0.011324147579615362,0.23974173430150159,40.0,3,0.3,0,7,0.24511588472728665,139.89553421378457,0.11662487905181278,99.89338721324378,1.2548152450421526,40.0,0.0,0.0,0.20000000000000004,0.19000000000000003
0.4,0.0,0,0,1,1,0,0,1,1,0.3117746120352462,0.0,0.2474725336302022,0.7794193325865117,0.0,0.6092591098025207,0.08658991465787408,-0.004237713460427521,0.29272429588572285,0.004535108900865148,-0.12138807729272405,0.0497436613926543,0.24525181247388275,0.13953395794194443,0.05542351882737276,0.25650044992731563,-0.1231414831660892,0.04437535240571547,-0.05265930475353495,0.11908701214841741,0.01654678381920266,-0.05210990074771568,-0.14013008562573628,0.017508547429668994,0.14948559370118614,-0.009310484661367968,-0.12462348540463239,0.06725197319488914,-1.4572968369707082,0.2535989447658209,0.16228901833406006,0.009310484661367968,0.12462348540463239,0.06725197319488914,1.4572968369707082,0.006126411135618709,0.17772591413104674,40.0,3,0.3,0,7,0.20487983699867124,417.1700133948892,0.16879143237895558,138.44460059022168,0.08262549221659177,40.0,0,0,0,0
0.41000000000000003,0.0,0,0,1,1,0,0,1,1,0.31956572827155894,0.0,0.2535553549363405,0.7791116236312734,0.0,0.6082821306138325,0.0884906818463507,-0.004229868174697898,0.29193887248932376,0.004067734864559471,-0.13318746023840022,0.052413002909803864,0.24623343890281357,0.13897238189721853,0.0629773329545428,0.2595015110985892,-0.1240295141512498,0.053294772358143505,-0.05272272323885896,0.11904704171533416,0.01656445695337376,-0.05211491454664413,-0.14017523301177626,0.017528341616284512,0.20446816596504597,-0.008732711023934052,-0.07816145993337421,-0.0945197746031527,-0.9196043919146141,0.2805797564677488,0.11509756230651297,0.008732711023934052,0.07816145993337421,0.0945197746031527,0.9196043919146141,0.027024401531408282,0.1508546748618553,0.0,3,0.3,0,7,0.16354064303042054,357.61253156978074,0.16249329314497335,85.39406905181946,0.06490890350316236,0.0,0,0,0,0
0.42,0.0,0,0,1,1,0,0,1,1,0.32735369052314756,0.0,0.2596281663112222,0.778796225158862,0.0,0.6072811374881693,0.09079155613479384,-0.004199815229937485,0.29168251548097934,0.0012887956195623532,-0.140346678901208,0.05535703243560347,0.24718519694269478,0.1384382683161039,0.07152728981859321,0.26182288937592046,-0.12492342153871293,0.0618367806938597,-0.052681505717240285,0.11900812030726457,0.01657973534081139,-0.052004630619583214,-0.1402165874293283,0.017544841201305436,0.2407592109982066,-0.010652377871054365,-0.037242953336153496,-0.32205402900331376,-0.5121212966858902,0.297085822170616,0.08659447952494095,0.010652377871054365,0.037242953336153496,0.32205402900331376,0.5121212966858902,0.03745765585939381,0.13470451325538912,0.0,3,0.3,0,7,0.1443515393618387,244.53121911783848,0.12582655695461029,105.35055914783611,0.07039206882609139,0.0,0,0,0,0
0.43,0.0,0,0,1,1,0,0,1,1,0.33513842192596877,0.0,0.2656907280106526,0.778473140282121,0.0,0.6062561699430369,0.09336085154930436,-0.0041625012033503364,0.29178062993427883,-0.0016069763770564227,-0.14382208334053326,0.058411836577360036,0.24911095599316846,0.13833983391722018,0.07875417956217726,0.26469043877213894,-0.12608908939183738,0.06908700051197023,-0.0525610583148437,0.11897201091752077,0.016594122249700513,-0.05181996831726951,-0.14025389474493355,0.01756007269402947,0.27056362367428566,-0.01193191721280048,-0.02087961241720985,-0.2690183250703561,-0.1978315425587272,0.3136248503249512,0.06457479825168311,0.01193191721280048,0.02087961241720985,0.2690183250703561,0.1978315425587272,0.04793412231429861,0.1244408377787822,0.0,3,0.3,0,7,0.1253124575821635,186.40267138910332,0.11105550834733699,58.20754398843286,0.0500067579678779,0.0,0,0,0,0
0.44,0.0,0,0,1,1,0,0,1,1,0.3429198456478665,0.0,0.2717428006950765,0.7781423721897718,0.0,0.6052072684423926,0.09622639262878532,-0.004109707865956071,0.2920062760949565,-0.004321262215821836,-0.14474697506354217,0.06153326460021123,0.25288113741569385,0.1386098904957476,0.08587352659383177,0.26847283440990644,-0.12711215951124707,0.0757410823573064,-0.0523869529216166,0.11893812349191188,0.01660898582162433,-0.05158339812546406,-0.14028822108855607,0.017575634860812442,0.3036894507077824,-0.012884027780172048,-0.01756317142704619,-0.23313117836680208,-0.01039581626824242,0.3148685474584397,0.03923039494008407,0.012884027780172048,0.01756317142704619,0.23313117836680208,0.01039581626824242,0.04312574676336317,0.09524016948361928,0.0,3,0.3,0,7,0.10128699984816039,182.53119096837364,0.10902675189245688,80.49387973680442,0.019918967564421353,0.0,0,0,0,0
0.45,0.0,0,0,1,1,0,0,1,1,0.3506978848893299,0.0,0.2777841454390272,0.7778039241463419,0.0,0.6041344743950683,0.09942971573675466,-0.004031876032253352,0.29226680729293064,-0.006572888273983098,-0.14409038961353793,0.06469067510345693,0.2581570422876877,0.13967073261619228,0.0925769295289725,0.273204517440362,-0.12794764927519794,0.08154895551559288,-0.05217025032359929,0.11890748706776341,0.016624860935055302,-0.05130763645538061,-0.14031909126678338,0.01759227280422751,0.3367218525388142,-0.011276272712307057,-0.023188485263346145,-0.13735418433828753,0.14517382275097385,0.2979501279460346,0.0139760323505157,0.011276272712307057,0.023188485263346145,0.13735418433828753,0.14517382275097385,0.020165982507007407,0.045418287569830164,0.0,3,0.3,0,7,0.07163973082563294,171.3521148787807,0.10770753679587017,49.81139377885485,0.05925297208129121,0.0,0,0,0,0
0.46,0.0,0,0,1,1,0,0,1,1,0.35847246288425194,0.0,0.28381452374055854,0.7774577994922038,0.0,0.6030378301531358,0.10297350867304811,-0.003916886725798425,0.2925130014931456,-0.008317890342899596,-0.1424542988477635,0.06769934198408652,0.2645439230550438,0.14106005572756705,0.09783755839242636,0.2791469935263541,-0.12808947079226085,0.08647502486858155,-0.05192224365737527,0.1188797514830743,0.016642065695144564,-0.05100148783417571,-0.14034686005520758,0.01761034149411192,0.37278156958216707,-0.01319549636726215,-0.032059278634380045,-0.16571254413240055,0.16221448041105574,0.30579848434330487,0.01430910669791513,0.01319549636726215,0.032059278634380045,0.16571254413240055,0.16221448041105574,0.021983960602746322,0.049488563667923605,0.0,3,0.3,0,7,0.037817376853772386,161.73149857105705,0.10308044736344635,70.34914123634572,0.08170693901000414,0.0,0,0,0,0
0.47000000000000003,0.0,0,0,1,1,0,0,1,1,0.3662435029006865,0.0,0.28983369753066096,0.7771040016434583,0.0,0.6019173790102417,0.10690011984492226,-0.0037713526803826156,0.29264363014451544,-0.010004620146268657,-0.14090712171749176,0.07061468789498715,0.2714944712782199,0.14305469476661092,0.1011487563966681,0.2863607446074333,-0.1281019389919922,0.09001714384553917,-0.0516558453571726,0.1188549745558795,0.016661037690478095,-0.050676652780196924,-0.14037174645382838,0.017630455300429712,0.40775135166000037,-0.010815007252147195,-0.052055556649739154,-0.08527876832244294,0.1302157997889089,0.2711414367258023,0.04150784875931385,0.010815007252147195,0.052055556649739154,0.08527876832244294,0.1302157997889089,0.01869226080485864,0.07101511681631968,0.0,3,0.3,0,7,0.0545117902749328,143.2246163533576,0.0969992376067692,42.969538359301986,0.13636045528128404,0.0,0,0,0,0
0.48,0.0,0,0,1,1,0,0,1,1,0.3740109282416059,0.0,0.29584142918265965,0.7767425340919398,0.0,0.6007731651998693,0.11117706703901678,-0.0035790241037948803,0.29261600073356686,-0.01100988897675779,-0.139520666111151,0.07339740693027988,0.2798569938176604,0.14506253847384043,0.10325640484467621,0.29458236837822604,-0.12760371222433375,0.0920618071525063,-0.05137324574600827,0.11883116199281718,0.01668174423966534,-0.0503336994351232,-0.14039597789462968,0.017652659809573368,0.4384873229014429,-0.012562649772805629,-0.07312945678187217,-0.13299779704625106,0.15034591238073555,0.2897269741061743,0.06447639465983696,0.012562649772805629,0.07312945678187217,0.13299779704625106,0.15034591238073555,0.006114455076485337,0.08315349950912793,0.0,3,0.3,0,7,0.08126605051830271,132.41332443248325,0.09213492464310873,62.11068880415651,0.20991088772764588,0.0,0,0,0,0
0.49,0.0,0,0,1,1,0,0,1,1,0.3817746622456579,0.0,0.3018374815215959,0.7763734004052003,0.0,0.5996052338936242,0.11577241216910307,-0.003370128775480317,0.2924240417129175,-0.012302656510762898,-0.1377836878130676,0.07636882397407664,0.2888372219583797,0.1469020318095015,0.10339790636063138,0.303648134600334,-0.12659305159428608,0.09257110296457645,-0.051072620517137485,0.11880528620045702,0.01670405311996115,-0.04996833662256353,-0.14042251033013933,0.01767701718719164,0.46665301288693617,-0.012224979463578053,-0.09090928175980365,-0.05664944580887648,0.17686661006208618,0.2953097601593047,0.08487835064127824,0.012224979463578053,0.09090928175980365,0.05664944580887648,0.17686661006208618,0.006527721362291183,0.10363105146714748,0.0,3,0.3,0,7,0.09211605302060144,116.24800473367104,0.08682805848229139,40.28720591719424,0.24412340927802734,0.0,0,0,0,0
0.5,0.0,0,0,1,1,0,0,1,1,0.3895346282879222,0.0,0.3078216178335902,0.7759966042264255,0.0,0.5984136311994293,0.12064776893622996,-0.003118540706896657,0.29209168624798115,-0.012281087744799149,-0.1355348394596878,0.0793703480707583,0.298835698671873,0.1486604973116733,0.10098298508333095,0.31273956348286636,-0.12480995109160234,0.09079132634332279,-0.050748222738206505,0.11878053930050791,0.016727643682329166,-0.049581267762843134,-0.14044869818964784,0.017703070740115373,0.4902026783636228,-0.012737926289094034,-0.1054939193465633,0.06211203570677432,0.276040038311696,0.30824406202478444,0.10066805007570062,0.012737926289094034,0.1054939193465633,0.06211203570677432,0.276040038311696,0.0004224441911942489,0.11382842055598891,0.0,3,0.3,0,7,0.11072857321245877,105.5724797778909,0.0831450686251208,59.83455892511991,0.30479598909232286,0.0,0,0,0,0
0.51,0.0,0,0,1,1,0,0,1,1,0.3972907497806668,0.0,0.3137936018751874,0.7756121492744628,0.0,0.5971984041597211,0.1257573043174632,-0.0028558901519636875,0.2916648242205559,-0.011639187536891865,-0.13200179259193723,0.08252108058231897,0.3090829725165475,0.14988021421203235,0.0952899095752999,0.3222721444637995,-0.12218214488291873,0.0871809789178658,-0.05039541581573548,0.11875513884021058,0.016752314851901234,-0.049166202874316056,-0.1404757787284908,0.017730462198495722,0.5121385215270396,-0.014527302478898609,-0.11906233995916235,0.08047860698284312,0.4274967200307473,0.3159819903296694,0.11484777174637284,0.014527302478898609,0.11906233995916235,0.08047860698284312,0.4274967200307473,0.002188388454481993,0.13156346267975344,0.0,3,0.3,0,7,0.1289545589445878,98.65529985178215,0.0808034551553796,40.01413688798201,0.34791771342011213,0.0,0,0,0,0
0.52,0.0,0,0,1,1,0,0,1,1,0.4050429501741038,0.0,0.31975319788268336,0.7752200393436992,0.0,0.595959600749596,0.13109176892677896,-0.0025531698277204136,0.2910903919303823,-0.010713324435688513,-0.12683001832679475,0.08548056171680876,0.319201832801456,0.15052172857706872,0.08721962868005377,0.3323177768595143,-0.11915126548126208,0.0810545867920777,-0.05001434384580744,0.1187363510397833,0.016778388168109296,-0.0487269529530259,-0.14049579218644934,0.01775878488139851,0.5328711211568019,-0.012604939840534433,-0.13215892545798555,0.1677854066233842,0.5821710577397989,0.2918358122944697,0.1278281709826981,0.012604939840534433,0.13215892545798555,0.1677854066233842,0.5821710577397989,0.02791738558821366,0.1683504964114462,0.0,3,0.3,0,7,0.15588243919198727,91.94759126989277,0.07447660852656486,57.90029603146188,0.4300349219012305,0.0,0,0,0,0
0.53,0.0,0,0,1,1,0,0,1,1,0.4127911529571451,0.0,0.325700170581432,0.774820278304128,0.0,0.5946972698748665,0.13663826909113397,-0.002215657983466424,0.2903808125212248,-0.009500302726017974,-0.1199993827558321,0.08842846018919286,0.33058561517404567,0.15065227399456277,0.07704264935321677,0.34215642674305996,-0.11587946735562508,0.07180986641883423,-0.049605793235220436,0.11872061033741378,0.016805815175245695,-0.048260877340106256,-0.14051231924588045,0.017788318258762426,0.5524576167674351,-0.012181412710160789,-0.14753275272400201,0.13625755855897975,0.7856920782379193,0.289535405660822,0.13966646381029002,0.012181412710160789,0.14753275272400201,0.13625755855897975,0.7856920782379193,0.03616476492061005,0.18801264144106086,0.0,3,0.3,0,7,0.17206104147582874,94.27493478858844,0.07189116481928406,37.838692593603824,0.5293233255016276,0.0,0,0,0,0
0.54,0.0,0,0,1,1,0,0,1,1,0.4205352816581571,0.0,0.3316342851951342,0.7744128701012043,0.0,0.593411461370219,0.1424028353093814,-0.0018308270844316322,0.28948516254048823,-0.008582683187035207,-0.11091105015443681,0.0911777060011049,0.3420610364727492,0.1508209732325877,0.06495251549689951,0.3523768732019771,-0.11280136575215896,0.06059343389983832,-0.04916618974924927,0.11871194617978026,0.016835053170956238,-0.047766616876893014,-0.1405206810443116,0.017819111434554336,0.5759338516435261,-0.012844249625118516,-0.16632674344187728,0.0975631224503391,1.0253185555381301,0.2862892531791219,0.15539856998536894,0.012844249625118516,0.16632674344187728,0.0975631224503391,1.0253185555381301,0.04534503201601231,0.21358785162649976,0.0,3,0.3,0,7,0.20866998724954705,90.88585205740871,0.07091497972147388,58.507633467516186,0.5333893895789648,0.0,0,0,0,0
0.55,0.0,0,0,1,1,0,0,1,1,0.42827525984571624,0.0,0.3375553074551057,0.7739978187559116,0.0,0.5921022259971487,0.14844014783524237,-0.0014087837511686345,0.28833198790534215,-0.007769244770682897,-0.09947946512656913,0.09383450622750537,0.3516981522006095,0.15083637253260682,0.0507450090592,0.36228179397170024,-0.10982682286802874,0.04890004901686204,-0.04869448287774886,0.11870954875878229,0.016866553030555925,-0.047243948468367075,-0.1405220783457056,0.017851839504168104,0.6024635077676552,-0.011464511898473223,-0.19054563652755624,0.14465158112408227,1.2529781107936095,0.25525208115855075,0.174188247921939,0.011464511898473223,0.19054563652755624,0.14465158112408227,1.2529781107936095,0.08230322629655495,0.26795598611696714,0.0,3,0.3,0,7,0.2439231106828042,80.2793246940163,0.06991560787144109,37.16646241899951,0.4955163372011264,0.0,0,0,0,0
0.56,0.0,0,0,0,0,0,0,1,1,0.4360110111293624,0.0,0.34346300360952614,0.7735751283646175,0.0,0.5907696154420439,0.15473971834846184,-0.0009256614040942056,0.2868311659719593,-0.007205126135609122,-0.08569439353238195,0.09628717117116554,0.3570534336733019,0.1507977825129527,0.033748707439617165,0.37020981167598976,-0.10831011650138311,0.03620486886177861,-0.048195145224678215,0.1187142072304034,0.016900440316356707,-0.046693561798970745,-0.1405150152414124,0.017886631245880663,0.6282030112780961,-0.008664373745927167,-0.2303495405083962,-0.04898681674160136,1.5097831985796075,0.2553092027522682,0.19219200014873367,0.008664373745927167,0.2303495405083962,0.04898681674160136,1.5097831985796075,0.08815380085725794,0.28901017475191876,10.0,3,0.3,0,7,0.2815765155263994,61.87350092876754,0.06554867371091984,47.125475972764264,0.477895311496114,10.0,0,0,0,0
0.5700000000000001,0.0,0,0,0,0,0,0,1,1,0.44374245916035343,0.0,0.3493571404326669,0.7731448030991017,0.0,0.5894136823140772,0.16126873263591734,-0.000462297283182165,0.28531809183678114,-0.005776842790173713,-0.06491903916645958,0.09943320206315855,0.3573040747749824,0.1511330148575213,0.01624562007856059,0.36807310893249934,-0.10779622877512117,0.01955122184803562,-0.047579011859778086,0.11871572430004908,0.016940416447023293,-0.04604380396013216,-0.14051161679265703,0.01792646681870133,0.6610792724474065,-0.024209916687971008,-0.1492023024021565,0.5101315312817388,2.606368621147461,0.4100156310855258,0.21733681328705307,0.024209916687971008,0.1492023024021565,0.5101315312817388,2.606368621147461,0.06065849065285889,0.30220522062788296,50.0,3,0.3,0,7,0.2602353461027312,240.42785693892398,0.10454616651036072,78.8235065711112,1.0134652521379754,50.0,0,0,0,0
0.58,0.0,0,0,0,0,1,1,1,1,0.45146952763241865,0.0,0.3552374852340987,0.7727068472065224,0.0,0.5880344801431792,0.16815060205858876,-2.1499749747272518e-05,0.28519125381488614,0.0003369965313296199,-0.03554832853707235,0.10359637718255933,0.3570577769918815,0.15112444114237997,0.014263181236497335,0.36729656434216107,-0.1076184272831065,0.01765045604995666,-0.04889240071143869,0.11863067612952943,0.017019197048939283,-0.04523384307027299,-0.14049084324647973,0.01798164109323669,0.7016117297878582,-0.020464676148219556,0.08053006060877096,0.17217745918503208,2.947252941706968,0.39019221122819064,0.2501422021554396,0.020464676148219556,0.08053006060877096,0.17217745918503208,2.947252941706968,0.03495472599409194,0.3055616042977511,70.0,3,0.3,0,7,0.3359421898548301,469.98851913517166,0.16531230766288807,232.13025380387307,1.1530177603371765,70.0,0.22000000000000006,0.22000000000000006,0.0,0.0
0.59,0.0,0,0,0,0,1,1,1,1,0.4591921402825117,0.0,0.3611038058678774,0.7722612650093053,0.0,0.5866320633778677,0.17514362995697894,0.0005820383171676995,0.28707768419503144,-0.003588288796395225,-0.007369021251601993,0.1071992775302364,0.35725237216352335,0.15118089904872012,0.014321979736221402,0.36765105113546626,-0.1075539883755879,0.017697001390831663,-0.06197354227342464,0.11767508288710277,0.019458567661597537,-0.044408370406468625,-0.14052850288264712,0.01805558302502913,0.7038230755399553,-0.011725782533520131,0.2259240722702821,-0.6414043792679003,2.5203608280639798,0.35567527749753625,0.24463093525744356,0.011725782533520131,0.2259240722702821,0.6414043792679003,2.5203608280639798,0.005428528370341135,0.26178524616130483,100.0,3,0.3,0,7,0.2712587732718782,360.71794656188547,0.15284201623876065,128.3095005209744,0.42059475964534077,100.0,0,0,0,0
0.6,0.0,1,1,0,0,1,1,0,0,0.46691022089156364,0.0,0.3669558707417092,0.7718080609051936,0.0,0.585206487383183,0.18203722859736665,0.0012189564098330251,0.2891081533740839,-0.005583800617323668,0.012500184323019248,0.11075163747099973,0.3575635324478852,0.15125113197914603,0.014370600702573899,0.3680822450560736,-0.10747756428379993,0.01773824995423634,-0.07273146674600427,0.11752042354855324,0.031138448437886157,-0.044046538583902825,-0.1440332296296331,0.021895927912398083,0.6736989012714808,-0.00923089246333743,0.19210606795216525,0.3780541269495951,1.6667337711886427,0.3409332469857894,0.20678868037991716,0.00923089246333743,0.19210606795216525,0.3780541269495951,1.6667337711886427,0.026022623755919794,0.2420421965991744,55.0,3,0.3,0,7,0.24767553210809384,49.01369717912183,0.08592980021819416,74.26377669991052,0.9480139323635015,55.0,0,0,0,0
0.61,0.0,1,1,0,0,1,1,0,0,0.4746236932852346,0.0,0.3727934488260932,0.7713472393670984,0.0,0.583757808438401,0.18858600209134732,0.0018997595279478903,0.2907361158705781,0.0015460261952733431,0.026999717836881043,0.1141525515338271,0.3579113464038821,0.15133042169314118,0.014414357585222248,0.36851264647905435,-0.10739443694579506,0.01777668396341897,-0.07444657042994118,0.11558208729718311,0.0445295936353543,-0.03965110417938025,-0.14571963898838705,0.0369559028188281,0.6406088560166293,-0.0066608159842777405,0.1686144777272669,0.5779774153246623,1.3120970806107772,0.3518555210064856,0.1659851627313947,0.0066608159842777405,0.1686144777272669,0.5779774153246623,1.3120970806107772,0.020937927819607627,0.19358390653528004,0.0,3,0.3,0,7,0.2121562927886942,89.63293909279315,0.0857694764752397,40.48156508479136,0.7155296054841598,0.0,0,0,0,0
0.62,0.0,1,1,0,0,1,1,0,0,0.4823324813346662,0.0,0.3786163096634422,0.7708788049431592,0.0,0.5822860837348953,0.1949409586998203,0.002543246652901011,0.29214712275853316,0.004614469983063932,0.03792888818796669,0.11787006908520843,0.3582722144806274,0.15140811591921127,0.014454882665986185,0.368980464025502,-0.10731034001370778,0.01781270289639289,-0.07137853771589277,0.1139852657510222,0.056836434332927704,-0.034014240467968096,-0.1459359389481038,0.05333435958236249,0.6275359621612592,-0.010545335210747938,0.15765384737394567,0.14623455441924205,0.8916939317129943,0.37358841432492607,0.14520348082659296,0.010545335210747938,0.15765384737394567,0.14623455441924205,0.8916939317129943,0.0050278953385161085,0.160776711375857,0.0,3,0.3,0,7,0.16884258997462398,38.868552907297016,0.056740107449792056,55.554492380993125,0.6126214724365444,0.0,0,0,0,0
0.63,0.0,1,1,0,0,1,1,0,0,0.4900365089572325,0.0,0.38442422337718063,0.7704027622566278,0.0,0.5807913713738455,0.2011858554928752,0.0031780951945557254,0.2934234211365579,0.0065307163266563,0.04587880460049476,0.12165043123439438,0.3586509650766545,0.15148626432413032,0.014493635412323236,0.3694662860854162,-0.10722526316504266,0.017847741392766403,-0.06511348780863577,0.11189000435654887,0.06735239353501982,-0.028004505961422108,-0.14606737171847775,0.06637511357052936,0.6140794702141246,-0.010716766725417274,0.14921044640927592,0.13482012574913613,0.7144492698940247,0.38104648517664397,0.12404296125689207,0.010716766725417274,0.14921044640927592,0.13482012574913613,0.7144492698940247,0.003377738200536662,0.138137466182846,0.0,3,0.3,0,7,0.15219012799846957,32.74631119238793,0.05407450313772699,33.76372618250089,0.5737186317219618,0.0,0,0,0,0
0.64,0.0,1,1,0,0,1,1,0,0,0.4977357001172911,0.0,0.3902169606808198,0.7699191160058627,0.0,0.5792737303639162,0.20727636404727995,0.003815521909708037,0.29453913383822006,0.006965758364126252,0.05186839088177608,0.1255390509291036,0.35903257216797047,0.15156430927639136,0.014530577838472308,0.36996142460931897,-0.10713936167963717,0.017881678977456433,-0.05592403583883562,0.11097651516583032,0.07669984535996716,-0.018290798805888298,-0.14621886836447473,0.07707103752721028,0.5990118005287681,-0.011812103317190072,0.13442304966364255,-0.05879867488591657,0.49470896445111373,0.37518933099624524,0.101276100411477,0.011812103317190072,0.13442304966364255,0.05879867488591657,0.49470896445111373,0.01502762968457455,0.12811583341324162,0.0,3,0.3,0,7,0.1259102756461792,34.608679899848624,0.05295204029330647,52.16232438564115,0.3932765728242953,0.0,0,0,0,0
0.65,0.0,1,1,0,0,1,1,0,0,0.5054299788269336,0.0,0.39599429288700977,0.769427870964251,0.0,0.5777332206189978,0.21324777532406347,0.004460041461398918,0.2954871688545633,0.006722296681129355,0.05588483207450956,0.1292395224998229,0.3594244123894461,0.15164195859207036,0.014566529448703347,0.37046166440217576,-0.10705386680666727,0.01791489815755029,-0.04522643098012222,0.11045630019450334,0.08408113733457848,-0.006371876912211499,-0.14653307787770947,0.08481858132523865,0.590081981761933,-0.010178006214713415,0.11849272223435003,-0.02224145631827899,0.3035538871236714,0.37338253468823207,0.08465200293499942,0.010178006214713415,0.11849272223435003,0.02224145631827899,0.3035538871236714,0.0226117581987777,0.11744176734849053,0.0,3,0.3,0,7,0.12925714497716567,29.357050518490336,0.050591987676283465,33.015278416944184,0.29146967345449193,0.0,0,0,0,0
0.66,0.0,1,1,0,0,1,1,0,0,0.5131192691467354,0.0,0.4017559919165674,0.7689290319801811,0.0,0.5761699029557643,0.2191040807180812,0.005125929530632316,0.2962505241686784,0.006548862118120966,0.05791581433493187,0.13307083319714655,0.3598212681888512,0.15172211066021468,0.014601445964779552,0.37096753269222515,-0.10696570788200907,0.017947879539587624,-0.033135147422792915,0.11058908044442313,0.0900035121111627,0.006341272052789559,-0.1465366266106802,0.08992942589819108,0.5772978414751042,-0.009357576348231991,0.10299539513046707,-0.015696410498724715,0.1194595931077462,0.3847348456929174,0.06417857232836877,0.009357576348231991,0.10299539513046707,0.015696410498724715,0.1194595931077462,0.01702114622365003,0.09055729490025079,0.0,3,0.3,0,7,0.09959953028212229,26.517466374840666,0.05078682291174863,53.29490677068725,0.23348130780576293,0.0,0,0,0,0
0.67,0.0,1,1,0,0,1,1,0,0,0.5208034951865055,0.0,0.4075018303074806,0.7684226039770037,0.0,0.5745838390913194,0.22481581018863617,0.0057954954082976885,0.296846122389395,0.006830533611422934,0.058085866338738024,0.1369551904413146,0.3602229867772565,0.15180256646909615,0.01463542026352821,0.3714733575216935,-0.10687755752766251,0.017980363185708864,-0.020526636735912873,0.1107300925484983,0.09428035295236406,0.01870799395880937,-0.1460261992169577,0.09335165241366952,0.5641592834881305,-0.01097847633189961,0.08059702374300004,0.009849393374542149,-0.09670806034557075,0.3861107769380736,0.04335578830162501,0.01097847633189961,0.08059702374300004,0.009849393374542149,0.09670806034557075,0.021391053369406998,0.07572531800293161,0.0,3,0.3,0,7,0.07898951094575417,22.669035372265082,0.048371352011290905,35.130263541518204,0.19196717424311238,0.0,0,0,0,0
0.68,0.0,1,1,0,0,1,1,0,0,0.5284825811060347,0.0,0.4132315812238882,0.767908591952926,0.0,0.5729750916407594,0.2303785635381143,0.006453648297045318,0.2972175400988774,0.007441102873338596,0.05626544666507827,0.1408525614476067,0.3606250600813543,0.15188259987966596,0.014668473592884479,0.3719757593079096,-0.10679012804441398,0.018012285893961644,-0.007856046034342895,0.11139189739999976,0.09661985389726338,0.030845723815974196,-0.1455625482043978,0.09511171410459687,0.5500288994230238,-0.01140676232973921,0.057912866275867905,0.10939590728347748,-0.2552212573831804,0.39967632997987823,0.021546318316989055,0.01140676232973921,0.057912866275867905,0.10939590728347748,0.2552212573831804,0.01355525124400997,0.04650833189073823,0.0,3,0.3,0,7,0.06072725028091441,21.41495102894371,0.047066487543321385,52.35249187467768,0.12551914760407534,0.0,0,0,0,0
