time,trans_flag,des_cont_state_fl,des_cont_state_fr,des_cont_state_rl,des_cont_state_rr,cont_state_fl,cont_state_fr,cont_state_rl,cont_state_rr,vel_cmd_x,vel_cmd_y,vel_cmd_yaw,acc_cmd_x,acc_cmd_y,acc_cmd_yaw,base_pos_x,base_pos_y,base_pos_z,base_ang_roll,base_ang_pitch,base_ang_yaw,FL_foot_pos_x,FL_foot_pos_y,FL_foot_pos_z,FR_foot_pos_x,FR_foot_pos_y,FR_foot_pos_z,RL_foot_pos_x,RL_foot_pos_y,RL_foot_pos_z,RR_foot_pos_x,RR_foot_pos_y,RR_foot_pos_z,base_vel_x,base_vel_y,base_vel_z,base_vel_roll,base_vel_pitch,base_vel_yaw,x_vel_err,y_vel_err,z_vel_err,roll_vel_err,pitch_vel_err,yaw_vel_err,cmd_err,cont_err,terr_freq,terr_height,failed,gait_id,base,CoT,musculoskeletal,foot_force,MWE,stability,FL_stride_t,FR_stride_t,RL_stride_t,RR_stride_t
0.01,0.0,1,1,1,1,1,1,1,0,0.006283178692509316,0.0,0.005026527078818862,0.6283178692509316,0.0,0.5026527078818862,-6.357397800836475e-05,-1.0330601659985211e-05,0.3099052754831004,-0.00029341073791422785,0.0004938342825300257,1.291001560572275e-05,0.18297244045293642,0.13204908918643257,0.017331637857368576,0.18297566288138672,-0.13205088091440995,0.01733160740363318,-0.183009442150183,0.13204863977036627,0.017331568231297306,-0.18300647032308287,-0.13205122188707907,0.01733155971381306,-0.015050532733401817,-0.0028215471235894358,-0.0244871760028013,-0.10402908896676644,0.10346864010436455,0.005425505051388277,0.02133371142591113,0.0028215471235894358,0.0244871760028013,0.10402908896676644,0.10346864010436455,0.00039897797256941477,0.02455423652206998,85.0,3,0.3,0,42,0.013148989752638656,7.530162445739618,0.02947223071473328,36.771909273516556,0.017894316468470742,85.0,0,0,0,0
0.02,0.0,1,1,1,1,1,1,1,1,0.014137091596022201,0.0,0.011309492449657768,0.7853912903512885,0.0,0.6282965370838907,-0.00025715478063457434,-4.369994532504456e-05,0.3094896912990738,-0.0015307526026252126,0.0015398823197352307,9.543561780795741e-06,0.18290969340089205,0.13204668766081187,0.017339891821029796,0.18291856253175814,-0.13205322833025007,0.01733976936386919,-0.1830464538572318,0.13204664894993343,0.017339526390636628,-0.18303763433040116,-0.13205308716765665,0.017339488447833368,-0.02252895769083343,-0.0025000262768672806,-0.058588400537403294,-0.0415293217293702,0.1018683887073923,-0.00106115137020052,0.03666604928685563,0.0025000262768672806,0.058588400537403294,0.0415293217293702,0.1018683887073923,0.012370643819858288,0.051536719383581196,0.0,3,0.3,0,0,0.04399671406286751,7.035122302871356,0.03925448474534162,33.53941542524332,0.06603190805875386,0.0,0.0,0.0,0.0,0.01
0.03,0.0,1,1,1,1,1,1,1,1,0.02199086497214841,0.0,0.01759201134109972,0.7853773376126207,0.0,0.628251889144195,-0.000513654366611576,-7.342750447413454e-05,0.30877624615002003,-0.002157112067446001,0.002474201387147934,-2.180803413470085e-05,0.18282703246980872,0.13204432472542915,0.017348429108383273,0.1828381501653166,-0.1320555614399379,0.017348248675435607,-0.18310630463375738,0.13204482831659226,0.01734767245549837,-0.18309491098923406,-0.1320547763701506,0.017347599448882145,-0.02862476263186032,-0.003080957797711444,-0.08335138780276144,-0.046574108246115485,0.09052786435865885,-0.00029113321814159204,0.05061562760400873,0.003080957797711444,0.08335138780276144,0.046574108246115485,0.09052786435865885,0.01788314455924131,0.07157972996096149,0.0,3,0.3,0,0,0.06582663051696824,5.7064560843412,0.04027312341895855,58.30260318732038,0.10328691794943808,0.0,0,0,0,0
0.04,0.0,1,0,0,1,1,1,1,1,0.02984442130731541,0.0,0.023873835730056265,0.7853556335166999,0.0,0.6281824388956546,-0.0007639626227431666,-0.00012440090857273434,0.30782744016723995,-0.0014947398851585013,0.003573027618848812,0.0001810413714493768,0.18054371682127657,0.1325906553842692,0.01846564344808499,0.18148626683025362,-0.13127092091279088,0.01973783867533574,-0.18316698114612864,0.13203635718452142,0.017355858531077295,-0.18458755326753035,-0.1321434059865824,0.017358196310679197,0.000395458962338886,-0.00972527562034907,-0.11968228276659336,0.4575723844195444,0.16397736794318518,0.06067138068119291,0.02944896234497652,0.00972527562034907,0.11968228276659336,0.4575723844195444,0.16397736794318518,0.03679754495113664,0.07597178291646223,30.0,3,0.3,0,3,0.07090116964310385,109.30895243474781,0.0819605194240604,47.64949720726996,0.2882188346610917,30.0,0,0,0,0
0.05,0.0,1,0,0,1,0,0,1,1,0.03769768309009279,0.0,0.030154717620856746,0.7853261782777381,0.0,0.628088189080048,-0.0005108639519285194,-0.00033968533960039294,0.3064748806512587,0.005845276783203237,0.006390782423216335,0.001366929009149208,0.16944293211582978,0.13793614257082246,0.019321019159387748,0.1768058106907243,-0.12780719748090733,0.027944243163526977,-0.18323417642846712,0.1319514509143289,0.017363637821774913,-0.1928449745909944,-0.1313164073313384,0.01741945810821005,0.04752596541711325,-0.03182389591703508,-0.1421921212073112,0.9682094340851893,0.4450481038661025,0.16237643372131494,0.00982828232702046,0.03182389591703508,0.1421921212073112,0.9682094340851893,0.4450481038661025,0.1322217161004582,0.17387389434451372,50.0,3,0.3,0,3,0.13419020499680806,235.33862027179174,0.136933855682217,81.5889113880085,0.6907958467924532,50.0,0,0,0,0
0.06,0.0,1,0,0,1,0,0,0,1,0.04555057281195724,0.0,0.036434409055038704,0.7852889721864452,0.0,0.6279691434181958,1.2995619624981878e-05,-0.0005794957621439501,0.3047138085985619,0.011931022016878711,0.009777702081606998,0.002434466638672022,0.15983194696429565,0.14194319888153664,0.019420105676461713,0.17539806964342344,-0.12408142936860703,0.0365056226342258,-0.18508034937708762,0.13037666745955578,0.02516783098300346,-0.19708405915577315,-0.13113837123255082,0.017452424064894945,0.06004056321205606,-0.023450942896658312,-0.21040322724634516,0.2986282748428349,0.18813798271009702,0.07918029449635376,0.014489990400098816,0.023450942896658312,0.21040322724634516,0.2986282748428349,0.18813798271009702,0.04274588544131506,0.08068681873807218,45.0,3,0.3,0,3,0.09904362632475228,77.1853406991069,0.07497997383669741,25.18038546356402,0.2380755090966885,45.0,0,0,0,0
0.07,0.0,1,0,0,1,1,0,0,1,0.05340301296805755,0.0,0.04271266212113687,0.7852440156100309,0.0,0.6278253066098166,0.0005678975280840841,-0.000831255539658431,0.3025712387950796,0.01340940536074064,0.011263715903635063,0.003306065783638378,0.15917270529031782,0.1421855685118109,0.019428530794223603,0.17600031777425992,-0.12264562344701113,0.045689821126132346,-0.18715029610300044,0.13017113780700126,0.037942113510405356,-0.19731353125238313,-0.13116270426627943,0.017463748765463916,0.052748955567307805,-0.02898874599793695,-0.20641142105465568,0.1588934326359834,0.26475734183936855,0.07309624421943338,0.0006540574007497454,0.02898874599793695,0.20641142105465568,0.1588934326359834,0.26475734183936855,0.03038358209829651,0.060026385496983206,0.0,3,0.3,0,3,0.07996082326270862,48.15752789384116,0.08041580067125978,78.50409700314295,0.12300157370932774,0.0,0.02,0.0,0.0,0.0
0.08,0.0,1,0,0,1,1,0,0,1,0.06125492605797953,0.0,0.048989228964470284,0.7851913089921981,0.0,0.6276566843333414,0.0010915936435062998,-0.0010396345823312574,0.30058083459952106,0.0160770218101282,0.015253762840190976,0.0038566087910175397,0.15905332067277117,0.1421707834634895,0.019434897088064396,0.17733409836977965,-0.12361607440026351,0.05704688579981021,-0.18765579030626106,0.1300154485551905,0.051159905292018526,-0.19735415593621808,-0.1311840398852531,0.017472795869106494,0.05855012440717924,-0.021397707396519552,-0.18556891007549361,0.23211779189840812,0.5146433905590941,0.0440942254624063,0.0027048016508002953,0.021397707396519552,0.18556891007549361,0.23211779189840812,0.5146433905590941,0.004895003502063983,0.02899751254938383,0.0,3,0.3,0,3,0.031600699793517824,76.783854901708,0.08205326677201892,60.871432937711255,0.16464729565899117,0.0,0,0,0,0
0.09,0.0,1,0,0,1,1,0,0,1,0.06910623458651093,0.0,0.055263861796927174,0.7851308528531393,0.0,0.627463283245689,0.0016750571127189865,-0.001228191497511518,0.2989227165801046,0.017536081144353653,0.02116495666130702,0.004430189600136747,0.15893885352302292,0.14215705923190686,0.019441297686483366,0.17756136817132756,-0.1257593263546749,0.06733256501616693,-0.18830184114077383,0.12979547470787442,0.06130019852681487,-0.19734236374213107,-0.13120437473278143,0.017480749120872524,0.06494017235577969,-0.020247726447983123,-0.14387862035106183,0.12510208527764446,0.6589616894746302,0.04025187861156529,0.004166062230731238,0.020247726447983123,0.14387862035106183,0.12510208527764446,0.6589616894746302,0.015011983185361885,0.039425771864076246,0.0,3,0.3,0,3,0.031855493059369994,77.53059851063333,0.0860195060915204,98.08817537133028,0.060758153743135535,0.0,0,0,0,0
0.1,0.0,1,0,0,1,1,0,0,1,0.07695686106440629,0.0,0.06153631290674721,0.7850626477895362,0.0,0.6272451109820033,0.0023397687669727846,-0.0013868057761892078,0.2976862295276947,0.017787993932415022,0.028450563945568774,0.005042692084861948,0.15883847126195755,0.14214625794361818,0.019447227562058356,0.1787165688358943,-0.12813921972838582,0.07628115786807839,-0.18773405940014243,0.12916814560795536,0.06960645345902833,-0.19727721523197214,-0.13122267517797756,0.01748846837359125,0.07451468715614182,-0.018079184762150414,-0.0973411028276394,-0.10268447110531732,0.7596081381875793,0.05817997210132714,0.0024421739082644695,0.018079184762150414,0.0973411028276394,0.10268447110531732,0.7596081381875793,0.0033563408054200702,0.023877699475834954,0.0,3,0.3,0,3,0.030674161314129665,102.9130557078784,0.09422543385565885,64.00634386350093,0.08351694066852289,0.0,0,0,0,0
0.11,0.0,1,0,0,1,1,0,0,1,0.08480672800915168,0.0,0.06780633466830074,0.784986694474539,0.0,0.6270021761553536,0.003154017967491984,-0.00151509133414917,0.2968980063607088,0.01720449523213783,0.03589522069099571,0.005771410043737804,0.15877484634534558,0.14214042865669155,0.01945199902680536,0.18083981384467535,-0.1304126296382357,0.08259880108044543,-0.18564540920892358,0.1283048129753535,0.0758682635274352,-0.19717177271060557,-0.13123894303136305,0.017496528675548295,0.09353329076325645,-0.010985032160332718,-0.05430696617013278,-0.01592855960954637,0.7258430579719345,0.06517646969027935,0.008726562754104772,0.010985032160332718,0.05430696617013278,0.01592855960954637,0.7258430579719345,0.0026298649780213956,0.022341459892458886,0.0,3,0.3,0,3,0.022915773272049612,119.93775743153121,0.09608243655278026,96.87387619673254,0.03224679772815456,0.0,0,0,0,0
0.12,0.0,1,0,0,1,1,0,0,1,0.09265575794572947,0.0,0.0740736795518646,0.7849029936577795,0.0,0.6267344883563855,0.004166041137545788,-0.0016297096215360089,0.29654999479786226,0.016389969910660537,0.04229061949462132,0.006588991006108272,0.15876280310021082,0.14213671474077516,0.019455465999880545,0.18416910941297976,-0.13186153761224242,0.08721834389472158,-0.18211885120254878,0.12759190658515568,0.08079345615251415,-0.19703983376919948,-0.1312561574826703,0.017505103396100896,0.1129215229426719,-0.014354984551576128,-0.011922626970380632,-0.14447927403322314,0.5378597408375392,0.06995673698564786,0.020265764996942423,0.014354984551576128,0.011922626970380632,0.14447927403322314,0.5378597408375392,0.004116942566216739,0.03873769211473529,0.0,3,0.3,0,3,0.02927831029846604,121.95919331312459,0.0960622024178031,63.233762285269336,0.03280964620937271,0.0,0,0,0,0
0.13,0.0,1,0,0,1,1,0,0,1,0.10050387340738298,0.0,0.08033810013339421,0.784811546165351,0.0,0.6264420581529608,0.0053934251507769026,-0.0017665736671595405,0.2965503554530103,0.015401385385006561,0.04692865735834384,0.007421918618695646,0.15880374606545888,0.14213419018061274,0.01945822436996561,0.18759473410342803,-0.13270454297348921,0.09062999892634925,-0.17696685899500883,0.1269181013341338,0.08528072047461802,-0.19689258402298979,-0.13127434229571067,0.017514068134542787,0.132217117908528,-0.012889859900372684,0.022968155429205713,-0.020102416600285954,0.40806614104905214,0.07809184858909515,0.031713244501145016,0.012889859900372684,0.022968155429205713,0.020102416600285954,0.40806614104905214,0.002246251544299055,0.046849355945816754,0.0,3,0.3,0,3,0.04272237891651739,116.7336072629726,0.09051671364920089,92.60083563944818,0.007328588768842043,0.0,0,0,0,0
0.14,0.0,1,0,0,1,1,0,0,1,0.10835099693638103,0.0,0.08659934910429141,0.7847123528998051,0.0,0.6261248970897206,0.006844547745857863,-0.0018816671681694038,0.29686233720982663,0.014764088713088281,0.050423903872569786,0.00816957438297474,0.1588911639377864,0.14213312258813557,0.01946098465884699,0.1911420543691373,-0.13318292867601467,0.09220035497211802,-0.1713838072280522,0.12651570515099042,0.08775093896891979,-0.19672486515913493,-0.13128950143074822,0.017523554563926513,0.15547611617383295,-0.011217448403828623,0.05170245214444525,-0.13100618932039293,0.27836400631597763,0.06251326535358177,0.04712511923745191,0.011217448403828623,0.05170245214444525,0.13100618932039293,0.27836400631597763,0.02408608375070964,0.08242865139199018,0.0,3,0.3,0,3,0.06863452853593219,113.94150158813929,0.08723017318636278,60.03332967322774,0.009050508596324336,0.0,0,0,0,0
0.15,0.0,1,0,0,1,1,0,0,1,0.11619705108478236,0.0,0.09285717928116781,0.7846054148401324,0.0,0.6257830176876394,0.008542442987130123,-0.00198695117668145,0.2974034820498524,0.013304974357268632,0.05231156083793698,0.008876260681022001,0.1590233580835659,0.1421338703827177,0.0194641517973273,0.19457006945907057,-0.13325385959949398,0.09116345806238198,-0.16619657997234227,0.126295121013454,0.08746045876443764,-0.19654501258113485,-0.13130471536897095,0.017533514673212097,0.17702293055033624,-0.011670057347836977,0.07361305268551419,-0.16799374410868106,0.10464737529125018,0.07692472019406067,0.060825879465553886,0.011670057347836977,0.07361305268551419,0.16799374410868106,0.10464737529125018,0.015932459087107137,0.088428395900498,0.0,3,0.3,0,3,0.08793133723876144,102.72031295967875,0.08292749501372107,80.96193038224257,0.011936275466282564,0.0,0,0,0,0
0.16,0.0,1,0,0,1,1,0,0,1,0.12404195841520015,0.0,0.09911134361560314,0.7844907330417789,0.0,0.6254164334435333,0.010438556615475991,-0.0020885868652081004,0.29811292519439675,0.011710891240438802,0.05294320063745883,0.009580720148551264,0.15918712293878726,0.14213555632760283,0.019467896693532855,0.1981397356358434,-0.13309980408269653,0.08717126940270259,-0.16139370619425406,0.12601855395314412,0.08417862091946302,-0.19635391627560606,-0.1313187450257196,0.01754385981602702,0.19149622939849148,-0.009260402371470418,0.08833338451670589,-0.17990277683549336,0.06067674812500586,0.06463539281165014,0.06745427098329133,0.009260402371470418,0.08833338451670589,0.17990277683549336,0.06067674812500586,0.03447595080395301,0.11119062415871477,0.0,3,0.3,0,3,0.10501344536021036,87.23524770865734,0.07175624214733818,49.67026852025766,0.05000548909772562,0.0,0,0,0,0
0.17,0.0,1,0,0,1,1,0,0,1,0.13188564150156615,0.0,0.10536159520389834,0.7843683086366001,0.0,0.6250251588295203,0.012411912251970301,-0.0021788854665675465,0.2989573545210825,0.008812003943348742,0.05382859269853113,0.010374130442474408,0.15935216462283833,0.14213881532463066,0.019471687679353034,0.20321708959257204,-0.13331217218766414,0.07880304345184042,-0.15522167508361284,0.1261012861198117,0.07735460559932661,-0.196142407660652,-0.13133455799214672,0.017554850033311448,0.1937065843979161,-0.011945838537659587,0.09940031022185511,-0.3073199171327328,0.0902686994186765,0.09664727098233568,0.061820942896349956,0.011945838537659587,0.09940031022185511,0.3073199171327328,0.0902686994186765,0.008714324221562667,0.0824811056555722,0.0,3,0.3,0,3,0.09554913989035167,91.49010462028255,0.07199034071257614,67.04896959191296,0.23181832085604587,0.0,0,0,0,0
0.18,0.0,1,0,0,1,1,0,0,1,0.1397280229298949,0.0,0.11160768729682284,0.7842381428328743,0.0,0.6246092092924496,0.014438034441475739,-0.0022689272586231017,0.2998330541234532,0.0069624707319923575,0.05457617602495035,0.011428345850492638,0.1595257951634662,0.14214530133009023,0.019475672052520793,0.20893030109104124,-0.13337612022287407,0.06711154879740865,-0.1492679816359901,0.12581728838502285,0.06767475374863498,-0.19593179418455703,-0.13135228629424447,0.0175658521533964,0.2004309978940021,-0.007284898929721141,0.09876757247795744,-0.01226647979582864,0.09111742639795055,0.1034070520969027,0.060702974964107204,0.007284898929721141,0.09876757247795744,0.01226647979582864,0.09111742639795055,0.008200635199920148,0.0761885090937485,0.0,3,0.3,0,3,0.07527739787930887,65.58050661031274,0.06541156668980894,45.01204808203086,0.08137185776508682,0.0,0,0,0,0
0.19,0.0,1,0,0,1,1,0,0,1,0.1475690252990478,0.0,0.11784937330935583,0.7841002369152916,0.0,0.6241686012532984,0.0165347132459837,-0.002334857230186339,0.30067222001310895,0.006669403263176559,0.055486482429987216,0.012498013224292752,0.15970274574846213,0.14215233928368423,0.019479847443733184,0.21511733713268835,-0.13253213464938132,0.05611469997470432,-0.14409241344166712,0.12502797849190747,0.05852109341026013,-0.19572013553242545,-0.13136970183850755,0.017576871976797664,0.209862204313199,-0.009385199525452576,0.08808794588998298,-0.04243234088778681,0.08667249125229566,0.10535705612672007,0.062293179014151184,0.009385199525452576,0.08808794588998298,0.04243234088778681,0.08667249125229566,0.012492317182635757,0.08417069572223952,0.0,3,0.3,0,3,0.07878886218974694,61.47589990926504,0.07333559990094479,70.9976750785444,0.1082633604793114,0.0,0,0,0,0
0.2,0.0,1,0,0,1,1,0,0,1,0.15540857122149707,0.0,0.124086406830421,0.7839545922449259,0.0,0.623703352106518,0.01872236705616206,-0.0023980385490566837,0.30136386052484715,0.007114163771615246,0.05639064264833582,0.013681802158836406,0.1598803970200194,0.1421608726215332,0.019484153790006536,0.22169151626297057,-0.13195913057476102,0.04647073039615997,-0.1399155330363735,0.12514670267763456,0.05055802350555132,-0.19551382964268654,-0.13138947338850296,0.017587839085283552,0.21887347958285552,-0.009071265801350824,0.07579997367898086,0.09860004008081437,0.07105305743558052,0.13279978895128305,0.06346490836135846,0.009071265801350824,0.07579997367898086,0.09860004008081437,0.07105305743558052,0.008713382120862048,0.08124955628357133,0.0,3,0.3,0,3,0.07850405342942583,58.14149835815864,0.07671775466063466,47.54222756197014,0.06417875892164981,0.0,0,0,0,0
0.21,0.0,1,0,0,1,1,0,0,1,0.16324658332408937,0.0,0.1303185416326145,0.7838012102592301,0.0,0.6232134802193492,0.021012110473717142,-0.0024567137236066803,0.3019241604842283,0.010091292804247491,0.05651008043013017,0.0151154230377038,0.1600715789069348,0.14217230733738168,0.01948889649894714,0.22575038897842975,-0.13094207096469498,0.03553696390691567,-0.137882318800762,0.12617935336698347,0.04203010052936618,-0.1953232016416323,-0.13141344272481179,0.017598608029478047,0.23336554233742565,-0.0064343181187272655,0.059956406843703854,0.4796200701317898,0.0067178191132096655,0.16673687823841193,0.07011895901333629,0.0064343181187272655,0.059956406843703854,0.4796200701317898,0.0067178191132096655,0.036418336605797436,0.11297161373786099,0.0,3,0.3,0,3,0.09361679389594726,56.057115595295194,0.06903670280265878,62.70204867092623,0.03997700836159246,0.0,0,0,0,0
0.22,0.0,1,0,0,1,1,0,0,1,0.17108298424880955,0.0,0.1365455316819254,0.7836400924720183,0.0,0.6226990049310904,0.023480062303600464,-0.0024776900057096618,0.3021977883016079,0.014628349459659322,0.05625843681926024,0.016852322276583537,0.16026301602207454,0.142186182940842,0.01949392692179569,0.22557908053697243,-0.12913022863762538,0.023100687592310598,-0.13883260731108937,0.12703850329212166,0.03123216479236235,-0.19514375435726994,-0.13143992636681306,0.017609792328598495,0.255820188760717,-0.006781816786839568,0.019997292658831725,0.2848266229342995,-0.09028586740318059,0.15948336722023038,0.08473720451190744,0.006781816786839568,0.019997292658831725,0.2848266229342995,0.09028586740318059,0.022937835538304974,0.11445685683705198,0.0,3,0.3,0,3,0.12364708159849987,40.9005906800356,0.051019331189040076,28.516238712594248,0.11136949779946792,0.0,0,0,0,0
0.23,0.0,1,0,0,1,0,0,0,0,0.17891769665354415,0.0,0.1427671311474489,0.7834712404734601,0.0,0.6221599465523503,0.026131196025694976,-0.0024857184362593043,0.30174359620710683,0.0188662386054922,0.053827443077627546,0.01833737874864166,0.16015550130564415,0.14050647757544213,0.02100886059118287,0.22408398074658387,-0.12733827479307114,0.01581468695786506,-0.14194520356691423,0.12749062425438643,0.019507163417357948,-0.1944638890895639,-0.13187177656785437,0.0192316261704209,0.2791068546623382,-0.003709775437381745,-0.08803524302783469,0.3117959664363638,-0.4375386490556258,0.13503742128482354,0.10018915800879405,0.003709775437381745,0.08803524302783469,0.3117959664363638,0.4375386490556258,0.007729709862625361,0.11162864330880115,15.0,3,0.3,0,3,0.11306666917091082,40.53320102887527,0.041356905850290865,17.974433810607984,0.510505615386668,15.0,0,0,0,0
0.24,0.0,0,1,1,0,0,1,1,0,0.18675064321284485,0.0,0.1489830944110912,0.7832946559300696,0.0,0.6215963263642293,0.028857675296918833,-0.002418775063038229,0.3004771182723247,0.019855213577889247,0.04822938878715766,0.019644472270836974,0.16153523719506052,0.1371661695938748,0.029892047315905113,0.2242596024874751,-0.12731819251766024,0.01583303425718327,-0.1423353825243105,0.12749798020029643,0.01831624024347317,-0.1910288307062105,-0.13389801228978798,0.026949972827780055,0.2610519259904987,-0.001316162645967625,-0.11201424938335298,-0.1283650606432435,-0.49617509389978776,0.1570468149462801,0.07430128277765385,0.001316162645967625,0.11201424938335298,0.1283650606432435,0.49617509389978776,0.00806372053518889,0.08368116595881037,20.0,3,0.3,0,3,0.10864178070617163,109.93135153200276,0.09604485846631353,85.00240357910994,0.1578407206099388,20.0,0.0,0.19000000000000003,0.18000000000000002,0.0
0.25,0.0,0,1,1,0,0,1,1,0,0.19458174661869126,0.0,0.15519317607726604,0.7831103405846418,0.0,0.6210081666174844,0.03119777024965353,-0.0023779592568261877,0.29943513172752456,0.015885118110529364,0.04433516912777047,0.020742604495293984,0.16376330167024172,0.1340281679283804,0.0413528710885763,0.22441769975773893,-0.1273029911626067,0.0158493129217529,-0.1423297008846304,0.12748419550505266,0.018327147820201534,-0.18763701977161096,-0.1356208251385132,0.039417268452833276,0.2220866663467189,-0.0010737430444847464,-0.07552007435074215,-0.5073183508604547,-0.33023176903452195,0.09438281039327252,0.027504919728027627,0.0010737430444847464,0.07552007435074215,0.5073183508604547,0.33023176903452195,0.06081036568399352,0.0893890284565059,0.0,3,0.3,0,3,0.08775966429057398,113.29106967223962,0.1189786878078009,114.5855607528866,0.07769582838111533,0.0,0,0,0,0
0.26,0.0,0,1,1,0,0,1,1,0,0.2024109295812544,0.0,0.16139713098258265,0.782918296256313,0.0,0.6203954905316611,0.03329595047236245,-0.0023383729523102597,0.2987976496333737,0.010582551806463943,0.04146386159659854,0.02183252244795574,0.16562017208305527,0.13165439666742493,0.05223906609404186,0.22458058970003197,-0.12728610827507295,0.015864737984513128,-0.14229707251874452,0.12746926982520307,0.018335983448858617,-0.18537625336545244,-0.1380006177936198,0.05153828098252827,0.20408766564435568,-0.0029808141635134593,-0.03694782527020285,-0.48486002578333764,-0.2467628766257777,0.12086844263342018,0.0016767360631012862,0.0029808141635134593,0.03694782527020285,0.48486002578333764,0.2467628766257777,0.04052868834916247,0.045186238575777214,0.0,3,0.3,0,3,0.05631624549025811,71.60300821751999,0.08097057651259516,65.2023747731258,0.18844083950599033,0.0,0,0,0,0
0.27,0.0,0,1,1,0,0,1,1,0,0.21023811482965918,0.0,0.16759471420552421,0.7827185248404783,0.0,0.6197583222941561,0.03525999018206632,-0.0023277804538949973,0.2984588896782164,0.007259780541092782,0.03942947976926692,0.023041310493232627,0.16945240284477917,0.1304112656810928,0.06234290947364565,0.22473589673133812,-0.127269770832624,0.015879823142150584,-0.1422338217822787,0.1274529066207794,0.01834342888450105,-0.18332768013797054,-0.14209635662493075,0.06248834652282967,0.19323365080774363,-0.002623369225284809,-0.01794405292457526,-0.1846143466480669,-0.1657983204038024,0.1342562231068947,0.01700446402191555,0.002623369225284809,0.01794405292457526,0.1846143466480669,0.1657983204038024,0.03333849109862952,0.052966324345829874,0.0,3,0.3,0,3,0.05535966433853101,83.08428994111974,0.0875588652821098,86.01127603376065,0.10867690217663395,0.0,0,0,0,0
0.28,0.0,0,1,1,0,0,1,1,0,0.21806322511274712,0.0,0.17378568107611705,0.7825110283087938,0.0,0.619096687059284,0.037166114339374674,-0.0023160283148695635,0.2983002843751174,0.00571435610545026,0.038170176640553555,0.02438152770689319,0.17663278510699662,0.13046717695856844,0.07241857188458639,0.22488876893046333,-0.1272522517673261,0.015894784623112224,-0.14214694866739166,0.12743568420198534,0.018350270991672052,-0.1799255612740372,-0.14563054908726047,0.07184936088601018,0.1891095007578541,-0.0037473485871406574,0.0008127420294468772,-0.11351594241557722,-0.09310350703645238,0.14478890539606368,0.028953724354893018,0.0037473485871406574,0.0008127420294468772,0.11351594241557722,0.09310350703645238,0.028996775680053377,0.061697848622087055,0.0,3,0.3,0,3,0.06330907703868952,83.07971011116766,0.08704968812456934,53.07518415313483,0.11240864866446248,0.0,0,0,0,0
0.29,0.0,0,1,1,0,0,1,1,0,0.2258861831998389,0.0,0.17996978718558976,0.7822958087091797,0.0,0.6184106109472703,0.03905929650643264,-0.00228713631909817,0.29829301190593654,0.0058619139599771835,0.03719622351232865,0.02608516788109151,0.18624101344719998,0.13156713552641433,0.0821484856013063,0.22504842478535758,-0.12722858982147459,0.01590994284142938,-0.1420449539456798,0.1274157759457221,0.0183567486680567,-0.17544390813299998,-0.14802390745120494,0.07979162853354402,0.18999079302787517,-0.0006879420781357814,0.011940432995592228,0.08549979092020446,-0.10447307181442832,0.18181410223732689,0.03589539017196375,0.0006879420781357814,0.011940432995592228,0.08549979092020446,0.10447307181442832,0.0018443150517371276,0.038427647301836655,0.0,3,0.3,0,3,0.04157845472954104,75.25595841759399,0.07823357778379099,74.20261686716955,0.056463184836856806,0.0,0,0,0,0
0.3,0.0,0,1,1,0,0,1,1,0,0.23370691188149645,0.0,0.186146788396022,0.7820728681657535,0.0,0.6177001210432242,0.040982265081259364,-0.002252056268975242,0.2983759662837921,0.006129707426177659,0.0359158122255856,0.027796908041074164,0.19611672399923272,0.13335193454493247,0.09008400968334941,0.2252200237794,-0.1272058824689997,0.015925169916451654,-0.14194033016753344,0.1273967257062974,0.01836327201462612,-0.1691954290905915,-0.14942943771637923,0.08654152561678399,0.1942911909144391,-0.000817170834396828,0.016015433695137755,0.07485103932543612,-0.16623852941551745,0.16040140387695648,0.03941572096705734,0.000817170834396828,0.016015433695137755,0.07485103932543612,0.16623852941551745,0.025745384519065523,0.0659782763205197,0.0,3,0.3,0,3,0.05384531657529736,70.23182992134434,0.07849724076590822,46.07675939591839,0.055643306206016485,0.0,0,0,0,0
0.31,0.0,0,1,1,0,0,1,1,0,0.241525333970285,0.0,0.19231644084998276,0.7818422088788551,0.0,0.6169652453960756,0.04294732851409219,-0.0022094353387266718,0.2985039863359653,0.006264793203054318,0.03409016033931489,0.02943350292599305,0.20591909429649055,0.13515433227340298,0.09614049232700517,0.2254036102978152,-0.12718319586470928,0.015940522264989015,-0.14183539233090653,0.12737772875477957,0.01836987592491357,-0.1615479415622233,-0.1497355434828495,0.0919839477379685,0.1971866541686753,-0.002738823892749772,0.023829388871669254,-0.10746701999949107,-0.17442995031910144,0.17043579158471506,0.04433867980160969,0.002738823892749772,0.023829388871669254,0.10746701999949107,0.17442995031910144,0.0218806492652677,0.06895815295962715,0.0,3,0.3,0,3,0.06768946448138723,59.58674291699225,0.07104272672325294,66.78908020861556,0.04422723222447922,0.0,0,0,0,0
0.32,0.0,0,1,1,0,0,1,1,0,0.249341372301535,0.0,0.1984785009801572,0.7816038331249997,0.0,0.6162060130174452,0.044958185925707286,-0.0021782867142557303,0.29866413221294874,0.005795087387059295,0.032094851852406014,0.0309549385089588,0.21494992784634184,0.13707503179153116,0.10011635575574039,0.22559343673674614,-0.1271628917100428,0.015955937287384925,-0.14172787991455177,0.12736004308757062,0.018376626276170982,-0.15335184802777124,-0.14957739274625262,0.09547031237309303,0.20429424295609838,-0.0024499113859741076,0.022484742050715784,-0.033082859797840765,-0.23024689060728298,0.14514034121377303,0.045047129345436615,0.0024499113859741076,0.022484742050715784,0.033082859797840765,0.23024689060728298,0.053338159766384174,0.1008352004977949,0.0,3,0.3,0,3,0.09317051123270322,62.5241806034688,0.07551537780830905,45.50113975204018,0.028825539527231547,0.0,0,0,0,0
0.33,0.0,0,1,1,0,0,1,1,0,0.2571549497341036,0.0,0.2046327255189626,0.781357743256858,0.0,0.6154224538805403,0.047037009477561814,-0.0021488013588185383,0.2988402651321418,0.0057259575660637075,0.02983506042188333,0.03255395272754388,0.22267409141320468,0.138916528278985,0.10221226359690956,0.22579133303473353,-0.12714177473383595,0.015971611962501436,-0.1416151671746083,0.12734008440548175,0.01838343332438025,-0.145516669529142,-0.14864343538567135,0.09699918917122338,0.2101133547668277,-0.004251884144537477,0.02436956926803209,0.04817513299759878,-0.23621777607700672,0.15954452381255135,0.04704159496727589,0.004251884144537477,0.02436956926803209,0.04817513299759878,0.23621777607700672,0.04508820170641126,0.09638168081822462,0.0,3,0.3,0,3,0.08954604481211831,53.859845047026646,0.06797612027640013,67.85385763012792,0.03543603158466241,0.0,0,0,0,0
0.34,0.0,0,1,1,0,0,1,1,0,0.2649659891511359,0.0,0.21077887150815186,0.7811039417032317,0.0,0.614614598918925,0.049173907591807696,-0.0021432646929614623,0.29899515913008146,0.0057455363903468745,0.02713164338218399,0.03402932586447174,0.22907852363542766,0.14076020821904817,0.10180290572958557,0.2259952504370025,-0.12712403344099316,0.015987395761821954,-0.14150494207142578,0.12731968911414032,0.01839042704547822,-0.13787632016020018,-0.1483896741699965,0.09678865230990298,0.21556669495422642,-0.007206051856668253,0.02005688981999876,0.024332813840400074,-0.2979694082609736,0.14957584387874495,0.04939929419690947,0.007206051856668253,0.02005688981999876,0.024332813840400074,0.2979694082609736,0.06120302762940691,0.11780837368298464,0.0,3,0.3,0,3,0.11525546388425859,54.38481321052499,0.06899041788561158,44.58340489260407,0.011598791872451053,0.0,0,0,0,0
0.35000000000000003,0.0,0,1,1,0,0,1,1,0,0.2727744134608264,0.0,0.21691669630840524,0.7808424309690531,0.0,0.6137824800253378,0.051357844376575416,-0.0021463009064258648,0.2991308645937352,0.006160992278924828,0.02406643468157421,0.0355693583952431,0.23457347012715626,0.1420964413336516,0.09983249907593407,0.2262048956867352,-0.12710590311078152,0.016003374301204243,-0.14139442701430435,0.12729693489941535,0.01839746720786664,-0.13032121432791,-0.1479614348152753,0.09522421242554373,0.21999353108262923,-0.008991607677010406,0.017806451619712213,0.02505641156273558,-0.32075388992609105,0.16414799164165186,0.0527808823781972,0.008991607677010406,0.017806451619712213,0.02505641156273558,0.32075388992609105,0.052768704666753374,0.11454119472196098,0.0,3,0.3,0,3,0.11656638770257444,51.83173885603909,0.06491474728406767,68.50427193649575,0.011638243888827726,0.0,0,0,0,0
0.36,0.0,0,1,1,0,0,1,1,0,0.2805801455971796,0.0,0.2230459576089092,0.7805732136353161,0.0,0.6129261300503952,0.05356987241131059,-0.0021713750106387387,0.29928761225166717,0.006293588438148266,0.02061706939286334,0.037257384573014175,0.23947586663595244,0.14332820390272688,0.0947411880237805,0.22642528267978113,-0.12708755748400385,0.01601959062114916,-0.14128367040788323,0.1272702060607831,0.01840450495601023,-0.12314527528828578,-0.1475492272867712,0.09206797233553651,0.22068512689409553,-0.011095415902788454,0.02765100166541725,0.03985326510658383,-0.36525635720251054,0.18035793726655286,0.05989501870308406,0.011095415902788454,0.02765100166541725,0.03985326510658383,0.36525635720251054,0.04268802034235633,0.11367845494822884,0.0,3,0.3,0,3,0.11553351665088063,60.40962940654505,0.0669316462092654,48.413998294197846,0.08256222703228566,0.0,0,0,0,0
0.37,0.0,0,1,1,0,0,1,1,0,0.2883831085207705,0.0,0.22916641343692262,0.7802962923590895,0.0,0.6120455828013432,0.05578881625215768,-0.0022143994409138746,0.299624568552652,0.006708186006641517,0.01672088656795845,0.039058344532943774,0.24534269652765664,0.14444046806849847,0.08547447806472595,0.2266626616092643,-0.12706926683666217,0.016036207937428576,-0.1411636986644628,0.12724138127835188,0.01841140986674411,-0.11553715229461628,-0.1469367189938764,0.08655183434647665,0.22080731425447106,-0.012991909264091054,0.04825452764586496,0.03716528755535302,-0.40641418186166867,0.1783563394233652,0.06757579426629942,0.012991909264091054,0.04825452764586496,0.03716528755535302,0.40641418186166867,0.050810074013557416,0.1313777775439479,0.0,3,0.3,0,3,0.12135729216994091,91.33463919870626,0.0785895997814409,75.30359867425537,0.23091811547981944,0.0,0,0,0,0
0.38,0.0,0,1,1,0,0,1,1,0,0.29618322521950524,0.0,0.23527782216732931,0.780011669873476,0.0,0.6111408730406692,0.05803989869454363,-0.002266740075938566,0.3001635122318896,0.0062149620659689144,0.012600223501767704,0.04087205498648418,0.25248962612118964,0.1458424952548298,0.07439506015884156,0.2269184755046807,-0.12705048295185073,0.01605333554242508,-0.1410323718784242,0.12721171616487736,0.018418413214229462,-0.10835037837729236,-0.14593321956161648,0.07695866620522988,0.22822248702950548,-0.014176363512568176,0.06415312671161802,-0.08246069044619839,-0.41175863746743707,0.18816502097170687,0.06796073818999976,0.014176363512568176,0.06415312671161802,0.08246069044619839,0.41175863746743707,0.047112801195622445,0.12924990289819038,0.0,3,0.3,0,3,0.13018276078755672,89.63561858873364,0.07600742009933047,52.20876899251317,0.1707375318302804,0.0,0,0,0,0
0.39,0.0,0,1,1,0,0,1,1,0,0.3039804187093811,0.0,0.24137994253217698,0.7797193489875842,0.0,0.6102120364847669,0.060371930160686205,-0.0023091749517481983,0.30084599443155974,0.0058651836456261024,0.008608884566994268,0.04284410179775949,0.25928808070175774,0.14762681282105108,0.06291589962968777,0.22718645180043115,-0.12702957946857546,0.016070997615935473,-0.1408843867703008,0.1271813053727185,0.01842553125028762,-0.10126016549572403,-0.14499252508002433,0.0631317109753438,0.23686042131108662,-0.013840983869880296,0.07442078517926362,-0.019101309349768267,-0.39777005740408533,0.19784316137365784,0.06711999739829447,0.013840983869880296,0.07442078517926362,0.019101309349768267,0.39777005740408533,0.04353678115851914,0.1244977624266939,0.0,3,0.3,0,3,0.11981699916342008,90.10224260040471,0.07190455270349572,78.12138366028131,0.16332983318896954,0.0,0,0,0,0
0.4,0.0,0,1,1,0,0,1,1,0,0.3117746120352462,0.0,0.2474725336302022,0.7794193325865117,0.0,0.6092591098025207,0.06279929980201551,-0.0023605921401448748,0.30159210099144473,0.006022988500238366,0.004878077242855605,0.04478429993495581,0.26489401538584284,0.1494634071093434,0.052624878309869935,0.22745697783600463,-0.1270098931579975,0.01608886577028948,-0.14071856333887037,0.1271502937407809,0.018432906964592044,-0.09404040712284473,-0.14391634198075154,0.04800757203845461,0.24543110102628884,-0.01716788852995066,0.07874841545367108,0.08655967705146192,-0.31650134660075624,0.2144981922487582,0.06634351100895736,0.01716788852995066,0.07874841545367108,0.08655967705146192,0.31650134660075624,0.03297434138144398,0.116485740920352,0.0,3,0.3,0,3,0.1288428751609015,75.08855675127919,0.07094845234316813,52.9717594279212,0.05302814976966164,0.0,0,0,0,0
0.41000000000000003,0.0,0,1,1,0,0,1,1,0,0.31956572827155894,0.0,0.2535553549363405,0.7791116236312734,0.0,0.6082821306138325,0.06529447135607998,-0.0024342928824475788,0.3023385975267061,0.00939043420708886,0.0020551872294667373,0.0470783133398732,0.2683851244743537,0.15065876188514857,0.043680539379132216,0.22771617438335962,-0.12698987573104922,0.016106704236300562,-0.1405316148897295,0.12711509118656703,0.01844029216185511,-0.085617234384883,-0.1427792801549786,0.034787399963763635,0.2532950830819457,-0.019889266061340262,0.06902337190046232,0.44608079284265034,-0.2715756730923121,0.22477129274397853,0.06627064518961323,0.019889266061340262,0.06902337190046232,0.44608079284265034,0.2715756730923121,0.028784062192361987,0.11494397344331547,0.0,3,0.3,0,3,0.10415772788637385,63.09920510844405,0.07392435315764918,74.55028167727215,0.15106525434689544,0.0,0,0,0,0
0.42,0.0,0,1,1,0,0,1,1,0,0.32735369052314756,0.0,0.2596281663112222,0.778796225158862,0.0,0.6072811374881693,0.0678828087221515,-0.0025584332212515207,0.3029198592984292,0.013510474917282049,-0.0003590004473281727,0.049286116880977504,0.2683700224787442,0.1514463361622655,0.03555846044848625,0.22796491799071433,-0.12697523060592117,0.016124307418685813,-0.1403419107856153,0.12707577335872855,0.018447960284577902,-0.07759370202108928,-0.1409583423302363,0.024155131293393056,0.26092356041723974,-0.030127668686807576,0.05026682788306308,0.3247562982694454,-0.19304130899522054,0.23914626203218864,0.06643013010590781,0.030127668686807576,0.05026682788306308,0.3247562982694454,0.19304130899522054,0.02048190427903357,0.11703970307174896,0.0,3,0.3,0,3,0.12305236556596191,45.40005765651212,0.07326147121642566,43.6221702098872,0.165550539427625,0.0,0,0,0,0
0.43,0.0,0,1,1,0,0,1,1,0,0.33513842192596877,0.0,0.2656907280106526,0.778473140282121,0.0,0.6062561699430369,0.07055665417012318,-0.0027568877802698977,0.30321551567094657,0.017282299488106286,-0.0024713128040951826,0.05179257617296627,0.2661613407653336,0.15071697482295535,0.02761452935604164,0.2282016645485211,-0.1269629704593437,0.016141983235047175,-0.1401635049997317,0.12702758035014494,0.018455650615106622,-0.07303065324357008,-0.13896809566899923,0.0177843887002391,0.27308458428703003,-0.03263044582474368,0.0030935252798909483,0.5920020032311096,-0.265690064810538,0.2512477429428819,0.062053837638938736,0.03263044582474368,0.0030935252798909483,0.5920020032311096,0.265690064810538,0.014442985067770697,0.1091272685314531,0.0,3,0.3,0,3,0.1064841399428691,26.745255859478142,0.05362493109674625,82.88565164173633,0.26719911904565974,0.0,0,0,0,0
0.44,0.0,1,0,0,1,0,0,1,1,0.3429198456478665,0.0,0.2717428006950765,0.7781423721897718,0.0,0.6052072684423926,0.07346323059323592,-0.0029195055713494658,0.303135664860839,0.022615507236153652,-0.0035142011304289955,0.054103732387893386,0.2616772678472984,0.14833353834476198,0.022079310556348403,0.22932795641742296,-0.12533335034646936,0.020375295738603916,-0.13995870642966815,0.12698232301021295,0.018464182469601187,-0.07460811934292183,-0.13919414305703756,0.01780860805802595,0.32663647469906737,-0.03527986192472035,-0.013154728798895827,0.8388335504996545,-0.0489338690056848,0.2691125808104216,0.016283370948799114,0.03527986192472035,0.013154728798895827,0.8388335504996545,0.0489338690056848,0.002630219884654894,0.05419345275817436,60.0,3,0.3,0,3,0.11165973107189169,242.6035775026556,0.10608273506385375,52.63654225872538,0.34777312579970243,60.0,0.0,0.0,0.0,0.21000000000000005
0.45,0.0,1,0,0,1,0,0,1,1,0.3506978848893299,0.0,0.2777841454390272,0.7778039241463419,0.0,0.6041344743950683,0.07689087325453982,-0.003078232323051685,0.3031285853059435,0.028398412288251008,-0.0037871599149448265,0.05694591499805653,0.257004482533288,0.14634223455454726,0.01718504589592132,0.23205196159781197,-0.12216091026579023,0.02570714632696991,-0.14074040399808885,0.12657722556127488,0.020000606836332452,-0.07462550962121867,-0.1392373182561066,0.017827301072362856,0.3501811160273131,-0.02966786648485478,0.003778543106074247,0.13720856517561247,-0.08912689032401401,0.25479210062430574,0.0005167688620167921,0.02966786648485478,0.003778543106074247,0.13720856517561247,0.08912689032401401,0.022992044814721446,0.05317668016159302,50.0,3,0.3,0,3,0.05567649764121958,184.83914310570708,0.11217606123057208,83.38127137863287,0.5183330503297088,50.0,0,0,0,0
0.46,0.0,1,0,0,1,1,0,0,1,0.35847246288425194,0.0,0.28381452374055854,0.7774577994922038,0.0,0.6030378301531358,0.0803883704159615,-0.003131336591539028,0.3029910713591197,0.02865279115956365,-0.004705108264739577,0.05955225836355818,0.25718861729634535,0.14636586068084856,0.01719925398578037,0.23717890133042924,-0.11901987957836219,0.031675756614374745,-0.14018248586103796,0.12559009269490132,0.02822484301172376,-0.0744231128070238,-0.13927492879421985,0.01784373824797597,0.3444382179418422,-0.024252581432396347,-0.03201591056765421,-0.04949845972709607,0.014988127345041763,0.2839681252131676,0.014034244942409735,0.024252581432396347,0.03201591056765421,0.04949845972709607,0.014988127345041763,0.0001536014726090662,0.03844042784741515,5.0,3,0.3,0,3,0.04807891757445074,69.07309187975396,0.07109564507923782,37.16302051877003,0.09787558914655037,5.0,0.23000000000000007,0.0,0.0,0.0
0.47000000000000003,0.0,1,0,0,1,1,0,0,1,0.3662435029006865,0.0,0.28983369753066096,0.7771040016434583,0.0,0.6019173790102417,0.08381108827207502,-0.0031047664826151324,0.3025370198517807,0.028092059745254777,-0.003367175553877555,0.06219366777157062,0.2573227571291307,0.14639019696875816,0.017214166233548656,0.24303486629839888,-0.11817458340596285,0.04118145239527052,-0.13789199353465917,0.12463364104045818,0.03920949777140259,-0.07420775658383708,-0.1393052679162333,0.017859282513081193,0.340609030127353,-0.01710462570231469,-0.05523887341699137,-0.10467492255986936,0.2620990752033465,0.2512271930941469,0.025634472773333528,0.01710462570231469,0.05523887341699137,0.10467492255986936,0.2620990752033465,0.03860650443651409,0.08134560291216231,0.0,3,0.3,0,3,0.07115130714328519,70.0915537045295,0.06626899074562365,69.74334248590954,0.13206378064424362,0.0,0,0,0,0
0.48,0.0,1,0,0,1,1,0,0,1,0.3740109282416059,0.0,0.29584142918265965,0.7767425340919398,0.0,0.6007731651998693,0.08720719525663344,-0.003052442857666537,0.3020307095122133,0.026098501563520837,-2.5904174356661258e-05,0.06499936636147711,0.25743151708291867,0.14641600556042408,0.017229639054592683,0.2473573148237825,-0.11861808143019237,0.05176403711763075,-0.1343648287326369,0.12345051228346049,0.04927561420427928,-0.0739645390058,-0.13933510483447797,0.017874464268204437,0.33833963670626677,-0.016182782991774808,-0.04726782320435863,-0.18692308736218283,0.39481657809932436,0.2810886170630304,0.035671291535339156,0.016182782991774808,0.04726782320435863,0.18692308736218283,0.39481657809932436,0.014752812119629255,0.06660688664674322,0.0,3,0.3,0,3,0.06865467011104102,66.45518479141441,0.0726851390816114,51.04059725356902,0.06532041320437731,0.0,0,0,0,0
0.49,0.0,1,0,0,1,1,0,0,1,0.3817746622456579,0.0,0.3018374815215959,0.7763734004052003,0.0,0.5996052338936242,0.09062757751083107,-0.002964514778599482,0.30154914163928503,0.02374271261633366,0.0040950994534341145,0.06772885823049109,0.2575410694717181,0.14644149312050206,0.01724548184211458,0.2512792034300664,-0.11936006526534394,0.06173432903523285,-0.13116958346201593,0.12141851085119754,0.05755667500925596,-0.0737070461865604,-0.1393599886061076,0.017889590334117078,0.3452730855310686,-0.0150745119112813,-0.04631243676351399,-0.31587421112082376,0.43001310443118085,0.2599065421630188,0.03650157671458931,0.0150745119112813,0.04631243676351399,0.31587421112082376,0.43001310443118085,0.04193093935857711,0.09350702798444772,0.0,3,0.3,0,3,0.0900336370262366,60.972246209147194,0.0609947446036833,68.25340547281101,0.03254759019614284,0.0,0,0,0,0
0.5,0.0,1,0,0,1,1,0,0,1,0.3895346282879222,0.0,0.3078216178335902,0.7759966042264255,0.0,0.5984136311994293,0.09409195267366698,-0.0028667426749103106,0.3010886570194482,0.02057912016501168,0.008359277643234408,0.07049107152123116,0.25765554908931565,0.1464678569016377,0.01726131283618504,0.25624878171483045,-0.1198295381941137,0.07095851860374006,-0.12631680440798063,0.11928820969156739,0.06462586213120017,-0.07343960250703116,-0.13938496237341644,0.01790495381010515,0.34797841288606984,-0.01489043996345757,-0.040748827778729846,-0.31649231849348924,0.43393025416253667,0.26911057354651086,0.04155621540185234,0.01489043996345757,0.040748827778729846,0.31649231849348924,0.43393025416253667,0.03871104428707933,0.09515769965238924,0.0,3,0.3,0,3,0.09252623166357739,68.55785710481437,0.06746103456952943,47.75437794893096,0.01274357034802931,0.0,0,0,0,0
0.51,0.0,1,0,0,1,1,0,0,1,0.3972907497806668,0.0,0.3137936018751874,0.7756121492744628,0.0,0.5971984041597211,0.09759526799556192,-0.002755716130124906,0.30069398371019435,0.017639699436676225,0.012514525394875076,0.07353263697080757,0.25778017490877536,0.14649866176233134,0.01727684302309107,0.2621668506770506,-0.12041636406830993,0.07859973907489318,-0.11901159265583025,0.11750340648586922,0.07085267046676444,-0.07316277918324801,-0.13941348582688395,0.01792071617237398,0.3539522427924911,-0.015212144934955877,-0.030565354270728155,-0.3128510607445677,0.3991719175429386,0.3191621667515645,0.04333850698817571,0.015212144934955877,0.030565354270728155,0.3128510607445677,0.3991719175429386,0.005368564876377102,0.06391921679950868,0.0,3,0.3,0,3,0.07127624760427151,78.49453519010041,0.07550860581935001,74.25037992178144,0.037578416072498566,0.0,0,0,0,0
0.52,0.0,1,0,0,1,1,0,0,1,0.4050429501741038,0.0,0.31975319788268336,0.7752200393436992,0.0,0.595959600749596,0.10117466155879301,-0.002615474329469312,0.30041141801374077,0.015409503294017125,0.016351909511194584,0.07670791738819906,0.2579270650784986,0.14653268916394963,0.017292229288475763,0.26946544438118514,-0.12068688012605468,0.08530930861308963,-0.11017613667864473,0.11577258777711477,0.07629335969587556,-0.07287594807576261,-0.1394403648034298,0.017936803823392966,0.3633836355538218,-0.011922075016892797,-0.014793826824611956,-0.16796774308966295,0.3688552952629788,0.3054674348157613,0.041659314620281995,0.011922075016892797,0.014793826824611956,0.16796774308966295,0.3688552952629788,0.014285763066922086,0.06786715270409688,0.0,3,0.3,0,3,0.06372082652697292,85.44178878332283,0.0703290216235867,50.96989680637717,0.05909651346150857,0.0,0,0,0,0
0.53,0.0,1,0,0,1,1,0,0,1,0.4127911529571451,0.0,0.325700170581432,0.774820278304128,0.0,0.5946972698748665,0.10486697275602833,-0.002450979449889711,0.3002833653338883,0.012413061652114166,0.019470459544931762,0.07994056672584157,0.2580985154014885,0.14656985413142673,0.017307383163634865,0.2777589404482951,-0.12039242353891363,0.09018663959034813,-0.10029647157226235,0.11458127135487052,0.0803515065730701,-0.07257445154292877,-0.13946749710442888,0.017953737763452465,0.3764242009670086,-0.01170607707507841,0.0016087249199960782,-0.3263944698509139,0.2741909935563056,0.3327614949987078,0.036366951990136454,0.01170607707507841,0.0016087249199960782,0.3263944698509139,0.2741909935563056,0.0070613244172757494,0.055134353482490614,0.0,3,0.3,0,3,0.057664436612863225,91.76512432273191,0.07540742586653904,76.61101289881965,0.0663745533119513,0.0,0,0,0,0
0.54,0.0,1,0,0,1,1,0,0,1,0.4205352816581571,0.0,0.3316342851951342,0.7744128701012043,0.0,0.593411461370219,0.10870169953407938,-0.002243906560528891,0.3002944772513457,0.009363967849542396,0.021692325592814754,0.08332991939439946,0.25830043490111554,0.1466118691750575,0.017322632521496184,0.2859941847861175,-0.11990252372741905,0.09236345961147419,-0.09018557078010978,0.11386675646095139,0.08235711442024711,-0.07226254229101009,-0.1394943905632887,0.017971525417804196,0.39102364620775326,-0.010071779678466284,0.017189594597216716,-0.30749119919094414,0.16590381741811233,0.339603731270143,0.02951163545040386,0.010071779678466284,0.017189594597216716,0.30749119919094414,0.16590381741811233,0.007969446075008768,0.047552861203878916,0.0,3,0.3,0,3,0.050395925298107526,84.14425075634126,0.06783446284508017,51.45643612256824,0.06261419839825044,0.0,0,0,0,0
0.55,0.0,1,0,0,1,1,0,0,1,0.42827525984571624,0.0,0.3375553074551057,0.7739978187559116,0.0,0.5921022259971487,0.11268151130432286,-0.002002487986996142,0.30045370153882567,0.006689044297688297,0.022759860089875295,0.08667173664295502,0.2585360507462332,0.14665646362061877,0.017338218931392063,0.29391543397387465,-0.11900663915581064,0.09119816215342516,-0.08017422313630171,0.1131755647114837,0.08184713892002166,-0.07194155242992561,-0.13951969139309783,0.01799001568300332,0.4045249859039128,-0.009626258394443215,0.03404551053372733,-0.3078345627123818,0.0838835927855305,0.3334940893311864,0.023750273941803457,0.009626258394443215,0.03404551053372733,0.3078345627123818,0.0838835927855305,0.004061218123919297,0.03743775046016597,0.0,3,0.3,0,3,0.03940322942894044,83.44064898513301,0.0653812403137859,74.72804632330708,0.11666170552615984,0.0,0,0,0,0
0.56,0.0,1,0,0,1,1,0,0,1,0.4360110111293624,0.0,0.34346300360952614,0.7735751283646175,0.0,0.5907696154420439,0.11677109088789903,-0.0017369903483411483,0.3007769469106816,0.003922957344609332,0.023317830940852158,0.0900349223434027,0.2587943913890206,0.14670313260449883,0.017354168165454653,0.30243643968447065,-0.11714945609714027,0.08662340798604756,-0.06980163091440336,0.11261118025768521,0.07784484141061333,-0.07160727968891084,-0.13954361664886744,0.018009096371827987,0.41169165645812095,-0.009150120139546115,0.04853815511715528,-0.23437629452957812,0.03348026903978842,0.3272617896618616,0.024319354671241467,0.009150120139546115,0.04853815511715528,0.23437629452957812,0.03348026903978842,0.01620121394766455,0.04967068875845213,0.0,3,0.3,0,3,0.03853878957839958,80.68037060463925,0.06426370086673976,47.86937889976976,0.19030319447957345,0.0,0,0,0,0
0.5700000000000001,0.0,1,0,0,1,1,0,0,1,0.44374245916035343,0.0,0.3493571404326669,0.7731448030991017,0.0,0.5894136823140772,0.12090068431731844,-0.0014518977043372402,0.30121100047812105,0.0017799770260445568,0.023883427490287712,0.09336985136980372,0.2590617956358151,0.14675121915171022,0.01737033574059757,0.31278098085817485,-0.11530747036900527,0.07891724475623448,-0.05816819036845158,0.11233924901120933,0.07147834723655451,-0.07126155010974439,-0.1395662465818647,0.018028344242128375,0.4146638026963526,-0.009598304842184371,0.05706930895993187,-0.23955645814169083,0.0752947626939643,0.34749457838317355,0.02907865646400082,0.009598304842184371,0.05706930895993187,0.23955645814169083,0.0752947626939643,0.001862562049493366,0.04053952335567856,0.0,3,0.3,0,3,0.04870011583564759,89.50490537532707,0.0665517544405665,70.12983508272225,0.3070130215918567,0.0,0,0,0,0
0.58,0.0,1,0,0,1,1,0,0,1,0.45146952763241865,0.0,0.3552374852340987,0.7727068472065224,0.0,0.5880344801431792,0.1250797436859439,-0.0011417269703428595,0.3016808884320561,-2.4616210649916224e-05,0.02460042747350366,0.09691455715437122,0.25933436783951314,0.14680198515838067,0.01738669524817385,0.32439184564025203,-0.1134110701992579,0.06892270693277329,-0.04670803163027348,0.11180458704127745,0.06329912151576754,-0.07090812360347609,-0.13958944548949598,0.018047976973784324,0.4217424593219073,-0.00721252579292818,0.05390168898165399,-0.11937200826316409,0.07241640753926995,0.35336992315112686,0.029727068310511362,0.00721252579292818,0.05390168898165399,0.11937200826316409,0.07241640753926995,0.001867562082971841,0.03880715618641138,0.0,3,0.3,0,3,0.041263680934942024,68.15893696535454,0.06558210069674275,46.24690988470108,0.11667533566988242,0.0,0,0,0,0
0.59,0.0,1,0,0,1,1,0,0,1,0.4591921402825117,0.0,0.3611038058678774,0.7722612650093053,0.0,0.5866320633778677,0.1293305928539982,-0.0007995782349942362,0.3020823766022339,-0.0012744182581566881,0.025417475815226798,0.10040474587511422,0.25961048683286164,0.14685286389514143,0.017403411273549857,0.3364280469912628,-0.11113922818285028,0.05917917441253899,-0.03634873443331349,0.11125369499911075,0.05537287822058329,-0.07055084087614139,-0.1396114054695431,0.01806784638475778,0.42831036250923715,-0.009333968646303285,0.047449371203372094,-0.1799979844257934,0.08434775179476901,0.3529256321352104,0.030881777773274555,0.009333968646303285,0.047449371203372094,0.1799979844257934,0.08434775179476901,0.008178173732666993,0.048393920152244835,0.0,3,0.3,0,3,0.04810253312693259,56.373029070696795,0.0676933662256405,73.03645894753335,0.019326589771875735,0.0,0,0,0,0
0.6,0.0,1,0,0,1,1,0,0,1,0.46691022089156364,0.0,0.3669558707417092,0.7718080609051936,0.0,0.585206487383183,0.133644959945803,-0.0004393120336254878,0.3024346278364845,-0.0022744551673263926,0.026651623180391493,0.10403281935417982,0.25988661968017945,0.1469053935979513,0.017420382359345205,0.34860323372112006,-0.10948206938339362,0.04949193939458213,-0.027295323461029974,0.11181936767865172,0.04741203160082795,-0.07018308110672772,-0.13963377528725218,0.018088128386596042,0.43544676664426146,-0.007584597180915296,0.049323131164392575,-0.06417577822154066,0.15892144096733804,0.36662993691787354,0.03146345424730218,0.007584597180915296,0.049323131164392575,0.06417577822154066,0.15892144096733804,0.0003259338238356668,0.03937398525205314,0.0,3,0.3,0,3,0.04158773018439256,67.7692975197217,0.07725688275112584,52.84026253367101,0.023398763048533056,0.0,0,0,0,0
0.61,0.0,1,0,0,1,1,0,0,1,0.4746236932852346,0.0,0.3727934488260932,0.7713472393670984,0.0,0.583757808438401,0.13806153813116634,-6.440605992621177e-05,0.3028288268379754,-0.0028712077606409705,0.028054613716167465,0.10773534011987618,0.260177354831443,0.14695909029686932,0.017437928613752235,0.359074501076125,-0.10825874711050396,0.03931424619317264,-0.020255575723174074,0.11357729491243027,0.03893451660464789,-0.0698035172915402,-0.13965640353310443,0.018109100833242436,0.4518911503616731,-0.008435401947259818,0.05165228732103432,0.09192603178021785,0.12994373122707603,0.3743073149459538,0.022732542923561527,0.008435401947259818,0.05165228732103432,0.09192603178021785,0.12994373122707603,0.0015138661198605963,0.032681810990681945,0.0,3,0.3,0,3,0.03846695643441315,71.2986464379584,0.0721998965077574,79.09896480136156,0.05664166462230935,0.0,0,0,0,0
0.62,0.0,1,0,0,1,1,0,0,1,0.4823324813346662,0.0,0.3786163096634422,0.7708788049431592,0.0,0.5822860837348953,0.14271529931558694,0.00038449878719392456,0.30315272329678494,-0.0010695169872211553,0.029033899940773544,0.11145413308040347,0.2604889516258402,0.14701424427031978,0.017457076727080856,0.36337718207325187,-0.10592908529829126,0.027658369538048524,-0.016111724071246974,0.11453691576354846,0.028192947756748923,-0.06941847235795823,-0.13967686566979282,0.018130997775090474,0.4825329589302025,-0.004359431148171936,0.034220680819417475,0.14038913644646012,0.03377662803231674,0.3536943022825743,0.00020047759553626365,0.004359431148171936,0.034220680819417475,0.14038913644646012,0.03377662803231674,0.02492200738086786,0.02948191612457606,0.0,3,0.3,0,3,0.023587271866714887,68.09353816765847,0.06147727671317906,40.14431337135808,0.09082501587568048,0.0,0,0,0,0
0.63,0.0,1,0,0,1,0,0,0,1,0.4900365089572325,0.0,0.38442422337718063,0.7704027622566278,0.0,0.5807913713738455,0.14771270219867425,0.0009512946312747422,0.30301909376335073,-8.90159435551318e-05,0.028397335034769267,0.11474231886108371,0.25993307753063627,0.14597480017869632,0.0180136191331646,0.3624206782661288,-0.10311922474813594,0.01624136291775366,-0.015893902759736428,0.11486864728020688,0.0178995294196366,-0.06906856084660276,-0.13974911625746533,0.018287481867075822,0.5210797647323179,0.003790097155597339,-0.038804176872242566,0.10887104957649359,-0.15300750465400428,0.3161682896990135,0.031043255775085377,0.003790097155597339,0.038804176872242566,0.10887104957649359,0.15300750465400428,0.06825593367816712,0.10308928660884983,5.0,3,0.3,0,3,0.07946971683063705,42.753828272272514,0.043637160145024265,27.98546491765338,0.2377991055114541,5.0,0,0,0,0
0.64,0.0,0,1,1,0,0,1,1,0,0.4977357001172911,0.0,0.3902169606808198,0.7699191160058627,0.0,0.5792737303639162,0.15291004752690396,0.0015381023995856527,0.3021331396652729,0.0024417765734815076,0.02732134572115341,0.11824860544884916,0.2604460609169928,0.14389374023722618,0.02367300499194841,0.3627274653203396,-0.10304604283230744,0.016276892187737008,-0.015682130799222344,0.1148474993529403,0.017922365856599926,-0.06847914128229139,-0.14102010014264338,0.022695911203786306,0.5240314060983222,-0.00660784888176361,-0.09625757873701678,0.2359815670222098,-0.11804739686060217,0.37625659162772135,0.026295705981031092,0.00660784888176361,0.09625757873701678,0.2359815670222098,0.11804739686060217,0.013960369053098443,0.04686392391589315,25.0,3,0.3,0,3,0.06646016027739682,68.32353025632666,0.07354321766941964,49.17708147444726,0.47811938091404627,25.0,0.0,0.20000000000000004,0.18000000000000002,0.0
0.65,0.0,0,1,1,0,0,1,1,0,0.5054299788269336,0.0,0.39599429288700977,0.769427870964251,0.0,0.5777332206189978,0.1579902613713551,0.0020757123252681496,0.30096123143892284,0.003548558472656914,0.026145401611219254,0.1218864194893265,0.2623835679130948,0.14341447821860973,0.03441769124693833,0.3630301223099347,-0.10297546069239188,0.016308803674279643,-0.015490187615801038,0.11482056735050948,0.017943878435718374,-0.06528246086605233,-0.14360142086001546,0.03274532264153962,0.5017607623014936,-0.009039641241979408,-0.10036488986292293,-0.08408703280297301,-0.10593955341694014,0.35898901822890783,0.0036692165254400555,0.009039641241979408,0.10036488986292293,0.08408703280297301,0.10593955341694014,0.03700527465810194,0.049714132425521404,0.0,3,0.3,0,3,0.0500747662796087,95.11485939954365,0.10107347352558808,92.43663413415827,0.22140134206617534,0.0,0,0,0,0
0.66,0.0,0,1,1,0,0,1,1,0,0.5131192691467354,0.0,0.4017559919165674,0.7689290319801811,0.0,0.5761699029557643,0.16286499528510245,0.002582913144774116,0.2999395456331907,0.0019032395437493467,0.025067112704424854,0.1255987657959217,0.26312816131901334,0.1435254717799284,0.046459660889351495,0.3633440469372369,-0.10290322667171237,0.01633845605895118,-0.015294747409980297,0.11479076258481638,0.017963962844417786,-0.06269788512756079,-0.14680718153501077,0.044558581165510536,0.48403599503457834,-0.010897899125134633,-0.07909440015339857,-0.13750093682666018,-0.0989952748466996,0.3733663562387789,0.02908327411215711,0.010897899125134633,0.07909440015339857,0.13750093682666018,0.0989952748466996,0.028389635677788516,0.06837080891508027,0.0,3,0.3,0,3,0.05621762809880031,69.97722188581176,0.08246708286562181,62.9682477736023,0.12050507311669323,0.0,0,0,0,0
0.67,0.0,0,1,1,0,0,1,1,0,0.5208034951865055,0.0,0.4075018303074806,0.7684226039770037,0.0,0.5745838390913194,0.16757576813367056,0.003071082487216086,0.299083006741419,0.0010739383184611205,0.02460478865922311,0.12930419848221583,0.26674856528349283,0.14486145378330512,0.05808010135818359,0.3636501085356304,-0.10283270067884667,0.016366884299289258,-0.015079751499288946,0.11476310364536958,0.017982248937565476,-0.05834039480264977,-0.15112425701035054,0.05571692956590196,0.46765876910278803,-0.011703229803116484,-0.06999740980175877,-0.01491512625898794,0.00557940185463459,0.37192546632239776,0.05314472608371745,0.011703229803116484,0.06999740980175877,0.01491512625898794,0.00557940185463459,0.03557636398508285,0.10042431987191679,0.0,3,0.3,0,3,0.09041282897586375,78.19989280573317,0.08779988662672714,78.63538775396196,0.12313131707795688,0.0,0,0,0,0
0.68,0.0,0,1,1,0,0,1,1,0,0.5284825811060347,0.0,0.4132315812238882,0.767908591952926,0.0,0.5729750916407594,0.17217135039550593,0.003565519248903494,0.2983074549988192,0.0019926861646732946,0.02474945584670807,0.13311391701470002,0.274963298664601,0.1476332334074218,0.06963700997388461,0.36395376673396473,-0.10276021133158499,0.016394909350989306,-0.014849384530479265,0.11473614082332222,0.017999221320099318,-0.050550935088148466,-0.15489335865229487,0.06681524191059188,0.462304652383202,-0.011092218110897056,-0.06191428296310198,0.17273847520297814,0.008262561624111334,0.39320827624613613,0.06617792872283274,0.011092218110897056,0.06191428296310198,0.17273847520297814,0.008262561624111334,0.020023304977752066,0.09729345181148186,0.0,3,0.3,0,3,0.10119749890560933,82.63620322639161,0.08249966972279829,48.0166644950315,0.0307723120547303,0.0,0,0,0,0
