time,trans_flag,des_cont_state_fl,des_cont_state_fr,des_cont_state_rl,des_cont_state_rr,cont_state_fl,cont_state_fr,cont_state_rl,cont_state_rr,vel_cmd_x,vel_cmd_y,vel_cmd_yaw,acc_cmd_x,acc_cmd_y,acc_cmd_yaw,base_pos_x,base_pos_y,base_pos_z,base_ang_roll,base_ang_pitch,base_ang_yaw,FL_foot_pos_x,FL_foot_pos_y,FL_foot_pos_z,FR_foot_pos_x,FR_foot_pos_y,FR_foot_pos_z,RL_foot_pos_x,RL_foot_pos_y,RL_foot_pos_z,RR_foot_pos_x,RR_foot_pos_y,RR_foot_pos_z,base_vel_x,base_vel_y,base_vel_z,base_vel_roll,base_vel_pitch,base_vel_yaw,x_vel_err,y_vel_err,z_vel_err,roll_vel_err,pitch_vel_err,yaw_vel_err,cmd_err,cont_err,terr_freq,terr_height,failed,gait_id,base,CoT,musculoskeletal,foot_force,MWE,stability,FL_stride_t,FR_stride_t,RL_stride_t,RR_stride_t
0.01,0.0,1,1,1,1,1,1,1,1,0.006283178692509316,0.0,0.005026527078818862,0.6283178692509316,0.0,0.5026527078818862,-5.657541819410156e-05,-1.4721827760222959e-05,0.3098961884464356,-0.0010968313926794696,0.0004578876167451451,-2.6175104584726017e-05,0.18297088141707887,0.13204813128978798,0.017331778776510876,0.18295956091564392,-0.1320266891959093,0.017392842223986182,-0.18301304483898012,0.13204936492243521,0.017331680818791856,-0.18300483590377148,-0.13205059409660763,0.017331675133188895,-0.013471211017004353,-0.001678269191862447,-0.025833366063735153,-0.17812781576742454,0.09632611707238706,-0.008490217458744006,0.019754389709513667,0.001678269191862447,0.025833366063735153,0.17812781576742454,0.09632611707238706,0.013516744537562868,0.03494940343893898,70.0,3,0.3,0,42,0.017729041270707502,7.051618588717344,0.02846766914740841,61.21270754878483,0.019209789226738713,70.0,0,0,0,0
0.02,0.0,1,1,1,1,1,1,1,1,0.014137091596022201,0.0,0.011309492449657768,0.7853912903512885,0.0,0.6282965370838907,-0.00023263942086658725,-4.009372151320931e-05,0.30946777553443083,-0.0028254089710592007,0.0014555419412898285,-5.193984485640173e-05,0.1829067321707353,0.13204678470959422,0.01734021090750809,0.18288134565547445,-0.13198858860623994,0.017503357479235926,-0.18305112443050467,0.13204762878772097,0.01733979637747851,-0.18303409482489946,-0.13205227234238937,0.01733973368079736,-0.022335266339301028,-0.0014881360204709337,-0.05729689356988648,-0.09480698917516604,0.1072852832964922,0.013775548682101253,0.03647235793532323,0.0014881360204709337,0.05729689356988648,0.09480698917516604,0.1072852832964922,0.002466056232443484,0.040426550188237646,0.0,3,0.3,0,0,0.041804543717620164,5.937602636645198,0.03774934156480166,72.8233964387562,0.06622941411393429,0.0,0,0,0,0
0.03,0.0,1,0,0,1,1,1,1,1,0.02199086497214841,0.0,0.01759201134109972,0.7853773376126207,0.0,0.628251889144195,-0.00044706413268608163,-4.609953645914232e-05,0.3087426325434678,-0.0015697380893127252,0.0027657030391425863,0.00011663251473407537,0.18069176482027502,0.1326771652581871,0.018653038011966216,0.1815124503892402,-0.1310943078903784,0.019912748856523055,-0.18309201736774566,0.1320427579420071,0.017347921171305486,-0.18477247921518128,-0.13205765620297236,0.01735115866474818,0.002593671688642457,-0.0049300881850793885,-0.09922079727117292,0.5115893603621287,0.1797264216765369,0.051051913828679366,0.01939719328350595,0.0049300881850793885,0.09922079727117292,0.5115893603621287,0.1797264216765369,0.03345990248757964,0.057787183956164986,30.0,3,0.3,0,3,0.05127560922339495,108.37194608730167,0.08209824456771002,106.2728483213034,0.2649107465805799,30.0,0,0,0,0
0.04,0.0,1,0,0,1,0,0,1,1,0.02984442130731541,0.0,0.023873835730056265,0.7853556335166999,0.0,0.6281824388956546,-0.0001611966030729109,-0.0002300113746765667,0.30755914788784283,0.004587337654683766,0.005668908172813847,0.0013055676235780884,0.16964486940937654,0.13777335402257837,0.01997273874124439,0.17663887542468107,-0.1277068226606171,0.02758992828184323,-0.18353654993388818,0.13158470362596308,0.017919155376404983,-0.1927563089828164,-0.13124362645260182,0.01741403517261242,0.038384105433123324,-0.019941157038055886,-0.12741415864678352,0.8700060059815581,0.43000576767795146,0.11283586447357967,0.008539684125807915,0.019941157038055886,0.12741415864678352,0.8700060059815581,0.43000576767795146,0.08896202874352341,0.11744286990738721,50.0,3,0.3,0,3,0.13172820143543001,207.61434977622943,0.1266755452299892,113.44577201811676,0.7146142755068655,50.0,0,0,0,0
0.05,0.0,1,0,0,1,1,0,0,1,0.03769768309009279,0.0,0.030154717620856746,0.7853261782777381,0.0,0.628088189080048,0.0001859979891934847,-0.0003130576781143823,0.30606537190338934,0.010883705436290378,0.00948604519702334,0.0016377643193998387,0.16658244137385045,0.1388143944190589,0.01983892423932565,0.17761888378786597,-0.12432760202877582,0.0374250092243881,-0.185881024132368,0.13031095100612924,0.032219089369599024,-0.1930821569881809,-0.13126131374717728,0.017424123466285607,0.025684501591753905,-0.007135672633818773,-0.1537818092722668,0.43979073030741095,0.3662122780793796,0.009849118424902348,0.012013181498338885,0.007135672633818773,0.1537818092722668,0.43979073030741095,0.3662122780793796,0.0203055991959544,0.03945445332811206,25.0,3,0.3,0,3,0.04076330256274448,165.8538027699344,0.11415104085693148,126.11814442576129,0.44838398155434267,25.0,0.01,0.0,0.0,0.0
0.06,0.0,1,0,0,1,1,0,0,1,0.04555057281195724,0.0,0.036434409055038704,0.7852889721864452,0.0,0.6279691434181958,0.00034140169613959635,-0.0003717914121989514,0.30466300056747136,0.015795890796822937,0.014112961944224178,0.0018800955292212352,0.1664633723537311,0.13881059911652893,0.019842435681534293,0.17838662206978576,-0.12234947296491286,0.04728355602476714,-0.18768561630344968,0.13247288784896588,0.04888892363537295,-0.1931144172520752,-0.13126810560798777,0.017432236513131444,0.016521984732893687,-0.004305009317982866,-0.12854784557540203,0.6310490693517704,0.6030310833771667,0.0038989508857947153,0.029028588079063555,0.004305009317982866,0.12854784557540203,0.6310490693517704,0.6030310833771667,0.03253545816924399,0.06586905556629041,0.0,3,0.3,0,3,0.050069936058503,63.437370412988955,0.07764668477174387,155.70433195414859,0.09662132135929358,0.0,0,0,0,0
0.07,0.0,1,0,0,1,1,0,0,1,0.05340301296805755,0.0,0.04271266212113687,0.7852440156100309,0.0,0.6278253066098166,0.0005166104699511324,-0.0003845039266416479,0.3035009047894226,0.02039467723764369,0.021217425537442658,0.0022031418278968826,0.16632998078967592,0.13881067237292816,0.01984670333802413,0.1770225799510981,-0.12273813719617778,0.05634888741077526,-0.18858990849559895,0.1348839941602738,0.06182946183078944,-0.1930935590573596,-0.13127505380091536,0.01743986577015394,0.02386431618942505,-0.006631192946724285,-0.10362917536515645,0.2029074940115641,0.7633860416003558,0.04565135269942583,0.029538696778632502,0.006631192946724285,0.10362917536515645,0.2029074940115641,0.7633860416003558,0.002938690578288959,0.039108580303645744,0.0,3,0.3,0,3,0.0518104337951397,76.68359748790124,0.0887186519687441,143.8387274547993,0.18857612624850395,0.0,0,0,0,0
0.08,0.0,1,0,0,1,1,0,0,1,0.06125492605797953,0.0,0.048989228964470284,0.7851913089921981,0.0,0.6276566843333414,0.0008010971067494578,-0.00042847346765222246,0.3025584160513201,0.022380965103912773,0.028862613410341353,0.002660302692822421,0.16621034413911037,0.13880907392592606,0.01985076663255239,0.1753168706505858,-0.12442288132990756,0.06485782061957884,-0.18998754037887639,0.1356292919275,0.07166453660469532,-0.19304086844998633,-0.13128280619831353,0.017447576731595693,0.03660514813225305,-0.005486296964217499,-0.08159415488298499,0.1922191014043119,0.789550751341084,0.014563892070169157,0.02464977792572648,0.005486296964217499,0.08159415488298499,0.1922191014043119,0.789550751341084,0.03442533689430113,0.0645614117842451,0.0,3,0.3,0,3,0.05263859279747292,81.16712834840368,0.08460710044835244,140.88964869803075,0.05048506178068529,0.0,0,0,0,0
0.09,0.0,1,0,0,1,1,0,0,1,0.06910623458651093,0.0,0.055263861796927174,0.7851308528531393,0.0,0.627463283245689,0.0011998384772922972,-0.00047617301380444655,0.30186485394005996,0.02257377188559513,0.03710526999841468,0.003271807809263904,0.1660988170632196,0.13880983951403905,0.019854690966569,0.1760387994971505,-0.12628972743522482,0.07333007567075826,-0.1897216992637912,0.13521094178330612,0.07848874502630795,-0.19294714151594541,-0.13129373552625842,0.017455728849367302,0.04978748863387617,-0.006112640410148456,-0.05324992578475002,-0.07330589077490612,0.8414086002774079,0.06085565327991652,0.019318745952634754,0.006112640410148456,0.05324992578475002,0.07330589077490612,0.8414086002774079,0.005591791482989349,0.03102317784577256,0.0,3,0.3,0,3,0.03954225063732373,106.07869714451351,0.10095014847889985,138.9842270446142,0.0970559399662175,0.0,0,0,0,0
0.1,0.0,1,0,0,1,1,0,0,1,0.07695686106440629,0.0,0.06153631290674721,0.7850626477895362,0.0,0.6272451109820033,0.0017866976723862414,-0.0005288706723940682,0.3014379724281596,0.02056161475101562,0.04477040422164813,0.003944941905162732,0.16602385665999445,0.1388097598112201,0.019857737103604,0.17832365159168495,-0.1282727681318778,0.08092422592614748,-0.1887584566636462,0.13399344984455128,0.0830748391721256,-0.19282953011622622,-0.13130406218591803,0.017464351638956682,0.07031667624611612,-0.007911996081703685,-0.02891151374005914,-0.3094391296643614,0.6655574758185626,0.05250629047420488,0.006640184818290165,0.007911996081703685,0.02891151374005914,0.3094391296643614,0.6655574758185626,0.009030022432542327,0.023582203332536175,0.0,3,0.3,0,3,0.027446033485447142,99.19988137496541,0.08575029938470138,142.54283572305022,0.050425954693322034,0.0,0,0,0,0
0.11,0.0,1,0,0,1,1,0,0,1,0.08480672800915168,0.0,0.06780633466830074,0.784986694474539,0.0,0.6270021761553536,0.002563913584622925,-0.0005994949057355348,0.30121932004439683,0.01796152109268196,0.05073187390436473,0.004706820394588406,0.16599215148210206,0.13881129949663024,0.019859770810971844,0.1812180266021632,-0.1295077788581484,0.08737080888271265,-0.18549844731145146,0.13196531302309888,0.08712208701451729,-0.1927071794135433,-0.13131697204724987,0.017473060507771365,0.08809191215873255,-0.007022600956087481,-0.009779179179376337,-0.22022506020896843,0.5100825333959268,0.07547618250950514,0.003285184149580872,0.007022600956087481,0.009779179179376337,0.22022506020896843,0.5100825333959268,0.007669847841204391,0.017977632946872744,0.0,3,0.3,0,3,0.014970106282792148,97.39517991120275,0.08754416582133447,135.88809194532524,0.01647306778333632,0.0,0,0,0,0
0.12,0.0,1,0,0,1,1,0,0,1,0.09265575794572947,0.0,0.0740736795518646,0.7849029936577795,0.0,0.6267344883563855,0.0035439007119821156,-0.000666533957793889,0.3011515167236258,0.01622545421032922,0.054587462859420954,0.005633766553846503,0.1660100189152326,0.13881559135461624,0.019861125008375557,0.18394475965116247,-0.1306887454813339,0.09166468021179514,-0.18125046917521037,0.13034804918565618,0.08994503906121049,-0.19259102963196534,-0.13133286915479217,0.017481723397587495,0.10733247700839466,-0.008672142252591263,0.009115229455384625,-0.1657386595160939,0.2686405390037279,0.0977976642633623,0.014676719062665183,0.008672142252591263,0.009115229455384625,0.1657386595160939,0.2686405390037279,0.023723984711497698,0.04707284602675414,0.0,3,0.3,0,3,0.03458864503231015,91.93542126258579,0.08369683350722934,137.57406102365914,0.03401217194632947,0.0,0,0,0,0
0.13,0.0,1,0,0,1,1,0,0,1,0.10050387340738298,0.0,0.08033810013339421,0.784811546165351,0.0,0.6264420581529608,0.004711970849391512,-0.0007535115995413039,0.30128409194243627,0.014335112672809312,0.056179545450358415,0.006676851764173348,0.16607535430250212,0.13882082001994325,0.0198622324393542,0.1865198393625786,-0.13099475162811508,0.09359534678150101,-0.17636803751208463,0.1290774817533021,0.09124468624747013,-0.19247584385370634,-0.13135104501313355,0.017490558877210488,0.12453293204858147,-0.007361925840452573,0.027980907209324193,-0.14824479729792983,0.0764722966014873,0.10311515357226275,0.02402905864119849,0.007361925840452573,0.027980907209324193,0.14824479729792983,0.0764722966014873,0.022777053438868544,0.05416803792051961,0.0,3,0.3,0,3,0.05354107252142217,89.78496358905491,0.07947917290097035,134.53603612873522,0.0033532825051228454,0.0,0,0,0,0
0.14,0.0,1,0,0,1,1,0,0,1,0.10835099693638103,0.0,0.08659934910429141,0.7847123528998051,0.0,0.6261248970897206,0.006059686860517013,-0.0008304112312097663,0.3015362262560153,0.012990279839325904,0.0560351844415341,0.007745224457995937,0.1661786426432998,0.138826894401182,0.019863564185014393,0.18887514093581162,-0.13142649518221483,0.09309261738309933,-0.17183242527172737,0.1283097208171608,0.09030296848263576,-0.19236334586601098,-0.13137023453071847,0.017499583816449338,0.14067911479500197,-0.01073501098421344,0.03901449261726886,-0.2730709485469301,-0.10399046751554628,0.1075097884912353,0.03232811785862094,0.01073501098421344,0.03901449261726886,0.2730709485469301,0.10399046751554628,0.020910439386943883,0.06397356822977826,0.0,3,0.3,0,3,0.061214911249183504,79.12616699328073,0.07579376739808794,127.88249705010841,0.02202627474586305,0.0,0,0,0,0
0.15,0.0,1,0,0,1,1,0,0,1,0.11619705108478236,0.0,0.09285717928116781,0.7846054148401324,0.0,0.6257830176876394,0.0075410270627808106,-0.0009261006863141995,0.30191310805107174,0.010502757073556733,0.05451210009893637,0.008803987699004142,0.16630818809901682,0.13883229531388386,0.019865204323039454,0.1915944830539157,-0.13162761727218142,0.08902096154542355,-0.16776789603088063,0.12794678006902674,0.08576176771656763,-0.19224525555272318,-0.1313900345601528,0.01750885019695786,0.14997874730440838,-0.009650181493366362,0.05287778238028787,-0.2603148762838175,-0.17373144077926453,0.10226806175074629,0.033781696219626026,0.009650181493366362,0.05287778238028787,0.2603148762838175,0.17373144077926453,0.009410882469578483,0.05284276018257087,0.0,3,0.3,0,3,0.06036577022454933,75.36256252630167,0.07030312376353194,119.42424678261617,0.09034185423854563,0.0,0,0,0,0
0.16,0.0,1,0,0,1,1,1,0,1,0.12404195841520015,0.0,0.09911134361560314,0.7844907330417789,0.0,0.6254164334435333,0.009050933898847934,-0.0010192441562193344,0.3024112848615805,0.006545848526279597,0.052970164576016554,0.009688227073364666,0.16643910173528442,0.13883606953949473,0.019866884314490213,0.19371612441234062,-0.13182719560822198,0.08569322029351212,-0.16285713990048056,0.12778141695693604,0.07799355934548745,-0.19211311514859256,-0.13140597011541513,0.01751817873569017,0.13784183989367038,-0.007220142606073965,0.06722186885028818,-0.5022793857373663,-0.1292171223234039,0.06942138397422931,0.013799881478470236,0.007220142606073965,0.06722186885028818,0.5022793857373663,0.1292171223234039,0.02968995964137383,0.050709983725918034,5.0,3,0.3,0,3,0.05095153922596436,74.63622101888946,0.06921096775693317,161.09366195523006,0.24132176444960574,5.0,0.0,0.11999999999999998,0.0,0.0
0.17,0.0,1,0,0,1,1,1,0,1,0.13188564150156615,0.0,0.10536159520389834,0.7843683086366001,0.0,0.6250251588295203,0.010333488959958517,-0.00103452823104525,0.3032160854511931,-0.0010713407503083565,0.050599071076889546,0.010432682950357527,0.16657758389750624,0.13884590118756904,0.019868539433962218,0.19390558172164024,-0.13181597579579318,0.08574596117434038,-0.15799678120422891,0.1275432522716366,0.06718476365436293,-0.1919807782935777,-0.13141554775676983,0.01752737944553978,0.11119749038080044,0.0009071386703020934,0.10762155270855363,-0.8905901668767673,-0.4206721460319115,0.08412005546939429,0.020688151120765705,0.0009071386703020934,0.10762155270855363,0.8905901668767673,0.4206721460319115,0.02124153973450406,0.04283682952557186,25.0,3,0.3,0,3,0.03865626637544872,96.42971651137591,0.0925776495907545,176.7432688343493,0.045223047612871436,25.0,0,0,0,0
0.18,0.0,1,0,0,1,1,1,0,1,0.1397280229298949,0.0,0.11160768729682284,0.7842381428328743,0.0,0.6246092092924496,0.01133234203201378,-0.0009561600330987966,0.3044437035471695,-0.009689356492023212,0.044398951245986584,0.011347555541242546,0.16675238278358553,0.13886642236528246,0.019871766067618285,0.19412622295252827,-0.13179401378624814,0.08580442909361934,-0.15474904323204247,0.12644260667471127,0.055884994926153064,-0.19188132126849738,-0.13142195872986162,0.017536018315905344,0.07241776610651826,0.013611930504502833,0.15045500896610142,-0.8555754807696865,-0.7227274934766398,0.08539406202532751,0.06731025682337663,0.013611930504502833,0.15045500896610142,0.8555754807696865,0.7227274934766398,0.02621362527149533,0.1071358125993748,25.0,3,0.3,0,3,0.0749399967190953,103.52426781963277,0.09682512807580387,188.33424139215592,0.06515420872189576,25.0,0,0,0,0
0.19,0.0,1,0,0,1,1,1,0,1,0.1475690252990478,0.0,0.11784937330935583,0.7841002369152916,0.0,0.6241686012532984,0.011929126411781635,-0.0007074375365408053,0.3061048353843454,-0.019555262942904203,0.036397388188353474,0.012540196774821776,0.16693208471506896,0.13890269184133328,0.019876385709248157,0.19436055188886547,-0.13175505110847802,0.08586115801170326,-0.152121298420715,0.1248732961551518,0.04460885627986526,-0.19179327443766458,-0.13142194220485912,0.017544682243972154,0.03980663983319863,0.031022469754877185,0.18051316004922544,-1.014777794060326,-0.9515272334164127,0.12294712358978725,0.10776238546584918,0.031022469754877185,0.18051316004922544,1.014777794060326,0.9515272334164127,0.005097750280431426,0.14388260550115778,25.0,3,0.3,0,3,0.12522614184866682,96.05430832033602,0.08610738918307508,172.19078677474198,0.07128531730132742,25.0,0,0,0,0
0.2,0.0,1,0,0,1,1,1,0,1,0.15540857122149707,0.0,0.124086406830421,0.7839545922449259,0.0,0.623703352106518,0.01236683375006355,-0.00018934526000417105,0.3079289267866461,-0.028883653164791627,0.025602990251138547,0.014046413310215689,0.16668675196673968,0.13841889372139543,0.019884008007200332,0.19462118875084294,-0.13169334190881743,0.0859176959466579,-0.15208007244256255,0.1230822424269239,0.033063840229885455,-0.19173105444022814,-0.1314075511322501,0.017553211805552138,0.04412965966086133,0.06589939960693256,0.19147509366495236,-0.8378676282269756,-1.1980235496394693,0.12440353410402008,0.11127891156063574,0.06589939960693256,0.19147509366495236,0.8378676282269756,1.1980235496394693,0.00031712727359907433,0.17749543844116739,25.0,3,0.3,0,3,0.16584118267957834,98.10314871373313,0.08776240103648382,148.6832980172527,0.07085498894415965,25.0,0,0,0,0
0.21,0.0,1,0,0,1,1,1,0,1,0.16324658332408937,0.0,0.1303185416326145,0.7838012102592301,0.0,0.6232134802193492,0.012945776619207526,0.0007371066634998228,0.30981132142290363,-0.03790686598087633,0.012272873219247638,0.01566623868837528,0.16433354889856555,0.1364569226759794,0.019902756858976356,0.19492156943862554,-0.13160468350299231,0.08597680475362987,-0.1561656789645872,0.12132235277177372,0.0224116285972068,-0.19167616818474373,-0.13137013607132872,0.017562190941870975,0.06430723696929799,0.10300911723578532,0.18464876128666408,-0.9812391532389894,-1.4648616657135693,0.1082484220671515,0.09893934635479137,0.10300911723578532,0.18464876128666408,0.9812391532389894,1.4648616657135693,0.022070119565462995,0.22401858315603967,25.0,3,0.3,0,3,0.20364598438083353,101.81639015649316,0.08711576923530917,138.52046706275055,0.10827022480884518,25.0,0,0,0,0
0.22,0.0,1,0,0,1,1,1,1,1,0.17108298424880955,0.0,0.1365455316819254,0.7836400924720183,0.0,0.6226990049310904,0.013653099472348934,0.002044267733585501,0.31155763778724493,-0.04587408061899329,-0.0028190391854980845,0.01739570509841273,0.15979993139331616,0.13351143895338208,0.01994130886775264,0.1953047141980231,-0.13152925917792713,0.08606300381267887,-0.15846925299150752,0.12121706633650028,0.017615207140336375,-0.19169222406609082,-0.1313200348418413,0.017571865337289466,0.07818676595335264,0.13901085545366323,0.18842503564836194,-0.38846383025953407,-1.4572370657004183,0.13022096476156342,0.09289621829545691,0.13901085545366323,0.18842503564836194,0.38846383025953407,1.4572370657004183,0.006324566920361985,0.23823164066948213,30.0,3,0.3,0,3,0.2431602771407177,105.6949918809056,0.09756636471283717,169.90338375634792,0.23178993620397748,30.0,0.0,0.0,0.17,0.0
0.23,0.0,0,1,1,0,0,1,1,1,0.17891769665354415,0.0,0.1427671311474489,0.7834712404734601,0.0,0.6221599465523503,0.014487764836336767,0.003429272367055314,0.3135225272466879,-0.05055978694716346,-0.014490908817458958,0.019934837478442203,0.15297442154229857,0.13196356481612148,0.02297455595141648,0.19605470316355048,-0.13150909300678656,0.08625891623398792,-0.15845325880327846,0.12126745887362267,0.0176234115105465,-0.19409127866350204,-0.13146252286048565,0.01784540587322314,0.09116269651474644,0.10642493835955068,0.21542287684054748,-0.9004903456234062,-0.8492942734395688,0.24300298755559732,0.08775500013879771,0.10642493835955068,0.21542287684054748,0.9004903456234062,0.8492942734395688,0.10023585640814842,0.29441579490649683,45.0,3,0.3,0,3,0.2804764459875447,219.90358338252605,0.12293694184730564,197.60872916352963,0.27378445217294634,45.0,0,0,0,0
0.24,0.0,0,1,1,0,0,1,1,0,0.18675064321284485,0.0,0.1489830944110912,0.7832946559300696,0.0,0.6215963263642293,0.015398012805616918,0.004494259459745513,0.31564720446095135,-0.060166834341501614,-0.02168012854723811,0.02231868811463432,0.14763444341124166,0.13309645342320248,0.031006776900313282,0.19542573912306496,-0.1298516970274546,0.08546582794939328,-0.15838596466813004,0.12130277889142392,0.01763161231040694,-0.1956932779783955,-0.13268367914915882,0.02230076018288782,0.10343905302181465,0.08520618107397201,0.2114794984533217,-0.6947692810591378,-0.6635458479874229,0.14596194767954618,0.0833115901910302,0.08520618107397201,0.2114794984533217,0.6947692810591378,0.6635458479874229,0.0030211467315450213,0.17153891799654725,5.0,3,0.3,0,3,0.2190040318915166,188.2794659436985,0.12398398913536876,147.11062743595133,0.20903454583644532,5.0,0,0,0,0
0.25,0.0,0,1,1,0,0,1,1,0,0.19458174661869126,0.0,0.15519317607726604,0.7831103405846418,0.0,0.6210081666174844,0.016447136522303108,0.005431344345386806,0.3175865725523261,-0.06375800737700842,-0.028283056579202492,0.02420640192234086,0.14741776005415735,0.13313458620421043,0.04676218460148357,0.19521321743606745,-0.12923779405871968,0.08518594202962232,-0.15829537618950407,0.12133760283879377,0.017639514583861593,-0.19337934681105004,-0.13393546094342276,0.036352011753735175,0.11901568715842177,0.07438964330027716,0.1862756765475172,-0.1285162083287151,-0.6687476078787908,0.13848686167977925,0.0755660594602695,0.07438964330027716,0.1862756765475172,0.1285162083287151,0.6687476078787908,0.016706314397486793,0.16666201715803344,0.0,3,0.3,0,3,0.16247110943715176,231.793089291718,0.11177700902311878,146.7830231934595,0.20950750615569536,0.0,0,0,0,0
0.26,0.0,0,1,1,0,0,1,1,0,0.2024109295812544,0.0,0.16139713098258265,0.782918296256313,0.0,0.6203954905316611,0.01757845469395991,0.006279986621756648,0.3194717001391722,-0.06561355088641516,-0.03444871971164498,0.025622310226673068,0.15060230084048942,0.13394564603026712,0.06432864718524267,0.19546199864323133,-0.12917179688627148,0.08523467115080371,-0.15818801321789946,0.12137308809551026,0.017647631481893605,-0.188641005068975,-0.13588253210455223,0.05245521697627817,0.12368051301339802,0.06437847264990462,0.19359305222839324,-0.2759721025648266,-0.5860484074368867,0.08773680184655128,0.07873041656785637,0.06437847264990462,0.19359305222839324,0.2759721025648266,0.5860484074368867,0.07366032913603138,0.21676921835379237,0.0,3,0.3,0,3,0.2091382546713564,133.24152041120936,0.09536020441352352,130.05972852055984,0.3908657000667459,0.0,0,0,0,0
0.27,0.0,0,1,1,0,0,1,1,0,0.21023811482965918,0.0,0.16759471420552421,0.7827185248404783,0.0,0.6197583222941561,0.018745397735252575,0.007045135176574717,0.3214613289393103,-0.06741645143190414,-0.039739112388047726,0.026939204381617957,0.1556126408617231,0.1348868954699721,0.08078749065193774,0.19570762922705465,-0.12911157265644585,0.08528463178920656,-0.15805628942628733,0.12140334187161723,0.017656016605246405,-0.18350844224486873,-0.13754962871738588,0.06807902896253051,0.12859998875628428,0.05760250729633616,0.20209559468621005,-0.036745296749224124,-0.4874859993456019,0.10754454242551013,0.0816381260733749,0.05760250729633616,0.20209559468621005,0.036745296749224124,0.4874859993456019,0.06005017178001408,0.19929080514972514,0.0,3,0.3,0,3,0.2073429991607154,103.71619710083257,0.07883309185648628,122.08092324872209,0.45493696525718996,0.0,0,0,0,0
0.28,0.0,0,1,1,0,0,1,1,0,0.21806322511274712,0.0,0.17378568107611705,0.7825110283087938,0.0,0.619096687059284,0.019951264570833828,0.007779927119830854,0.3235168557277013,-0.06718251065050394,-0.0442684357581542,0.02833756161735469,0.16166217816547152,0.13664462845847458,0.09402651964621125,0.19594968656541156,-0.12905408615790717,0.0853344253075243,-0.15790493815356166,0.12143177138557375,0.017664698942619156,-0.17932186299135708,-0.13870946417422192,0.08101045004858864,0.13560518401612734,0.05488158442035497,0.20378468898874197,0.09949194623208625,-0.4657567384941128,0.10188661643951377,0.08245804109661978,0.05488158442035497,0.20378468898874197,0.09949194623208625,0.4657567384941128,0.07189906463660328,0.20923869015357804,0.0,3,0.3,0,3,0.2023309607953896,82.93850143855798,0.07551255702311921,107.5776139229439,0.5423395683990457,0.0,0,0,0,0
0.29,0.0,0,1,1,0,0,1,1,0,0.2258861831998389,0.0,0.17996978718558976,0.7822958087091797,0.0,0.6184106109472703,0.0212443468885474,0.008473835422489482,0.32557252707780954,-0.06662157358846765,-0.048714243455243,0.029864768548816336,0.16829458896353783,0.13861718277611573,0.10371207706421398,0.19619135559699963,-0.12899607727341875,0.08538417259672007,-0.15774553558637028,0.12145432231046065,0.01767347970562652,-0.17646473101749333,-0.13915946469936522,0.09059838733470213,0.1453404365363992,0.049812833316772,0.20326304454327387,0.08328047259057346,-0.42249325054633624,0.157594372670171,0.08054574666343972,0.049812833316772,0.20326304454327387,0.08328047259057346,0.42249325054633624,0.022375414515418746,0.15273399449563047,0.0,3,0.3,0,3,0.1821437826057271,73.69452888240207,0.06830802921031388,101.4371719810188,0.4477106964598714,0.0,0,0,0,0
0.3,0.0,0,1,1,0,0,1,1,0,0.23370691188149645,0.0,0.186146788396022,0.7820728681657535,0.0,0.6177001210432242,0.022635958893885748,0.0091265681467349,0.3275993963993317,-0.06469575452175387,-0.05267670768226185,0.031635467966630436,0.17486582635761663,0.14104256660741435,0.10956361631312264,0.19594550304628078,-0.12861478698131096,0.08518560449389909,-0.15757380012971037,0.12147352923166785,0.01768245380463071,-0.1739781659657459,-0.13946060161731103,0.09684274279933028,0.15661701390579008,0.0455306138873056,0.1923491345382797,0.12894893810031757,-0.39757852301779895,0.13098942185236367,0.07708989797570637,0.0455306138873056,0.1923491345382797,0.12894893810031757,0.39757852301779895,0.055157366543658326,0.1777778784066703,0.0,3,0.3,0,3,0.1617297923564156,74.55730695925739,0.0716368595368399,94.52314526942726,0.3779169779113245,0.0,0,0,0,0
0.31,0.0,0,1,1,0,0,1,1,0,0.241525333970285,0.0,0.19231644084998276,0.7818422088788551,0.0,0.6169652453960756,0.024138482477204324,0.009740667617345463,0.3294637908928572,-0.06273242542868897,-0.05647466278682178,0.033275632634964435,0.1814893731720742,0.14359689454584457,0.11288539284484714,0.19523448866805915,-0.12816624418097078,0.08484614666774942,-0.1574041846216578,0.12149103410000497,0.017691352501248397,-0.17057904674481364,-0.1392113399359658,0.10080814319865972,0.16783029012164602,0.04405190315573365,0.16870392332201797,0.23589622082469555,-0.3656986313767463,0.147969913494965,0.07369504384863898,0.04405190315573365,0.16870392332201797,0.23589622082469555,0.3656986313767463,0.04434652735501776,0.1620934743593904,0.0,3,0.3,0,3,0.16900837145779407,63.99300833145985,0.06126041335646456,84.90930992192258,0.2767388938373679,0.0,0,0,0,0
0.32,0.0,0,1,1,0,0,1,1,0,0.249341372301535,0.0,0.1984785009801572,0.7816038331249997,0.0,0.6162060130174452,0.025773014499739014,0.010309908813720285,0.3311209785843754,-0.0607933253925978,-0.05985692381712515,0.03492244279771136,0.18841968048063176,0.14670454507368122,0.11402932724890959,0.19387882536735185,-0.12732738362131218,0.08419484991679993,-0.15723498114396914,0.12150578880130082,0.017700250314955673,-0.16636374927391703,-0.13840766437729668,0.10209985493120782,0.18041079484448636,0.039339674753993976,0.14833250596357392,0.18079303345107978,-0.33129292401186045,0.14348642612141765,0.06893057745704864,0.039339674753993976,0.14833250596357392,0.18079303345107978,0.33129292401186045,0.054992074858739554,0.16326232706978216,0.0,3,0.3,0,3,0.16468215591453367,69.70223204525844,0.06255093527235964,84.47670236917192,0.19293251721933796,0.0,0,0,0,0
0.33,0.0,0,1,1,0,0,1,1,0,0.2571549497341036,0.0,0.2046327255189626,0.781357743256858,0.0,0.6154224538805403,0.027528855730759697,0.010829687595176461,0.33255592517935156,-0.058887248432580905,-0.06285422699026211,0.03665306881492626,0.195561979347304,0.15002732483682057,0.11260825231337968,0.19240125730449625,-0.12651941899014038,0.08352576762310451,-0.15706987806869896,0.12151645206572238,0.017709088474594348,-0.16147272187432224,-0.13738675447087567,0.10056012883449367,0.19157787053393635,0.035437231461413074,0.1214554930238251,0.18166533393312947,-0.2907893663784205,0.1493833936639003,0.06557707920016723,0.035437231461413074,0.1214554930238251,0.18166533393312947,0.2907893663784205,0.05524933185506231,0.1562636425166426,0.0,3,0.3,0,3,0.15147162934584119,62.147961096953644,0.0533171717290213,81.78352332381964,0.11751578991174522,0.0,0,0,0,0
0.34,0.0,0,1,1,0,0,1,1,0,0.2649659891511359,0.0,0.21077887150815186,0.7811039417032317,0.0,0.614614598918925,0.029438861286984724,0.01130614255182099,0.3337141890958953,-0.05737799002125746,-0.06617272504594585,0.03820708700160515,0.2016959224321976,0.15280131594208268,0.10942017646273317,0.19174157325699082,-0.1259623344803405,0.08315632706116916,-0.1569197052442543,0.12152709216406506,0.017717924857186734,-0.1561237450940936,-0.13658047794585565,0.09712995418202648,0.2071057266694738,0.03444352272033715,0.09006629428408776,0.20584077681847848,-0.3902656929880833,0.13401708732148954,0.057860262481662095,0.03444352272033715,0.09006629428408776,0.20584077681847848,0.3902656929880833,0.07676178418666232,0.16906556938866157,0.0,3,0.3,0,3,0.16920659741086921,60.378375358709604,0.05664855109839799,86.08793897659555,0.10216409152839906,0.0,0,0,0,0
0.35000000000000003,0.0,0,1,1,0,0,1,1,0,0.2727744134608264,0.0,0.21691669630840524,0.7808424309690531,0.0,0.6137824800253378,0.03147986729081252,0.011773233600895012,0.3346505136591665,-0.05557365537816395,-0.07008504356382361,0.039961028805199764,0.20750200755998624,0.15459041516586633,0.10530701477266576,0.19196696205742123,-0.12592038669890893,0.08320713328760215,-0.15678091322251086,0.12153417645281353,0.017726762727101497,-0.1499280112254708,-0.13483649087047664,0.0934298302426543,0.2162799947640408,0.03427171957568704,0.07145364778339043,0.16208814751383976,-0.4199639473297329,0.1647769673700953,0.05649441869678562,0.03427171957568704,0.07145364778339043,0.16208814751383976,0.4199639473297329,0.052139728938309926,0.14290586721078258,0.0,3,0.3,0,3,0.14994909107107518,55.06580528915239,0.05310277291725098,99.92428555087233,0.052562749064779646,0.0,0,0,0,0
0.36,0.0,0,1,1,0,0,1,1,0,0.2805801455971796,0.0,0.2230459576089092,0.7805732136353161,0.0,0.6129261300503952,0.03362250811407874,0.012235375023254651,0.3354274967316539,-0.05468995355526515,-0.07457753688652247,0.0419133414914966,0.21256019208495008,0.15590758821190429,0.10029587858197017,0.1921995900693021,-0.12587792104078202,0.08325995359218974,-0.1566548097815361,0.12153824630961821,0.01773582962273043,-0.1435193635651421,-0.1331072092724512,0.08972337850919232,0.22589605235665244,0.03265383982178601,0.05975660841405118,0.01711151874329561,-0.47119200873478256,0.17687137039571482,0.05468409324052714,0.03265383982178601,0.05975660841405118,0.01711151874329561,0.47119200873478256,0.04617458721319437,0.13351252027550753,0.0,3,0.3,0,3,0.13889469352178607,59.12786560005101,0.05905802897078013,109.17024219931614,0.03327050546105215,0.0,0,0,0,0
0.37,0.0,0,1,1,0,0,1,1,0,0.2883831085207705,0.0,0.22916641343692262,0.7802962923590895,0.0,0.6120455828013432,0.035867261288718345,0.012689614696398373,0.33616280447965236,-0.054500899883246925,-0.0792527314903877,0.04398433457985069,0.2168864124914611,0.15683252446118487,0.094438578855156,0.192439425969956,-0.12583522711072997,0.08331491318247955,-0.1565252617913859,0.12154050015020115,0.017745144336255958,-0.13695290219378578,-0.13100470892164737,0.08566138261533218,0.23596692348098108,0.03271846165709828,0.0579386082246614,-0.022699514953072795,-0.4787970447263011,0.18173707378341045,0.0524161850397894,0.03271846165709828,0.0579386082246614,0.022699514953072795,0.4787970447263011,0.047429339653512176,0.13256398635039984,0.0,3,0.3,0,3,0.13128136709876476,72.28712169707534,0.06593489408400402,119.24551935592869,0.026637076853826436,0.0,0,0,0,0
0.38,0.0,0,1,1,0,0,1,1,0,0.29618322521950524,0.0,0.23527782216732931,0.780011669873476,0.0,0.6111408730406692,0.038183775434778425,0.013139652561685951,0.3369801592211365,-0.05628807227097337,-0.08339572504458115,0.046185520904534885,0.2226908403313952,0.15779720974637249,0.08781824762989504,0.192687983297343,-0.12579228355246722,0.08337240316485811,-0.15638261427055314,0.12153835081906028,0.017754718735982444,-0.13115079339301927,-0.1286839955195058,0.07784215097273581,0.2440358673983019,0.028427499802813293,0.06788056795213648,-0.27132551802569593,-0.36633324889152935,0.2192305457851843,0.05214735782120333,0.028427499802813293,0.06788056795213648,0.27132551802569593,0.36633324889152935,0.01604727638214501,0.09662213400616164,0.0,3,0.3,0,3,0.11637824375446595,85.71425546119956,0.06528874958136639,122.82932410520559,0.09270371069392014,0.0,0,0,0,0
0.39,0.0,0,1,1,0,0,1,1,0,0.3039804187093811,0.0,0.24137994253217698,0.7797193489875842,0.0,0.6102120364847669,0.04059636786114196,0.013553614966051947,0.33785444548802007,-0.05900545358718779,-0.08633525538580211,0.048728656187867196,0.22897223159944105,0.1588853844308579,0.08138471144148046,0.1929366012341498,-0.1257504161030327,0.0834303231948485,-0.1562186237037769,0.1215303424229006,0.01776449501435365,-0.1246457747109424,-0.12658438292851767,0.068652462471031,0.2534929651226623,0.025809293427329873,0.0681244659882703,-0.14579274750581844,-0.23816163743475707,0.23492098002418635,0.0504874535867188,0.025809293427329873,0.0681244659882703,0.14579274750581844,0.23816163743475707,0.006458962507990634,0.08275570952203931,0.0,3,0.3,0,3,0.08017307468858713,81.5581632038093,0.06508080110984074,126.45861470970422,0.021673131599288187,0.0,0,0,0,0
0.4,0.0,0,1,1,0,0,1,1,0,0.3117746120352462,0.0,0.2474725336302022,0.7794193325865117,0.0,0.6092591098025207,0.043046987327925,0.013970064038618564,0.3387443709086839,-0.059549742455088796,-0.08741910612538484,0.0512130530000023,0.234444034319422,0.16002127363952756,0.07516797812812989,0.19316757301317405,-0.1257092485031202,0.08348320085355926,-0.15602193981219367,0.12152351959429503,0.017774491949634014,-0.11654874728516779,-0.12430839532268861,0.05994274088307461,0.2538523038261282,0.02456737869104716,0.07020001074483029,0.12661492945818204,-0.0008424095508109027,0.2591098122059376,0.05792230820911798,0.02456737869104716,0.07020001074483029,0.12661492945818204,0.0008424095508109027,0.011637278575735405,0.09412696547590055,0.0,3,0.3,0,3,0.0884976310304725,67.08518321719603,0.06499823170965482,128.35631151376654,0.06486308652089601,0.0,0,0,0,0
0.41000000000000003,0.0,0,1,1,0,0,1,1,0,0.31956572827155894,0.0,0.2535553549363405,0.7791116236312734,0.0,0.6082821306138325,0.0454961217112339,0.014371134056905085,0.3396823354468806,-0.0591841553272325,-0.0860852448813958,0.05383581015730431,0.23903477760076686,0.1617912271728865,0.06902814272284863,0.19338392459532466,-0.12566919343404587,0.08353214794224376,-0.15579548301985005,0.12151502174968877,0.017785318997412897,-0.10674642683438207,-0.12206764189073699,0.0518191440623067,0.25449088061347236,0.02157493455235375,0.07579247630323033,-0.036042263608252606,0.22878624796361677,0.26449527116708654,0.06507484765808658,0.02157493455235375,0.07579247630323033,0.036042263608252606,0.22878624796361677,0.010939916230746027,0.09758969844118635,0.0,3,0.3,0,3,0.10320118314535802,73.21520201011289,0.07062307593933917,130.27037451662136,0.02559889288368422,0.0,0,0,0,0
0.42,0.0,0,1,1,0,0,1,1,0,0.32735369052314756,0.0,0.2596281663112222,0.778796225158862,0.0,0.6072811374881693,0.048035394463235535,0.014769140200424635,0.3406191262951564,-0.05722896617224307,-0.08365494451184752,0.056420663416470625,0.23797892314867097,0.16244106724515667,0.06109820248231365,0.1935987880261646,-0.1256293945934828,0.08358102724990543,-0.1555494481804131,0.12150620114486874,0.017796722082500188,-0.09986624169234332,-0.11977865385602796,0.04281908052715677,0.27348908588260606,0.01971277799540139,0.06273678289463017,0.35280780838567605,0.17962937644135832,0.28200283559385075,0.05386460464054149,0.01971277799540139,0.06273678289463017,0.35280780838567605,0.17962937644135832,0.022374669282628545,0.09595205191857142,0.0,3,0.3,0,3,0.09681652615684058,69.60767741136883,0.07297037684993866,114.78179320384356,0.1613795605854088,0.0,0,0,0,0
0.43,0.0,1,0,0,1,0,1,1,0,0.33513842192596877,0.0,0.2656907280106526,0.778473140282121,0.0,0.6062561699430369,0.05080283028667386,0.01513224214631547,0.34114612555715607,-0.05394401831692079,-0.081470522780966,0.05923177743937298,0.23330357401698307,0.1621518898169083,0.05691272358030283,0.19631896224172007,-0.12494827370366794,0.08503454316293374,-0.15532690546049993,0.12149153328891954,0.017807674857067635,-0.0974647045536376,-0.11656903932295933,0.03699675126188995,0.2863004749485142,0.017475178440384743,-0.024475066403544226,0.1557789770550888,0.20778029089281866,0.28252011179489384,0.04883794697745458,0.017475178440384743,0.024475066403544226,0.1557789770550888,0.20778029089281866,0.01682938378424126,0.08314250920208058,80.0,3,0.3,0,3,0.09586766020123809,37.431288266689094,0.061388902390570696,56.55045535621856,0.19946702720387677,80.0,0,0,0,0
0.44,0.0,1,0,0,1,0,1,1,0,0.3429198456478665,0.0,0.2717428006950765,0.7781423721897718,0.0,0.6052072684423926,0.05364726520467086,0.015435250222571499,0.3407698395644755,-0.05372234002046611,-0.07960655205307887,0.0621186119783238,0.230927363764992,0.16314731018921147,0.05298217447893991,0.19906993786135796,-0.12367914011536325,0.08528241092117567,-0.15516930254532335,0.12146961647295196,0.017818004419329098,-0.10023020716812112,-0.11394659432327861,0.032326275569812074,0.2790830850290859,0.017525159446931542,-0.09280933599132721,0.20250488014443824,0.08147967862599603,0.3168718635748785,0.06383676061878057,0.017525159446931542,0.09280933599132721,0.20250488014443824,0.08147967862599603,0.04512906287980201,0.12649098294551414,85.0,3,0.3,0,3,0.10645437491259932,22.01602495943637,0.05091484070991008,43.97836560755488,0.06180377632646317,85.0,0,0,0,0
0.45,0.0,1,0,0,1,0,0,1,0,0.3506978848893299,0.0,0.2777841454390272,0.7778039241463419,0.0,0.6041344743950683,0.056483392095638386,0.015718126489937895,0.33967494902114714,-0.05001711464576138,-0.07721687217849582,0.06500852530742392,0.2303929707251244,0.1643626683325168,0.04948223698597151,0.20534606562693952,-0.12169539106283843,0.0862861978905391,-0.1550082607858346,0.12149350146631684,0.018021067990071915,-0.10830608837249184,-0.11292022307623657,0.026850403451288057,0.2693967153704723,0.016225747144248532,-0.16928924996998682,0.5686690783345295,0.3534359328231948,0.27537519045631037,0.08130116951885763,0.016225747144248532,0.16928924996998682,0.5686690783345295,0.3534359328231948,0.0024089549827168155,0.09993587164582297,95.0,3,0.3,0,3,0.11158931830467404,47.050735673996606,0.054780976112554655,38.618754213253936,0.4011521758498806,95.0,0,0,0,0
0.46,0.0,1,0,0,1,0,1,0,0,0.35847246288425194,0.0,0.28381452374055854,0.7774577994922038,0.0,0.6030378301531358,0.059263849093996235,0.01600035652670389,0.33757465814544096,-0.04610317510325902,-0.07510177444626898,0.06758196801570265,0.2307764148616246,0.1651109165657552,0.04656332146544423,0.21443692324684377,-0.11857190634617326,0.08793005751411251,-0.15269071236567283,0.12288139026852646,0.022341643833459157,-0.11958857187048438,-0.11363293166573293,0.024221105266938214,0.2561651661187873,0.024530607670325413,-0.28675316782740645,0.40564725477889924,0.17386694615590784,0.24574516598227744,0.10230729676546463,0.024530607670325413,0.28675316782740645,0.40564725477889924,0.17386694615590784,0.0380693577582811,0.16490726219407115,85.0,3,0.3,0,3,0.133555678455251,53.93128847829661,0.05274620685524127,20.48410399408497,0.567126770641785,85.0,0.0,0.01,0.0,0.0
0.47000000000000003,0.0,1,0,0,1,0,0,0,0,0.3662435029006865,0.0,0.28983369753066096,0.7771040016434583,0.0,0.6019173790102417,0.06199654353337174,0.01630967653453761,0.3343326670634344,-0.04054273813098908,-0.07360437335007375,0.06964908848380097,0.2281661502590135,0.16528989083196302,0.040446087838695716,0.2258605593512264,-0.11326879160683374,0.09301393089748611,-0.14378074570231714,0.12512499900520366,0.03159731798014592,-0.13254286739285615,-0.11706105117434716,0.019563455725264606,0.23806823044173203,0.027122515545961366,-0.3854399501744851,0.6533099573996913,0.18399913334741627,0.22422825406392838,0.1281752724589545,0.027122515545961366,0.3854399501744851,0.6533099573996913,0.18399913334741627,0.06560544346673258,0.22090323147164845,60.0,3,0.3,0,3,0.21942069246305743,72.53157589349622,0.05173178181356747,0.0,1.058647719871465,60.0,0,0,0,0
0.48,0.0,1,0,0,1,0,0,0,1,0.3740109282416059,0.0,0.29584142918265965,0.7767425340919398,0.0,0.6007731651998693,0.06457246068630892,0.016615790695689178,0.33038518895626806,-0.03530387844725221,-0.06941386712932496,0.07224470007037807,0.22700130352493128,0.1629210963673739,0.02967024901061635,0.23735245098446822,-0.10770639485715013,0.10119702580993445,-0.13372282818032838,0.12819022544190528,0.042108660225580574,-0.13428770255823105,-0.11757460234819064,0.01884149410572608,0.22872375194570166,0.031375652890911,-0.43230828422334316,0.2955768663207562,0.6456256847078021,0.30257524753923254,0.14528717629590426,0.031375652890911,0.43230828422334316,0.2955768663207562,0.6456256847078021,0.006733818356572885,0.18339664754338814,35.0,3,0.3,0,3,0.18423564765350336,31.803773313543182,0.05780245132112334,60.48324897991377,0.5885560358492838,35.0,0.0,0.0,0.0,0.24000000000000007
0.49,0.0,1,0,0,1,0,0,0,1,0.3817746622456579,0.0,0.3018374815215959,0.7763734004052003,0.0,0.5996052338936242,0.06716800156808986,0.017024832633411886,0.3260852092640388,-0.03559408508365537,-0.06130125980401213,0.07534544101288516,0.22694608099808572,0.15861145302712712,0.017470963840895637,0.24542294171138268,-0.10460373335720921,0.10715637538548983,-0.1269392549264862,0.1301099291101422,0.05132824914842002,-0.13425107032247569,-0.1176095296272082,0.01885583177492553,0.23799965519607247,0.045053168800777,-0.45751014018172026,-0.19586457355311315,0.9470496631771508,0.3659542385771815,0.14377500704958546,0.045053168800777,0.45751014018172026,0.19586457355311315,0.9470496631771508,0.06411675705558562,0.2529449329059481,25.0,3,0.3,0,3,0.22770785826602893,37.875954755976124,0.0654134054032828,70.34250279837438,0.7674280607975055,25.0,0,0,0,0
0.5,0.0,1,0,0,1,1,0,0,1,0.3895346282879222,0.0,0.3078216178335902,0.7759966042264255,0.0,0.5984136311994293,0.06987008764495291,0.01757075281989612,0.3215510267388087,-0.033419999067866954,-0.05057709007312461,0.07844868613108563,0.2266372532814154,0.15865215576086406,0.017525797179670538,0.25194133359110704,-0.10259048956066782,0.11375339781973076,-0.1211432183133484,0.12935799296676603,0.06174439000470108,-0.13419622617287308,-0.11763697664242825,0.018869158975433925,0.2529251810512463,0.05034779140903287,-0.458975236649086,0.5589322444360652,1.093675432772001,0.3411249622037721,0.1366094472366759,0.05034779140903287,0.458975236649086,0.5589322444360652,1.093675432772001,0.0333033443701819,0.22026058301589066,0.0,3,0.3,0,3,0.2275269941945254,44.134656451724574,0.07469251264157287,183.24063277084593,0.6803449518612683,0.0,0.2700000000000001,0.0,0.0,0.0
0.51,0.0,1,0,0,1,1,0,0,1,0.3972907497806668,0.0,0.3137936018751874,0.7756121492744628,0.0,0.5971984041597211,0.0725977449904873,0.018114456628068456,0.31732491842808996,-0.027791061135675955,-0.03969338096402475,0.08174408327431716,0.2263850307250892,0.15869831227337342,0.017573339316684783,0.257976599979175,-0.10064990313430881,0.12014841455156772,-0.11425254024576359,0.12942010654116765,0.07303434083746818,-0.13411261139841432,-0.11766929852183662,0.01888114524451187,0.26263715084947703,0.0423955972260137,-0.4067720281075388,0.6606794781596603,1.0663266131198137,0.3734417936722299,0.13465359893118978,0.0423955972260137,0.4067720281075388,0.6606794781596603,1.0663266131198137,0.059648191797042505,0.236697387954246,0.0,3,0.3,0,3,0.23561545640729023,49.11766330568819,0.09079689937619637,177.0058136725147,0.1363767162608316,0.0,0,0,0,0
0.52,0.0,1,0,0,1,1,0,0,1,0.4050429501741038,0.0,0.31975319788268336,0.7752200393436992,0.0,0.595959600749596,0.07541334944794367,0.01862995581858625,0.3136663034692588,-0.02260975310911615,-0.02944840282959027,0.0852282906428105,0.22620243757570047,0.15874676108414668,0.017611247786999434,0.26324151600837775,-0.09869472486865391,0.12331845258653819,-0.1093069502006786,0.13057521277594167,0.08033909379186442,-0.13398644699026402,-0.11770285453946458,0.018892044061153995,0.2803167616419851,0.03052113154926744,-0.3377166446629863,0.4240656396009566,0.9372054196793493,0.3835785756457871,0.1247261885321187,0.03052113154926744,0.3377166446629863,0.4240656396009566,0.9372054196793493,0.06382537776310376,0.2190726978444899,0.0,3,0.3,0,3,0.22156128797249938,56.03737703491532,0.08711831070637834,187.67100157118503,0.019132695290522195,0.0,0,0,0,0
0.53,0.0,1,0,0,1,1,0,0,1,0.4127911529571451,0.0,0.325700170581432,0.774820278304128,0.0,0.5946972698748665,0.07839113176040623,0.01909880777918729,0.3106799160726112,-0.018920981075076268,-0.02080574051693973,0.0890292390206258,0.2261012808613549,0.1587989886610382,0.017640259871445768,0.26849837377041164,-0.09659336418862483,0.12325317883887238,-0.10473171749221019,0.13270213482968782,0.08386492397297082,-0.1338183124154072,-0.11774025313324253,0.018903007140220335,0.3090073442853659,0.02591344115168782,-0.27664194234697265,0.36741424077443924,0.7637507049116319,0.40216019081432963,0.10378380867177917,0.02591344115168782,0.27664194234697265,0.36741424077443924,0.7637507049116319,0.07646002023289761,0.20615727005636458,0.0,3,0.3,0,3,0.21681956057809262,90.83121628043489,0.0930912883614652,180.54375595649742,0.14894214175467124,0.0,0,0,0,0
0.54,0.0,1,0,0,1,1,0,0,1,0.4205352816581571,0.0,0.3316342851951342,0.7744128701012043,0.0,0.593411461370219,0.08169043678160103,0.01960535789872424,0.3082619109797831,-0.016334370197415328,-0.014150639313523783,0.09300403988666821,0.22608692820773268,0.1588577286330196,0.017663504675965197,0.27386614437726653,-0.09486593556727443,0.11787586474515899,-0.09975108578090072,0.13519544208439616,0.0814325963162289,-0.13360516035902908,-0.1177763154061251,0.018915392141288567,0.34939350952387516,0.02453616871601398,-0.2181418123906909,0.18056195975700157,0.5514055506326568,0.41658823792660177,0.07114177213428197,0.02453616871601398,0.2181418123906909,0.18056195975700157,0.5514055506326568,0.08495395273146755,0.18063189358176351,0.0,3,0.3,0,3,0.1903450186253149,145.84572010995026,0.0994002189993653,167.6636871947282,0.377012156077982,0.0,0,0,0,0
0.55,0.0,1,0,0,1,1,0,0,1,0.42827525984571624,0.0,0.3375553074551057,0.7739978187559116,0.0,0.5921022259971487,0.08534227390893898,0.020178708732665657,0.3064058204433198,-0.015596649847578335,-0.00892355867803718,0.09701729303181485,0.22614465651106144,0.15892223603360894,0.017683788233069292,0.281351303256301,-0.09269418758023887,0.10780835247972761,-0.09108149529393711,0.13744646873719998,0.07394916500556462,-0.13333935269021324,-0.11780377347304904,0.018929326184858097,0.3836541270270247,0.027469454176696,-0.1624645475255442,0.019369541107429195,0.524588648162362,0.39934579206801113,0.04462113281869151,0.027469454176696,0.1624645475255442,0.019369541107429195,0.524588648162362,0.06179048461290543,0.13388107160829293,0.0,3,0.3,0,3,0.1532518670974853,197.95868483483372,0.10331309918142736,162.02250330343543,0.7130056583433082,0.0,0,0,0,0
0.56,0.0,1,0,0,1,1,0,0,1,0.4360110111293624,0.0,0.34346300360952614,0.7735751283646175,0.0,0.5907696154420439,0.08935992925379031,0.02087683155578013,0.30497478665230093,-0.015109263672906272,-0.003998054109144222,0.1009512810454173,0.22626466394029265,0.15899646109733645,0.017703643534566632,0.29164108392960586,-0.08945872861062781,0.09726002661302528,-0.079031353441429,0.1384953101065524,0.06397937187245557,-0.13302664873610123,-0.11782000961673746,0.01894508175644366,0.42963947337714714,0.035992957270440225,-0.13517495519481845,0.035604420600488046,0.39796433082557037,0.3997230708821454,0.006371537752215273,0.035992957270440225,0.13517495519481845,0.035604420600488046,0.39796433082557037,0.056260067272619285,0.09862456229527478,0.0,3,0.3,0,3,0.11524392435160499,194.83191952548245,0.10135685184999473,154.21403350301307,0.6210728321648387,0.0,0,0,0,0
0.5700000000000001,0.0,1,0,0,1,1,0,0,1,0.44374245916035343,0.0,0.3493571404326669,0.7731448030991017,0.0,0.5894136823140772,0.09380752791323234,0.02173323529482283,0.30373045665082987,-0.014984625477152779,-0.0004706442678474865,0.10483721590372796,0.22644383359074904,0.15908137379855009,0.01772404615774556,0.30375168016401055,-0.08555938738097345,0.08696081321357695,-0.06520127860605582,0.1387647907506963,0.05455392248031869,-0.13267757699837052,-0.11782594051439842,0.018963495269049002,0.4701796679960338,0.046337522566269315,-0.11214038736832656,-0.009221190674634522,0.3380576863224112,0.3907815288297903,0.026437208835680348,0.046337522566269315,0.11214038736832656,0.009221190674634522,0.3380576863224112,0.04142438839712337,0.11419911979907303,0.0,3,0.3,0,3,0.1026882292048508,162.4299534179498,0.09564552664474446,158.7008876128154,0.5289429859285848,0.0,0,0,0,0
0.58,0.0,1,0,0,1,1,0,0,1,0.45146952763241865,0.0,0.3552374852340987,0.7727068472065224,0.0,0.5880344801431792,0.0986253107834776,0.02273639894982313,0.30267955448681494,-0.016291986964064063,0.002731248424837407,0.10876532717882142,0.22666503353019013,0.15917648089414183,0.017745684804175682,0.31730179857944796,-0.08284432529372504,0.0764133518074683,-0.050569840518070674,0.13907652164229986,0.04606206671717461,-0.13228734344176468,-0.11782274035507694,0.01898472156228162,0.508911546789846,0.05473714953317249,-0.09987806199193082,-0.13113413971603183,0.2652944431967609,0.40289262606615867,0.057442019157427304,0.05473714953317249,0.09987806199193082,0.13113413971603183,0.2652944431967609,0.04765514083205996,0.15983430952265976,0.0,3,0.3,0,3,0.1422228297548811,131.99348169075154,0.09267316765458074,151.3131516859814,0.4106975373776214,0.0,0,0,0,0
0.59,0.0,1,0,0,1,1,0,0,1,0.4591921402825117,0.0,0.3611038058678774,0.7722612650093053,0.0,0.5866320633778677,0.10374925257691558,0.023884269858202977,0.30169397450856067,-0.017530698344540407,0.005303582386340988,0.11253319264756415,0.22692567531490765,0.1592795116102236,0.017768705232596188,0.33168737333472076,-0.07980099150389343,0.06503910068559865,-0.03612718108425525,0.1394505545079204,0.03929707315049186,-0.13187303391924543,-0.11780700336985366,0.0190078220082249,0.5333368466287693,0.062276914357158285,-0.08741594653028804,-0.12830297416735556,0.27712541038591065,0.3629156547815807,0.07414470634625764,0.062276914357158285,0.08741594653028804,0.12830297416735556,0.27712541038591065,0.00181184891370334,0.13823346961711927,0.0,3,0.3,0,3,0.1468543300160372,85.91013103500636,0.07762009698839134,144.16062724155864,0.31699672242774835,0.0,0,0,0,0
0.6,0.0,1,0,0,1,1,0,0,1,0.46691022089156364,0.0,0.3669558707417092,0.7718080609051936,0.0,0.585206487383183,0.10907179262890977,0.025127200823766144,0.300817725688387,-0.017500290597560517,0.007641246682401626,0.11604983287009753,0.22722467862674464,0.15938805216662735,0.017792675507980527,0.3428118629514124,-0.07660008517051584,0.055249953624689416,-0.023701710831280143,0.14088031089163705,0.03283540791099729,-0.1314437835617785,-0.11778311234353309,0.019031950709761603,0.5520799807353975,0.06662432620933974,-0.07684856532900708,0.06042910371369697,0.12738812230777385,0.3435712196319903,0.0851697598438339,0.06662432620933974,0.07684856532900708,0.06042910371369697,0.12738812230777385,0.023384651109718935,0.17517873716289256,0.0,3,0.3,0,3,0.15706035981114536,64.41833152012329,0.07380074034217723,180.7822527491406,0.6257595038539567,0.0,0,0,0,0
0.61,0.0,1,0,0,1,1,1,0,1,0.4746236932852346,0.0,0.3727934488260932,0.7713472393670984,0.0,0.583757808438401,0.11436981438069493,0.026517942126236305,0.30019773842882286,-0.01864189154802333,0.007858356048744852,0.11898907678373567,0.22750806906016546,0.1593720442416456,0.017816530624251786,0.3439083669903753,-0.07539199513860112,0.05465488132663794,-0.01586390302744453,0.14289155877482007,0.024106448054722326,-0.13102112059276033,-0.11773686367143991,0.01905582195114966,0.5380415742669062,0.08949848754680348,-0.04643080744665198,-0.4323749049457394,-0.1206717147221569,0.26280826851158784,0.06341788098167161,0.08949848754680348,0.04643080744665198,0.4323749049457394,0.1206717147221569,0.10998518031450538,0.26290154884298045,25.0,3,0.3,0,3,0.2335557803221863,66.63062900989746,0.07070482239207962,194.01431057098466,0.23672554007530366,25.0,0.0,0.13999999999999999,0.0,0.0
0.62,0.0,1,0,0,1,0,1,1,1,0.4823324813346662,0.0,0.3786163096634422,0.7708788049431592,0.0,0.5822860837348953,0.11966027501954338,0.0282218681802985,0.29973184535158687,-0.02349167100652338,0.003548149580675286,0.12178375600564065,0.22653136168588675,0.1558094195912896,0.018208938233299665,0.3442772023328366,-0.07523947169292759,0.054624718973152436,-0.01433321369383081,0.14427530861723648,0.017406654597417276,-0.13116068147507265,-0.11807541955403224,0.019085255887201502,0.5508277444402343,0.11608740926006393,-0.025139290769705617,-0.3778660926627459,-0.5896164871510592,0.30746188403360236,0.06849526310556808,0.11608740926006393,0.025139290769705617,0.3778660926627459,0.5896164871510592,0.07115442562983981,0.25573709799547184,40.0,3,0.3,0,3,0.2789992452403194,117.90944647941569,0.08202774439777455,188.81493875784457,0.49373383502763524,40.0,0.0,0.0,0.16,0.0
0.63,0.0,0,1,1,0,0,1,1,1,0.4900365089572325,0.0,0.38442422337718063,0.7704027622566278,0.0,0.5807913713738455,0.12494235700076915,0.029877833590540148,0.29966640683769324,-0.030162666774473285,-0.0009063759192555754,0.1255280566425893,0.22656546114915715,0.15350235238992735,0.02365032606253492,0.344424499520143,-0.07436452515159325,0.054149349528692436,-0.014177177409318842,0.14431423075450373,0.017434706053719287,-0.1299735209207465,-0.1205257101469485,0.02414447569504194,0.5291244086097373,0.07181095534510289,0.009008580795444157,-1.137816808767023,-0.18074256712503434,0.40055275098815446,0.03908789965250481,0.07181095534510289,0.009008580795444157,1.137816808767023,0.18074256712503434,0.01612852761097383,0.12702738260858154,35.0,3,0.3,0,3,0.17445607502723215,259.39831930555226,0.1529861950886398,227.36718778068507,0.10391438121568752,35.0,0,0,0,0
0.64,0.0,0,1,1,0,0,1,1,0,0.4977357001172911,0.0,0.3902169606808198,0.7699191160058627,0.0,0.5792737303639162,0.1300854751578954,0.031203065760417818,0.2998023929185029,-0.03701845092564898,-0.002042024940919429,0.12914351184100964,0.2276243852128707,0.15566901502173378,0.034055477611944246,0.34473127277881965,-0.07411980743456403,0.05405733242538893,-0.013954167024944925,0.14434942854174554,0.017459064343164313,-0.12431864988713369,-0.12652231762594987,0.03390598836931252,0.5286173658244845,0.06409869006023658,0.0246984573797803,-0.15978570776528742,-0.15625738601016007,0.3159633064696144,0.030881665707193362,0.06409869006023658,0.0246984573797803,0.15978570776528742,0.15625738601016007,0.07425365421120539,0.16923400997863533,5.0,3,0.3,0,3,0.1370260370131245,225.66700986025248,0.13117230897440016,173.4538295637712,0.05840096160306829,5.0,0,0,0,0
0.65,0.0,0,1,1,0,0,1,1,0,0.5054299788269336,0.0,0.39599429288700977,0.769427870964251,0.0,0.5777332206189978,0.13523092547068596,0.03243960289838096,0.3002244829974115,-0.03902043821404614,-0.003189120836994297,0.13276157145562015,0.2292662295847792,0.1589827519756417,0.04596735012285552,0.34509652776321686,-0.07399637697793879,0.054041378425517234,-0.013685091341499228,0.14437948383383006,0.017481616422149154,-0.11792086585964917,-0.13156802292492248,0.045164762414853454,0.5215022921897948,0.04614389570786186,0.062112386862002614,-0.15934846859431345,-0.06059497255070816,0.4061580606097219,0.01607231336286119,0.04614389570786186,0.062112386862002614,0.15934846859431345,0.06059497255070816,0.010163767722712158,0.0723799767934352,0.0,3,0.3,0,3,0.10690754895798127,173.87757012979594,0.09478907332637015,170.14969199704566,0.16502334687622655,0.0,0,0,0,0
0.66,0.0,0,1,1,0,0,1,1,0,0.5131192691467354,0.0,0.4017559919165674,0.7689290319801811,0.0,0.5761699029557643,0.1403280465157685,0.033600076574054394,0.3009503084365593,-0.039171372185934306,-0.0035672870569822823,0.13665479412729686,0.23348426301564382,0.16305714618401254,0.057354861298105575,0.34546520238995587,-0.07387681902634824,0.05402777797714774,-0.013377274266145461,0.1444098584891656,0.017502882700937195,-0.10825156210240008,-0.13504529642623206,0.05625009076427437,0.5185544344502675,0.0404856928109639,0.08166728867096093,-0.0068147516850039155,-0.03753721823891534,0.37719686160508437,0.005435165303532052,0.0404856928109639,0.08166728867096093,0.0068147516850039155,0.03753721823891534,0.024559130311483046,0.070479988425979,0.0,3,0.3,0,3,0.07188301298906041,149.84894369458726,0.1016950977177841,136.65381300398093,0.19668861880183597,0.0,0,0,0,0
0.67,0.0,0,1,1,0,0,1,1,0,0.5208034951865055,0.0,0.4075018303074806,0.7684226039770037,0.0,0.5745838390913194,0.1453825699096417,0.03472183957506316,0.30183743572077554,-0.03879461476332078,-0.003600772704548838,0.14068427425106478,0.2409516614040602,0.1679281418009697,0.06798112371245774,0.345837881112551,-0.07375779138091834,0.05401456366359181,-0.013051027164984963,0.14443698176610445,0.017523532056972768,-0.09555147633772143,-0.13692041277454584,0.06741354609841946,0.5171437961129427,0.03536850332479231,0.09328318052741759,0.10415600655156425,-0.025586144542800452,0.41542786585933,0.0036596990735627832,0.03536850332479231,0.09328318052741759,0.10415600655156425,0.025586144542800452,0.007926035551849397,0.04695423795020449,0.0,3,0.3,0,3,0.04915426359078319,117.11773337754703,0.082804539771524,124.03006594318484,0.16976681778296143,0.0,0,0,0,0
0.68,0.0,0,1,1,0,0,1,1,0,0.5284825811060347,0.0,0.4132315812238882,0.767908591952926,0.0,0.5729750916407594,0.15047826250756197,0.03583736621434698,0.3028143465883793,-0.03749641412262526,-0.0039045169037523753,0.14468124452379458,0.2511682121261358,0.17264231890276985,0.07799231882815724,0.34622183392457595,-0.07364076845537564,0.054003982173091186,-0.01271345329075485,0.14446587690736254,0.017544326195519613,-0.08083332546489955,-0.13751156094993588,0.07719219825238854,0.5242825046478232,0.034565268100648916,0.0995005397398638,0.17840043145477913,-0.08096872937456236,0.3853465991459281,0.004200076458211521,0.034565268100648916,0.0995005397398638,0.17840043145477913,0.08096872937456236,0.027884982077960085,0.06665032663682052,0.0,3,0.3,0,3,0.054885716314007335,119.58629872529532,0.09409887191881651,113.16347644342791,0.12914893845876563,0.0,0,0,0,0
