time,trans_flag,des_cont_state_fl,des_cont_state_fr,des_cont_state_rl,des_cont_state_rr,cont_state_fl,cont_state_fr,cont_state_rl,cont_state_rr,vel_cmd_x,vel_cmd_y,vel_cmd_yaw,acc_cmd_x,acc_cmd_y,acc_cmd_yaw,base_pos_x,base_pos_y,base_pos_z,base_ang_roll,base_ang_pitch,base_ang_yaw,FL_foot_pos_x,FL_foot_pos_y,FL_foot_pos_z,FR_foot_pos_x,FR_foot_pos_y,FR_foot_pos_z,RL_foot_pos_x,RL_foot_pos_y,RL_foot_pos_z,RR_foot_pos_x,RR_foot_pos_y,RR_foot_pos_z,base_vel_x,base_vel_y,base_vel_z,base_vel_roll,base_vel_pitch,base_vel_yaw,x_vel_err,y_vel_err,z_vel_err,roll_vel_err,pitch_vel_err,yaw_vel_err,cmd_err,cont_err,terr_freq,terr_height,failed,gait_id,base,CoT,musculoskeletal,foot_force,MWE,stability,FL_stride_t,FR_stride_t,RL_stride_t,RR_stride_t
0.01,0.0,1,1,1,1,1,1,1,1,0.006283178692509316,0.0,0.005026527078818862,0.6283178692509316,0.0,0.5026527078818862,-4.6919647341797275e-05,-2.862911054074843e-05,0.30990006558367705,-0.0014106259580140197,0.00038987027688275333,4.5925174424899124e-05,0.18297088715901288,0.13204815667226893,0.017331773459133143,0.18296360569376716,-0.13202689143881735,0.017393456973468197,-0.18301441681532352,0.13204679433571156,0.01733169506340873,-0.18300303783555052,-0.13205312090508703,0.017331678797843586,-0.01104434601856263,-0.005236040719247447,-0.025084585632738125,-0.275602295428993,0.08413187495980531,0.009633329515492107,0.017327524711071948,0.005236040719247447,0.025084585632738125,0.275602295428993,0.08413187495980531,0.0046068024366732446,0.027170367866992638,70.0,3,0.3,0,13,0.0153867689046647,6.91402966293214,0.0313833093642107,63.53752213321734,0.018624115781084343,70.0,0,0,0,0
0.02,0.0,1,1,1,1,1,1,1,1,0.014137091596022201,0.0,0.011309492449657768,0.7853912903512885,0.0,0.6282965370838907,-0.00021373064074469607,6.533728535989792e-06,0.3094795498344585,-0.00014999743591851872,0.0012612561872105132,3.936711074494818e-05,0.1829213705066763,0.13205231142292817,0.017340002429959644,0.1828812836810243,-0.13198551843007372,0.0175012752011047,-0.1830784185994119,0.13200055924236878,0.017339767385187832,-0.1830446706466151,-0.1320478011509549,0.017339844091748213,-0.02256735479540424,0.013307753272132334,-0.05621942419195285,0.43509193397346063,0.09008672719379747,-0.013594546688650446,0.03670444639142644,0.013307753272132334,0.05621942419195285,0.43509193397346063,0.09008672719379747,0.024904039138308215,0.07491623880186699,0.0,3,0.3,0,13,0.04846252573356148,8.801206692523689,0.04058135776565751,72.72640705413512,0.06745189913027051,0.0,0,0,0,0
0.03,0.0,1,1,1,1,1,1,1,1,0.02199086497214841,0.0,0.01759201134109972,0.7853773376126207,0.0,0.628251889144195,-0.00047883627158246106,0.00013252911896406602,0.30881802317621676,0.001039716257399268,0.0022350489369296067,-8.976476286160543e-05,0.1828416023919677,0.13205839057040164,0.017348613009520536,0.1827922014644039,-0.131932664569979,0.017649653697996842,-0.1831346079539416,0.13200903577453818,0.01734802372424679,-0.18309617441224826,-0.13203929310940238,0.017348055637744858,-0.029159117813384174,0.00801281282998136,-0.07359154963491417,-0.2899352044441379,0.09401509316970766,-0.0063687508745831345,0.05114998278553258,0.00801281282998136,0.07359154963491417,0.2899352044441379,0.09401509316970766,0.023960762215682854,0.08312355783119679,0.0,3,0.3,0,13,0.08527903029326268,7.97787934776931,0.040379913277811014,91.54341861937549,0.08881442254796132,0.0,0,0,0,0
0.04,0.0,1,1,1,1,1,1,1,1,0.02984442130731541,0.0,0.023873835730056265,0.7853556335166999,0.0,0.6281824388956546,-0.0007903737435184829,0.00018268859272465305,0.3080124825144271,-0.0024057485077949386,0.0031480181176797295,4.433057279058863e-05,0.18273793243167938,0.1320626108683977,0.01735766086503046,0.18270376457531118,-0.13188091645942193,0.01779726820086458,-0.1832144121355693,0.13200950428840874,0.01735658325467576,-0.1831500726753842,-0.1320386449182819,0.01735624852126577,-0.031888738186418575,0.0011793081832546996,-0.08828631515171632,-0.3885194815461792,0.08965344601280285,0.016497271316483767,0.06173315949373398,0.0011793081832546996,0.08828631515171632,0.3885194815461792,0.08965344601280285,0.007376564413572498,0.07028903209056117,0.0,3,0.3,0,13,0.06820353699713752,7.802535720292366,0.04092767646166058,91.4886937172899,0.10709016595511053,0.0,0,0,0,0
0.05,0.0,1,1,1,1,1,1,1,1,0.03769768309009279,0.0,0.030154717620856746,0.7853261782777381,0.0,0.628088189080048,-0.0011154157865786198,0.0001703806816331096,0.3070872266222935,-0.005293373234533081,0.003935929980224184,0.0001623118332978744,0.18263342147592918,0.13206311054375203,0.017366716635316054,0.18260935073923973,-0.13183163445700746,0.017944998316281602,-0.18329880817014813,0.13200667342707026,0.01736520357986307,-0.18321779437232577,-0.1320412910769376,0.01736458420738385,-0.03356368303298256,-0.001285334217250667,-0.0937872027710659,-0.15434317770233388,0.08130186494439223,0.02429199124122267,0.07126136612307535,0.001285334217250667,0.0937872027710659,0.15434317770233388,0.08130186494439223,0.005862726379634076,0.07840942671996008,0.0,3,0.3,0,13,0.08279849204333903,9.488478814572604,0.044789197358193936,106.56651093474663,0.10892131071137859,0.0,0,0,0,0
0.06,0.0,1,1,1,1,1,1,1,1,0.04555057281195724,0.0,0.036434409055038704,0.7852889721864452,0.0,0.6279691434181958,-0.0014504606677414092,0.00012110844435986755,0.306117799529659,-0.006869008011133883,0.0047554693966458395,0.00044946299924262167,0.18252654815613384,0.1320621599644114,0.017375743128641652,0.18251177527458012,-0.13178341155175172,0.0180925174788433,-0.18338328239606502,0.13199895209633403,0.017373779585277443,-0.18329054335698972,-0.13204890028343833,0.01737300239355749,-0.03264108432441204,-0.009015733171509777,-0.09960707860292088,-0.22035627562520776,0.08158284003029986,0.02203080688532626,0.07819165713636927,0.009015733171509777,0.09960707860292088,0.22035627562520776,0.08158284003029986,0.014403602169712443,0.10161099247759149,0.0,3,0.3,0,13,0.08628227568527919,10.20588867678607,0.04544272968390274,102.40016641882077,0.11655139848905485,0.0,0,0,0,0
0.07,0.0,1,1,1,1,1,1,1,1,0.05340301296805755,0.0,0.04271266212113687,0.7852440156100309,0.0,0.6278253066098166,-0.0017850000981587352,5.3794616122026696e-06,0.3051466032660775,-0.008444595807596477,0.005702206688412925,0.0008740382856945557,0.18241963413389822,0.13206010639898136,0.017384729013806915,0.18241381790813752,-0.1317358499805264,0.0182395718026358,-0.18346292331110942,0.1319854498487852,0.01738226308905977,-0.1833623116223977,-0.13206231875198143,0.017381404983074333,-0.03258912908216456,-0.010850158791352123,-0.096028002445392,-0.03476956886969725,0.09956378177800332,0.05629187185425344,0.08599214205022211,0.010850158791352123,0.096028002445392,0.03476956886969725,0.09956378177800332,0.01357920973311657,0.1104215105746908,0.0,3,0.3,0,13,0.10397930700713623,12.238716873813551,0.046888077250132915,115.40888011733873,0.10624180286097185,0.0,0,0,0,0
0.08,0.0,1,1,1,1,1,1,1,1,0.06125492605797953,0.0,0.048989228964470284,0.7851913089921981,0.0,0.6276566843333414,-0.002102887836384476,-0.00012074971592679928,0.3042209628750517,-0.008386580862585495,0.006562298581207715,0.0012382492358264127,0.18232560416956742,0.13205555131856345,0.01739344122597028,0.1823162573456577,-0.1316901917550041,0.01838599500319804,-0.1835344718334222,0.13197309557653894,0.017390577266765933,-0.18343605921758782,-0.1320747074342767,0.01738980720194605,-0.029869870108040496,-0.012420053686415385,-0.0897054986037294,-0.009586281213879716,0.07607658149709573,0.028383696981346376,0.09112479616602003,0.012420053686415385,0.0897054986037294,0.009586281213879716,0.07607658149709573,0.02060553198312391,0.12415038183555932,0.0,3,0.3,0,13,0.11541361970161375,15.74285427044794,0.05172128561563973,111.44959578131503,0.0955240218281935,0.0,0,0,0,0
0.09,0.0,1,1,1,1,1,1,1,1,0.06910623458651093,0.0,0.055263861796927174,0.7851308528531393,0.0,0.627463283245689,-0.0023900372978785593,-0.0002454841523755471,0.3033554858824285,-0.008095994456567446,0.007335148396133473,0.0017003841727260642,0.1822372679542557,0.1320536403300977,0.017402009882898223,0.1822241946960719,-0.13164301366029238,0.018531592190742685,-0.18360033954741842,0.13195883806576883,0.017398793892512615,-0.18350383612665813,-0.13208904635885915,0.017398128912612304,-0.026361917505615926,-0.011472947274394029,-0.0832918123442598,0.025520067707855556,0.07233438265853456,0.05864642134778736,0.09546815209212685,0.011472947274394029,0.0832918123442598,0.025520067707855556,0.07233438265853456,0.003382559550860184,0.11032365891738107,0.0,3,0.3,0,13,0.11086961704581852,16.59059991166881,0.0484810322653056,118.40051099494436,0.09021051696515109,0.0,0,0,0,0
0.1,0.0,1,1,1,1,1,1,1,1,0.07695686106440629,0.0,0.06153631290674721,0.7850626477895362,0.0,0.6272451109820033,-0.002634829549169182,-0.00037870019847450505,0.30257438378167817,-0.0076736219707383875,0.008058086039119061,0.00219901448236693,0.18215980733745496,0.13205032384044332,0.01741039486758031,0.18213805016333223,-0.13159681176834476,0.018676091622566504,-0.18365798969731553,0.13194360566705587,0.017406902733934054,-0.1835643891163152,-0.13210439641299326,0.01740634621719417,-0.01999011644918888,-0.015158086648682066,-0.07516624610804593,0.026070321847188674,0.05402336657413857,0.04984761000197773,0.09694697751359517,0.015158086648682066,0.07516624610804593,0.026070321847188674,0.05402336657413857,0.011688702904769477,0.12379376706704671,0.0,3,0.3,0,13,0.11958573425730239,21.402781026466087,0.05478481621205307,115.01305317577673,0.07852439096816319,0.0,0,0,0,0
0.11,0.0,1,1,1,1,1,1,1,1,0.08480672800915168,0.0,0.06780633466830074,0.784986694474539,0.0,0.6270021761553536,-0.0027640047358626226,-0.0005149149059008016,0.3017871325689329,-0.006177993724249157,0.008311585958434398,0.0027693742147440344,0.18209827857748867,0.13204894185560362,0.017418610316592364,0.18205823833432577,-0.1315496160521365,0.018819995721132687,-0.183711475152803,0.13192779490426612,0.017414967271302456,-0.18362845543798592,-0.1321204131137885,0.01741473024626608,-0.005257595706460308,-0.011275983609622345,-0.0820124726581595,0.22108398814910307,0.005323464894436045,0.06052634995151683,0.09006432371561199,0.011275983609622345,0.0820124726581595,0.22108398814910307,0.005323464894436045,0.007279984716783913,0.10862029204201824,0.0,3,0.3,0,13,0.11214512517707942,22.88176008116036,0.05691958221159591,107.41716192568083,0.09113634057139935,0.0,0,0,0,0
0.12,0.0,1,1,1,1,1,1,1,1,0.09265575794572947,0.0,0.0740736795518646,0.7849029936577795,0.0,0.6267344883563855,-0.0027749255259358688,-0.0006425939737439124,0.30097150503681736,-0.004467385696878061,0.008405076385532784,0.003467502926321387,0.18204177499756466,0.132048727085905,0.017426800849346447,0.1819850487575376,-0.1315018048640799,0.01896297911784625,-0.18376234482967654,0.1319102233835381,0.017423047105994016,-0.18368580403716522,-0.13213822009411436,0.01742316141886005,0.0058174567020680915,-0.013335357609967144,-0.08324191087125268,0.09256291033763529,-0.0060881807507175536,0.06865771657569794,0.08683830124366138,0.013335357609967144,0.08324191087125268,0.09256291033763529,0.0060881807507175536,0.005415962976166658,0.10558962182979517,0.0,3,0.3,0,13,0.10402933075857937,20.988051672296713,0.05319931298539095,106.35999384267186,0.09100347704842324,0.0,0,0,0,0
0.13,0.0,1,1,1,1,1,1,1,1,0.10050387340738298,0.0,0.08033810013339421,0.784811546165351,0.0,0.6264420581529608,-0.002674029348096218,-0.0007814057285129603,0.30014069917786745,-0.003360526877753205,0.008363444277221577,0.004111450261959334,0.18199337162292423,0.13204718867401696,0.017434962795097375,0.18191365967261056,-0.13145431818922002,0.01910833882727625,-0.18380758597049493,0.1318931666102192,0.017431158683136577,-0.18373712809471418,-0.13215551505279324,0.017431619006128607,0.016401268768103563,-0.012303518506841308,-0.083907298076693,0.16355308848040098,0.004027717701824275,0.06200537793006773,0.08410260463927942,0.012303518506841308,0.083907298076693,0.16355308848040098,0.004027717701824275,0.018332722203326476,0.1147388453494472,0.0,3,0.3,0,13,0.11318401324747676,21.407690362224113,0.0540091335939657,112.34601063951375,0.09326391366047791,0.0,0,0,0,0
0.14,0.0,1,1,1,1,1,1,1,1,0.10835099693638103,0.0,0.08659934910429141,0.7847123528998051,0.0,0.6261248970897206,-0.0024315287506891147,-0.0008962392901260716,0.299277099239683,-0.0019120023142536933,0.008157655533940877,0.004738739687246297,0.18195548034891398,0.13204753332818348,0.01744312358005734,0.1818174725457703,-0.13139934029054434,0.01923630753446276,-0.183848208440957,0.13187725796837244,0.017439336527870247,-0.18378356832595646,-0.13217167454395665,0.017440226342451903,0.033766370360546416,-0.010415615586216573,-0.08975572993720471,0.16654325055298996,-0.038325761699725513,0.06927610907536516,0.07458462657583462,0.010415615586216573,0.08975572993720471,0.16654325055298996,0.038325761699725513,0.017323240028926254,0.10232348219097745,0.0,3,0.3,0,13,0.11042736326123923,25.758142493685718,0.057166934373691226,103.89045525544994,0.10453497224960147,0.0,0,0,0,0
0.15,0.0,1,1,1,1,1,1,1,1,0.11619705108478236,0.0,0.09285717928116781,0.7846054148401324,0.0,0.6257830176876394,-0.0020585250974954365,-0.0010004639508555523,0.29839480414182123,-0.0009013249366662709,0.008152280458181949,0.005561415488340559,0.18191592053729944,0.1320506977782349,0.017451408710031202,0.18175667311109597,-0.13134830636858882,0.01937495879813214,-0.18388070707197696,0.1318586300199451,0.017447518963287584,-0.18381425013878092,-0.1321905625032354,0.017448809030775864,0.042816140427355584,-0.011918424498961341,-0.08769690816173954,0.011546617999775055,0.01550145210083011,0.09878155350987149,0.07338091065742677,0.011918424498961341,0.08769690816173954,0.011546617999775055,0.01550145210083011,0.005924374228703677,0.09122370938509179,0.0,3,0.3,0,13,0.09235952987229243,21.791822589987625,0.053156790378037486,115.44419699422133,0.09871684598321735,0.0,0,0,0,0
0.16,0.0,0,0,0,0,1,0,1,1,0.12404195841520015,0.0,0.09911134361560314,0.7844907330417789,0.0,0.6254164334435333,-0.0013405856724622934,-0.0011568030977062202,0.2982934869299572,0.0019024003068412911,0.008358213175027718,0.006976112718032106,0.181989193044105,0.13205824673984135,0.017459968357288108,0.17673342631271147,-0.13006178680964228,0.019415286037151702,-0.18379118909954364,0.13182857065829814,0.017455973102397437,-0.18373652573852833,-0.13222128946406594,0.01745732166025671,0.10898982545274434,-0.020046561129847974,0.11468169866048514,0.48720278471864,0.02638515806058809,0.1859515063096609,0.015052132962455805,0.020046561129847974,0.11468169866048514,0.48720278471864,0.02638515806058809,0.08684016269405775,0.12193885678636153,90.0,3,0.3,0,13,0.11292256714482185,550.9213368750019,0.1920070861867077,343.48628765465963,0.19323031273043922,90.0,0,0,0,0
0.17,0.0,0,0,0,0,1,0,1,1,0.13188564150156615,0.0,0.10536159520389834,0.7843683086366001,0.0,0.6250251588295203,0.00013863510424128695,-0.0013866248459556256,0.3010023229757735,-0.002487584825584485,0.007859332174308342,0.008345859924596638,0.18228195994755225,0.13205699496572518,0.017474294114155936,0.17000242542120778,-0.12681530850198794,0.02095541985327745,-0.1861086690590447,0.13201720906486059,0.01815100911519857,-0.18341179657238627,-0.13224514934737308,0.0174739270677772,0.1816708581886788,-0.02515224205390363,0.39421136949405977,-1.3786370914662234,-0.23275816226519086,0.06691854395100903,0.049785216687112666,0.02515224205390363,0.39421136949405977,1.3786370914662234,0.23275816226519086,0.03844305125288931,0.1133805099939056,75.0,3,0.3,0,13,0.09110625477848706,1095.0215352856035,0.26947463931829035,459.684383693748,0.6972425947443772,75.0,0,0,0,0
0.18,0.0,0,0,0,0,1,0,0,1,0.1397280229298949,0.0,0.11160768729682284,0.7842381428328743,0.0,0.6246092092924496,0.002133794888399418,-0.0015464946848695689,0.3045776084389944,-0.010573439736466586,0.0024968135385952106,0.009009552600114346,0.18269724553547378,0.13200881913570667,0.017496445405469158,0.17439115401908464,-0.12586497664510665,0.03200664717131732,-0.19046344436539062,0.1328567101972834,0.029235046198391124,-0.18481433208027,-0.13283005089736763,0.019010366292332548,0.19297021004923975,-0.01498637310483705,0.3215870657910925,0.39550019615651094,-0.7365634960471072,0.11636882624684326,0.053242187119344864,0.01498637310483705,0.3215870657910925,0.39550019615651094,0.7365634960471072,0.0047611389500204215,0.07298969917420234,60.0,3,0.3,0,13,0.1259812607731739,288.47940744631967,0.14883633927109985,105.60316310117625,0.6419498474019107,60.0,0,0,0,0
0.19,0.0,0,0,0,0,0,0,0,1,0.1475690252990478,0.0,0.11784937330935583,0.7841002369152916,0.0,0.6241686012532984,0.004093385515090254,-0.0016230243904893234,0.30686375145323114,-0.007138428187319891,-0.003397412119842347,0.009919060857681633,0.18681146942863863,0.1315948995713722,0.03376752127598351,0.18137643852186194,-0.12623046163251803,0.04595657382913909,-0.19241669250841228,0.13452589889178493,0.04062699768116057,-0.18041885446976158,-0.13426797290344575,0.03114148771805411,0.1995618477834203,-0.009620105711181697,0.1255753629700249,0.27063090506418647,-0.4041798487978801,0.09413782720304788,0.05199282248437248,0.009620105711181697,0.1255753629700249,0.27063090506418647,0.4041798487978801,0.02371154610630795,0.08532447430186213,25.0,3,0.3,0,13,0.09491922835502813,218.15390688536505,0.08492335648996487,0.3080695741842041,0.7027888183974895,25.0,0,0,0,0
0.2,0.0,0,0,0,0,0,0,0,0,0.15540857122149707,0.0,0.124086406830421,0.7839545922449259,0.0,0.623703352106518,0.006070979848218973,-0.0016983616178521182,0.3073172786800326,-0.006133493835776167,-0.006064142347336876,0.011218690353258969,0.19342967128312283,0.1337237703553628,0.061428114985949064,0.18795668969767332,-0.12935862629444791,0.06780957226710776,-0.18869779403728004,0.1358240414785443,0.0579131823058133,-0.17249742298684678,-0.1343784044469549,0.04975930676057791,0.1960692434840915,-0.011704159953256696,-0.030366755193129428,-0.07440635511291108,-0.22694400375557314,0.14468383362655973,0.04066067226259443,0.011704159953256696,0.030366755193129428,0.07440635511291108,0.22694400375557314,0.020597426796138726,0.07296225901198986,5.0,3,0.3,0,13,0.07095353054560143,138.57781054396256,0.05546597695725998,0.0,0.6535006502985943,5.0,0,0,0,0
0.21,0.0,0,0,0,0,0,0,0,0,0.16324658332408937,0.0,0.1303185416326145,0.7838012102592301,0.0,0.6232134802193492,0.00799727318442696,-0.0017876293371152307,0.30664214254169736,-0.004735484288451258,-0.008449590621845582,0.01256167281545784,0.1984514107828708,0.1383563964776845,0.08432763552819966,0.1924647922538761,-0.13358836611885125,0.08552314568790442,-0.18387672156182427,0.1371152706001818,0.07351338454676888,-0.16567889971254474,-0.13565878277281257,0.06811521605539268,0.18799775220478687,-0.010118581804979303,-0.09692290374957642,0.3409822254822235,-0.26214711469152846,0.14021255356069245,0.024751168880697505,0.010118581804979303,0.09692290374957642,0.3409822254822235,0.26214711469152846,0.009894011928077956,0.04476376261375477,0.0,3,0.3,0,13,0.04650199386233807,12.300030353906894,0.039204587604010514,0.0,1.2564148308700607,0.0,0,0,0,0
0.22,0.0,0,0,0,0,0,0,0,0,0.17108298424880955,0.0,0.1365455316819254,0.7836400924720183,0.0,0.6226990049310904,0.009856575634859088,-0.0018735322602485595,0.30552299370099006,-0.0011992731496742312,-0.011488400258144127,0.014154230562078148,0.20180095135614542,0.14205458842066873,0.097319503551861,0.19437606746147632,-0.13614875613703456,0.09412612817292337,-0.17835497546386353,0.13816019378346486,0.0841220520984079,-0.16239092337493022,-0.13734087272833917,0.07936626265197842,0.18156823395770463,-0.011692479600041755,-0.13206163727736675,0.3597417051806772,-0.3413355773819374,0.16138395791499,0.010485249708895084,0.011692479600041755,0.13206163727736675,0.3597417051806772,0.3413355773819374,0.024838426233064592,0.047016155542001434,0.0,3,0.3,0,13,0.0534134950241709,3.549751943533784,0.04607028926059413,0.0,0.923807031010657,0.0,0,0,0,0
0.23,0.0,0,0,0,0,0,0,0,0,0.17891769665354415,0.0,0.1427671311474489,0.7834712404734601,0.0,0.6221599465523503,0.011665723764404879,-0.0019691716260457916,0.30404896116107605,0.002696615455453731,-0.014871383153250095,0.015628424075506717,0.20281271940575518,0.14490249499213465,0.10085726252256674,0.19590405244579864,-0.1368527469849616,0.09528032851107804,-0.17324877511793868,0.1380029632576927,0.08906846049852948,-0.1611558748151431,-0.13857526875798595,0.08370416025447038,0.1760486284287626,-0.012840376174971331,-0.16798560662507028,0.36281252732015645,-0.3372174392323799,0.13678611343042774,0.002869068224781557,0.012840376174971331,0.16798560662507028,0.36281252732015645,0.3372174392323799,0.00598101771702117,0.021690462116774056,0.0,3,0.3,0,13,0.02414658958721485,3.316906712828002,0.046110659846523926,0.0,0.20009384379839013,0.0,0,0,0,0
0.24,0.0,0,0,0,0,0,0,0,0,0.18675064321284485,0.0,0.1489830944110912,0.7832946559300696,0.0,0.6215963263642293,0.013432743703200039,-0.002070413153712782,0.3021426058369423,0.0061133213182160235,-0.01817093281617077,0.016882692682847793,0.20261298991647272,0.1464481391023799,0.09864809682122047,0.19727841314517824,-0.1353307215354641,0.09081975138067315,-0.16847672131756444,0.13679059369944246,0.08881701445538559,-0.16107461752436572,-0.13941638252932217,0.08231814114583313,0.1699096063800217,-0.015070597651433808,-0.21991168201166436,0.30849197379096965,-0.28899512619929596,0.12190687972373712,0.016841036832823147,0.015070597651433808,0.21991168201166436,0.30849197379096965,0.28899512619929596,0.027076214687354078,0.05898784917161103,0.0,3,0.3,0,13,0.04613043283515737,7.178917839504559,0.03451102414859542,0.0,0.40354943691775946,0.0,0,0,0,0
0.25,0.0,0,0,0,0,0,1,0,0,0.19458174661869126,0.0,0.15519317607726604,0.7831103405846418,0.0,0.6210081666174844,0.01508162093729753,-0.002188098478845028,0.29968850113317347,0.009321571432458972,-0.020045352977898334,0.017981136155714828,0.2044026802215681,0.14660444924118005,0.09346444955336192,0.19729761294552825,-0.13406061748823847,0.08971581943080466,-0.16451420168673694,0.1356066375683536,0.08212443087496538,-0.16004098681459847,-0.1401661602787363,0.07616390105544556,0.14405085374625753,-0.0162361441916592,-0.26353593590562907,0.19909984608314102,-0.08439638487909912,0.09937782610079354,0.05053089287243373,0.0162361441916592,0.26353593590562907,0.19909984608314102,0.08439638487909912,0.0558153499764725,0.12258238704056543,10.0,3,0.3,0,13,0.09462810680905913,25.114813633990405,0.042998877442186945,50.99730077026332,0.5986675606340378,10.0,0.0,0.09,0.0,0.0
0.26,0.0,0,0,0,0,0,1,0,0,0.2024109295812544,0.0,0.16139713098258265,0.782918296256313,0.0,0.6203954905316611,0.016452978882479163,-0.0022709056566225304,0.29694249931229416,0.00823311438192115,-0.021359409002003282,0.018889992178413622,0.20848451122811895,0.14513748521080014,0.0848870408178567,0.1964708365659873,-0.13349345378912228,0.08841715503626826,-0.16068192046927313,0.13554828214249431,0.06906566478425834,-0.15629082492357196,-0.1422699447451584,0.06750431235048295,0.11818354618333204,-0.010014018263478853,-0.3016945522425195,-0.4181191610206903,-0.1592180846229576,0.08362443149014392,0.08422738339792235,0.010014018263478853,0.3016945522425195,0.4181191610206903,0.1592180846229576,0.07777269949243873,0.17201410115383992,25.0,3,0.3,0,13,0.1517505277494795,43.59638053348197,0.05256443453565991,53.580259669137966,0.8083536297556391,25.0,0,0,0,0
0.27,0.0,0,0,0,0,0,1,0,0,0.21023811482965918,0.0,0.16759471420552421,0.7827185248404783,0.0,0.6197583222941561,0.017556492662250636,-0.0022609020335543975,0.29381107221767283,0.0001658958328231936,-0.023112489253289015,0.019553580894089987,0.2108698753153172,0.14163501716692703,0.07398558232977102,0.19612069682689437,-0.13310725265592085,0.08892208627809105,-0.15503680621242585,0.13470419378059934,0.05364881684488702,-0.15263779943359929,-0.14336249899183004,0.05824002810657966,0.09398977497787167,0.005204689727759505,-0.3366155163528991,-1.0080270202934813,-0.2888024651621608,0.045551046182710386,0.11624833985178751,0.005204689727759505,0.3366155163528991,1.0080270202934813,0.2888024651621608,0.12204366802281383,0.24349669760236084,25.0,3,0.3,0,13,0.2121270563823315,27.89253203281972,0.05145656964867538,64.13006732588784,0.7990478418112297,25.0,0,0,0,0
0.28,0.0,0,0,0,0,0,1,0,0,0.21806322511274712,0.0,0.17378568107611705,0.7825110283087938,0.0,0.619096687059284,0.018560666547872216,-0.002120303382725759,0.29018010745853656,-0.013377331888038066,-0.02886049431444815,0.02004952540073459,0.2099886960963557,0.136313973433787,0.060679659799530564,0.1955713552404818,-0.13297682753609188,0.08803025971296188,-0.15032866723249427,0.13366999594414242,0.035240074064845736,-0.1505094544441693,-0.14443709797126716,0.052356475651193085,0.08857894315226371,0.02842398399910795,-0.39359055008448157,-1.5688536297758227,-0.8694403528986706,0.04369492913898133,0.1294842819604834,0.02842398399910795,0.39359055008448157,1.5688536297758227,0.8694403528986706,0.13009075193713573,0.2879990178967271,25.0,3,0.3,0,13,0.26695541415467916,35.34275596810941,0.05264494379488127,70.58409541049349,0.858265537154981,25.0,0,0,0,0
0.29,0.0,0,0,0,0,0,1,0,0,0.2258861831998389,0.0,0.17996978718558976,0.7822958087091797,0.0,0.6184106109472703,0.019533262711704063,-0.0017512182707408504,0.28616507690507503,-0.03263532651577942,-0.03962855635081097,0.020678670650075143,0.2062485445351975,0.13016419611231428,0.04722351540613062,0.19528704112308803,-0.132788586798386,0.08796890402622266,-0.14715610615101782,0.13136381126777827,0.013888563886227306,-0.15058909627353237,-0.14704006062124217,0.045515307297812085,0.08613309395762002,0.06299924475739044,-0.4058493157315823,-2.356245764095818,-1.3228292774330954,0.027333034160328125,0.1397530892422189,0.06299924475739044,0.4058493157315823,2.356245764095818,1.3228292774330954,0.15263675302526164,0.355389087024871,25.0,3,0.3,0,13,0.32709362306422135,126.06083565879308,0.0767525889502445,91.59592118105824,1.3823110344874778,25.0,0,0,0,0
0.3,0.0,1,1,1,1,0,1,1,0,0.23370691188149645,0.0,0.186146788396022,0.7820728681657535,0.0,0.6177001210432242,0.020602481613886326,-0.001173525907850602,0.28255579749266124,-0.052575769491044436,-0.05246640973372019,0.022543132190076177,0.20100834341472124,0.12448264815237703,0.036258813846557894,0.19536499154763667,-0.13270619963909858,0.08796363824123904,-0.14750922009917886,0.13134473992601148,0.013932783377411426,-0.1543210647938831,-0.14886969566248665,0.032194842810471344,0.09298760277204414,0.0642736240519799,-0.29601692647231,-1.3497801582131415,-1.0316671580515366,0.24606461522151507,0.1407193091094523,0.0642736240519799,0.29601692647231,1.3497801582131415,1.0316671580515366,0.05991782682549307,0.26491075998692526,50.0,3,0.3,0,13,0.27497275189649467,271.9827586273922,0.133370140493939,335.72865029505977,1.1869972795778496,50.0,0.0,0.0,0.11999999999999998,0.0
0.31,0.0,1,1,1,1,0,1,1,0,0.241525333970285,0.0,0.19231644084998276,0.7818422088788551,0.0,0.6169652453960756,0.02158933608927688,-0.0008673077803740889,0.2801304879592188,-0.06299156658269937,-0.056839745923039864,0.025334045401604922,0.18942307087958413,0.1234911777617125,0.029730941072108136,0.19540619731401715,-0.1326530312444781,0.08795655174488166,-0.14766044427407787,0.13131594546851907,0.01395855277448678,-0.15983876689285254,-0.15237193450185568,0.018716989961164554,0.08685002275930527,0.031739432788380546,-0.2004102150899922,-0.35457241551556906,-0.08050035524322607,0.22103408014624062,0.15467531121097972,0.031739432788380546,0.2004102150899922,0.35457241551556906,0.08050035524322607,0.02871763929625787,0.21513238329561812,50.0,3,0.3,0,13,0.25366895481170654,354.09622260183653,0.2049674345360987,277.69798834719023,0.43293670839276643,50.0,0,0,0,0
0.32,0.0,1,1,1,1,0,1,1,1,0.249341372301535,0.0,0.1984785009801572,0.7816038331249997,0.0,0.6162060130174452,0.022673842163608557,-0.0006770953444843672,0.27867999217628714,-0.06450151074554278,-0.055266768257948184,0.027559576531122995,0.17280161203572697,0.12352864737804965,0.0254715746659466,0.19545402485128763,-0.13261232605097287,0.08795565477725958,-0.14765460821379156,0.13129833211784325,0.013978131767231256,-0.16057909232590928,-0.15282465611337162,0.017176310627336877,0.10999456541481271,0.02202621613317094,-0.09518840425683005,-0.1562248819080908,0.41339017411361356,0.24644739278257904,0.1393468068867223,0.02202621613317094,0.09518840425683005,0.1562248819080908,0.41339017411361356,0.04796889180242184,0.20934191482231507,35.0,3,0.3,0,13,0.2064730054488222,255.53104083750526,0.14981137558027763,273.96924265283485,0.3869409137870956,35.0,0.0,0.0,0.0,0.11999999999999998
0.33,0.0,1,1,1,1,0,1,1,1,0.2571549497341036,0.0,0.2046327255189626,0.781357743256858,0.0,0.6154224538805403,0.023919369514284406,-0.0004587215278639671,0.2781351304974714,-0.06548274109304428,-0.0500854178147192,0.029837276662272746,0.15719220336585152,0.1230131550509223,0.021910526788268547,0.1955352326008948,-0.13256759158119685,0.08796178781926817,-0.14755313096338457,0.13128683129888627,0.013997332072999191,-0.16043112520538688,-0.15284103041198102,0.017186333731786574,0.13800790060209392,0.02117650056808367,-0.030148963290620362,-0.030654679336869987,0.5226961435777099,0.27923089573814064,0.11914704913200966,0.02117650056808367,0.030148963290620362,0.030654679336869987,0.5226961435777099,0.07459817021917803,0.21492171991927136,25.0,3,0.3,0,13,0.21311117415273867,184.29509961166758,0.1314047070665862,197.26931198842647,0.029132733674985256,25.0,0,0,0,0
0.34,0.0,1,1,1,1,0,1,1,1,0.2649659891511359,0.0,0.21077887150815186,0.7811039417032317,0.0,0.614614598918925,0.025496508321998665,-0.00020233298176160897,0.2780956649993937,-0.06539381592794338,-0.04515364087946416,0.03243341196999453,0.14331237453128604,0.12190119687877703,0.019602888274309588,0.19566995122829603,-0.1325175871518621,0.08798014448933628,-0.14740427655518265,0.13127621440027853,0.014017058360516005,-0.16023833887438543,-0.1528593871165176,0.017197336307470668,0.1753933104911915,0.022838839798206712,0.008246861875559099,0.08244415706031918,0.42544682293127617,0.28605581995630025,0.0895726786599444,0.022838839798206712,0.008246861875559099,0.08244415706031918,0.42544682293127617,0.07527694844814839,0.18768846690629948,25.0,3,0.3,0,13,0.20505404498597674,175.66593141777548,0.12671276225440992,175.35896459369494,0.04401147890392387,25.0,0,0,0,0
0.35000000000000003,0.0,1,1,1,1,1,1,1,1,0.2727744134608264,0.0,0.21691669630840524,0.7808424309690531,0.0,0.6137824800253378,0.027386008467270143,0.00011691609819476896,0.27856807054156224,-0.06419522138216976,-0.04101297124012149,0.035035340327518476,0.13552363761962608,0.12145223752371818,0.01968334732243887,0.1958566648693597,-0.13246348700870575,0.08801115819318539,-0.1472042467096686,0.13127104586306396,0.01403761119873459,-0.15999925949014557,-0.1528753426973399,0.01720952627907088,0.2065167686965513,0.02316043201565081,0.08035699980281034,0.16391970734101427,0.3990098644721789,0.30356862287089853,0.06625764476427512,0.02316043201565081,0.08035699980281034,0.16391970734101427,0.3990098644721789,0.08665192656249329,0.17607000334241923,10.0,3,0.3,0,13,0.17130355999912764,179.27983117388328,0.12021411383645356,215.01254851627564,0.11617065053444603,10.0,0.16,0.0,0.0,0.0
0.36,0.0,1,1,1,1,1,1,1,1,0.2805801455971796,0.0,0.2230459576089092,0.7805732136353161,0.0,0.6129261300503952,0.029553273516191813,0.0005130628131834743,0.27985401702950063,-0.06271668648952819,-0.03697056249619046,0.0380554082017665,0.1316070540312615,0.12093135235868853,0.019717967075262438,0.19610176239500404,-0.13240214117387558,0.08805585421681095,-0.14693887892764446,0.13126916878210054,0.014060032540658116,-0.15969133131368338,-0.15289250708100524,0.01722407512796434,0.23785143893600152,0.023300665013200023,0.16542744187426126,0.07800296747788442,0.38363884934111436,0.32750857821845253,0.04272870666117806,0.023300665013200023,0.16542744187426126,0.07800296747788442,0.38363884934111436,0.10446262060954334,0.17049199228392142,0.0,3,0.3,0,13,0.18407276513808393,195.59618019682046,0.11939211802174557,224.2709006292153,0.010071597195424553,0.0,0,0,0,0
0.37,0.0,1,1,1,1,1,1,1,1,0.2883831085207705,0.0,0.22916641343692262,0.7802962923590895,0.0,0.6120455828013432,0.03197472558253307,0.0009593878972648973,0.2820852978519954,-0.06267233752308841,-0.03314596581445306,0.04106025188964912,0.1317229713119217,0.12097160821749885,0.019725379499349632,0.1964056179108314,-0.1323399072657307,0.08811741142808595,-0.14660557978526564,0.13127354234854524,0.014085417525695143,-0.1593128513250663,-0.15290697705093065,0.017242376054087488,0.26644812606353946,0.021692843051915163,0.26808726875024086,0.06634964981080822,0.31333698493071865,0.3508896445758537,0.021934982457231023,0.021692843051915163,0.26808726875024086,0.06634964981080822,0.31333698493071865,0.12172323113893108,0.16535105664807725,0.0,3,0.3,0,13,0.15170029720959466,227.26574410648627,0.127489921896697,243.47194890120082,0.07522567102438293,0.0,0,0,0,0
0.38,0.0,1,1,1,1,1,1,1,1,0.29618322521950524,0.0,0.23527782216732931,0.780011669873476,0.0,0.6111408730406692,0.03464223784549639,0.0014730944343493506,0.285403394827211,-0.06331517558207786,-0.030079773908663787,0.04446988232197518,0.13202523677765587,0.12101933973149002,0.019735532480279983,0.19677227549350307,-0.1322753853142085,0.08819774093527649,-0.14620231497202035,0.13128237917830796,0.014115072168515819,-0.15885970718831507,-0.15292051874706222,0.01726619362692,0.2877831777507026,0.017302485318128995,0.38414916059646737,-0.12161271149506087,0.286721062264032,0.3375081304456035,0.00840004746880263,0.017302485318128995,0.38414916059646737,0.12161271149506087,0.286721062264032,0.1022303082782742,0.12793284106520583,0.0,3,0.3,0,13,0.156199112791742,261.7828709802667,0.1305075003438998,256.4331429136015,0.125173040559853,0.0,0,0,0,0
0.39,0.0,1,1,1,1,1,1,1,1,0.3039804187093811,0.0,0.24137994253217698,0.7797193489875842,0.0,0.6102120364847669,0.03746786988469526,0.0020530700855075825,0.2899368758677404,-0.06411887882337038,-0.027610786874035842,0.04770253564957149,0.1324043046250915,0.12106734139139319,0.0197522854003373,0.19719755124806226,-0.1322106987471802,0.08829761589883386,-0.14572332238477426,0.13130128278744807,0.01415090146926179,-0.15833636102877205,-0.15292750847406206,0.017297064532882683,0.3099469890193934,0.015936827563050135,0.5089046654005898,-0.03871043501253701,0.12736707120657695,0.35907145136778335,0.005966570310012298,0.015936827563050135,0.5089046654005898,0.03871043501253701,0.12736707120657695,0.11769150883560636,0.1395949067086688,0.0,3,0.3,0,13,0.12177278763429711,306.72599670570975,0.13664582388681173,269.2833436554318,0.20499841137413388,0.0,0,0,0,0
0.4,0.0,1,1,1,1,1,1,1,1,0.3117746120352462,0.0,0.2474725336302022,0.7794193325865117,0.0,0.6092591098025207,0.040522907926137386,0.0027251889411486403,0.29562911522137925,-0.06455832242057487,-0.027243521090100753,0.051466966221818795,0.13287211105964777,0.12112018153979796,0.019779547450772206,0.1976939958846163,-0.13214178783280076,0.0884214605387002,-0.14518628866636105,0.13132319711492926,0.014192776916607502,-0.1577511127924047,-0.1529333698138611,0.01733545162292721,0.33607644343298954,0.01618865382844402,0.6128846985370129,-0.039390123829012885,-0.07772372250078227,0.3775187519920792,0.024301831397743334,0.01618865382844402,0.6128846985370129,0.039390123829012885,0.07772372250078227,0.130046218361877,0.17053670358806433,0.0,3,0.3,0,13,0.16838301219566826,311.7298383553474,0.13388660898460755,250.31371596480727,0.1383562628268571,0.0,0,0,0,0
0.41000000000000003,0.0,1,1,1,1,1,1,1,1,0.31956572827155894,0.0,0.2535553549363405,0.7791116236312734,0.0,0.6082821306138325,0.043752182692908086,0.0034714117926156487,0.3022709292850442,-0.06571801412594701,-0.02818395963270648,0.05536142323240432,0.13341390699036138,0.12117609240858483,0.019817967738290393,0.19824300342521642,-0.1320717873263562,0.08856548163640068,-0.1445960066306213,0.13135030275548476,0.014241703260143762,-0.1577881731920156,-0.15297012270918547,0.01738633346891727,0.3539311727264032,0.01323179830563144,0.6939711062348398,-0.07653009444938573,-0.159617755108526,0.40682146708512146,0.03436544445484424,0.01323179830563144,0.6939711062348398,0.07653009444938573,0.159617755108526,0.15326611214878094,0.2008633549092566,0.0,3,0.3,0,13,0.1784397937533595,286.5980613567715,0.13033122947772394,225.46832923565526,0.09159013177844866,0.0,0,0,0,0
0.42,0.0,1,1,1,1,1,1,1,1,0.32735369052314756,0.0,0.2596281663112222,0.778796225158862,0.0,0.6072811374881693,0.04710638016712916,0.004251143142164533,0.3095850146767741,-0.06717161836388413,-0.029428936098749636,0.05962470161093785,0.13401118797911,0.12123462680512512,0.019866482349634396,0.19882669924142166,-0.1320018816037873,0.08872435826963412,-0.14395619032488186,0.13137989546350873,0.014298831885155211,-0.15876955889433864,-0.15316854395015353,0.01745569845317102,0.3643334453246764,0.007581582232634117,0.7544425778895749,-0.1953655865682604,-0.12015276157374388,0.41434206465299755,0.03697975480152882,0.007581582232634117,0.7544425778895749,0.1953655865682604,0.12015276157374388,0.15471389834177535,0.19927523537593828,0.0,3,0.3,0,13,0.20762564986415571,244.59558211131298,0.11755356091188207,199.29399370712795,0.2733717387122976,0.0,0,0,0,0
0.43,0.0,1,1,1,1,1,1,1,1,0.33513842192596877,0.0,0.2656907280106526,0.778473140282121,0.0,0.6062561699430369,0.05051395830883145,0.005062761037371761,0.3174263851582266,-0.06800367166877584,-0.030264056133612938,0.06385487324823162,0.1346608006526682,0.1212969149505663,0.0199257245663734,0.19943190854987636,-0.13193179977639444,0.08889315198751943,-0.1432669812490918,0.13141715871477647,0.014365643597660849,-0.15935763072234305,-0.15334066710662536,0.017532554502176584,0.37242992153414156,0.007652469208555161,0.7926800667478071,-0.028285938522583015,-0.11885326678465587,0.41724498093248835,0.037291499608172796,0.007652469208555161,0.7926800667478071,0.028285938522583015,0.11885326678465587,0.15155425292183577,0.19649822173856374,0.0,3,0.3,0,13,0.19783955493826966,204.15487950015606,0.10083498994783069,172.3632422524559,0.4953590544706499,0.0,0,0,0,0
0.44,0.0,1,1,1,1,1,1,1,1,0.3429198456478665,0.0,0.2717428006950765,0.7781423721897718,0.0,0.6052072684423926,0.05395682952021225,0.005926844450187048,0.3255168355133496,-0.06903352762878971,-0.03110981084861697,0.06804587583322612,0.1353495850933853,0.12136454066112944,0.019994159304505044,0.2000521713372564,-0.13185960904742555,0.08906878426644166,-0.1425520720492647,0.13146118808203308,0.014439281239387175,-0.1591682649769168,-0.15341776811187632,0.017613639412734694,0.3742572694433098,0.010967003519347818,0.8027457567258878,-0.07472882434100693,-0.10348014844767192,0.4089596065673871,0.0313374237954433,0.010967003519347818,0.8027457567258878,0.07472882434100693,0.10348014844767192,0.1372168058723106,0.17952123318710173,0.0,3,0.3,0,13,0.18534864287576952,153.05925279646385,0.07981668094184863,138.21648268320354,0.7990743445832722,0.0,0,0,0,0
0.45,0.0,0,0,0,0,1,1,1,1,0.3506978848893299,0.0,0.2777841454390272,0.7778039241463419,0.0,0.6041344743950683,0.0573715545942948,0.00684902886661699,0.33355972388773103,-0.07023078054821763,-0.03191276213094807,0.0723253078039367,0.13643921035322934,0.12154108346429525,0.019868823809010422,0.2006746032204893,-0.13178425364880209,0.08924549455926892,-0.1419551019176411,0.1312859657754159,0.01474038629085056,-0.1586045538779004,-0.15336051411467283,0.017796134307501432,0.37030380247171646,0.014683711061631716,0.7811623502222539,-0.1862029741433416,-0.13896388388774678,0.42134767164333403,0.019605917582386556,0.014683711061631716,0.7811623502222539,0.1862029741433416,0.13896388388774678,0.14356352620430685,0.17785315484832512,20.0,3,0.3,0,13,0.1844098132819401,117.50768816627901,0.07018554208123687,103.90039850707107,1.1018938826857827,20.0,0,0,0,0
0.46,0.0,0,0,0,0,1,1,0,0,0.35847246288425194,0.0,0.28381452374055854,0.7774577994922038,0.0,0.6030378301531358,0.060701757790827475,0.007817259444110866,0.34119383061620323,-0.07168820828155768,-0.03403249061857028,0.07638288557439835,0.13782496542787714,0.12173100238031086,0.019945599371103268,0.2012908564038136,-0.13170678016960516,0.08942045727850523,-0.14491337174828345,0.1288200910520752,0.016069093120607003,-0.15836063682004403,-0.15326348391866834,0.018602364605683652,0.35974285876392376,0.018025488695081304,0.7495493992208773,0.14430129597947705,-0.3251505938303426,0.40175754825402216,0.0012703958796718151,0.018025488695081304,0.7495493992208773,0.14430129597947705,0.3251505938303426,0.11794302451346361,0.13723890908821673,75.0,3,0.3,0,13,0.1323089093713425,163.39914399565143,0.07520940376459355,96.57552222419591,1.1566866699160991,75.0,0,0,0,0
0.47000000000000003,0.0,0,0,0,0,1,1,0,0,0.3662435029006865,0.0,0.28983369753066096,0.7771040016434583,0.0,0.6019173790102417,0.0638332694977552,0.00879153597822794,0.34836572144312145,-0.06656032561966235,-0.03651225012590387,0.08074202153814099,0.14513213575275893,0.1227532557441488,0.020225087064612374,0.20206113785936014,-0.13145850473106374,0.08955917107385991,-0.14733659832395174,0.12474854853094314,0.019436296831420063,-0.15375280649942702,-0.15225888433620258,0.02373269627602259,0.3235815892988355,0.02792836912106078,0.6561934143759599,0.4423127889459996,-0.10974957342333003,0.40696945171084287,0.04266191360185101,0.02792836912106078,0.6561934143759599,0.4423127889459996,0.10974957342333003,0.1171357541801819,0.1877260369030937,50.0,3,0.3,0,13,0.17650575832695958,122.53553399805045,0.07125160497965408,37.81728376868786,1.5035220175581316,50.0,0,0,0,0
0.48,0.0,0,0,0,0,0,0,0,0,0.3740109282416059,0.0,0.29584142918265965,0.7767425340919398,0.0,0.6007731651998693,0.06670625200068593,0.009727921318542401,0.354418866998495,-0.06320448377018818,-0.03773574023000048,0.08487037596428335,0.16204587022591874,0.12449016570102549,0.021128772087434716,0.20462337436060898,-0.1300973031226986,0.09045003892896517,-0.14939944560833573,0.12079487289921989,0.027584328918210888,-0.14326597404950298,-0.15063221153827624,0.03433005413319673,0.31826028931294736,0.03531679748260803,0.5230727800301073,0.2803622848008433,-0.27251986959634056,0.40026490436349776,0.05575063892865856,0.03531679748260803,0.5230727800301073,0.2803622848008433,0.27251986959634056,0.10442347518083811,0.1954909115921047,25.0,3,0.3,0,13,0.1965951443199871,59.47472060175858,0.046062120594404385,4.427287681852225,1.1928592371370224,25.0,0,0,0,0
0.49,0.0,0,0,0,0,0,0,0,0,0.3817746622456579,0.0,0.3018374815215959,0.7763734004052003,0.0,0.5996052338936242,0.06970687440673981,0.010654448809488903,0.3586249184218723,-0.0634836021145866,-0.03898877165796244,0.08843657624483267,0.18807029730267966,0.12762682133714948,0.04032925084849642,0.2131877577009193,-0.12721743406822938,0.10095214080353923,-0.15137907935826272,0.11706691470407446,0.04019388984138875,-0.1311833637978914,-0.1497703756146902,0.05067897364904181,0.32966494360322424,0.042631031989251264,0.30309705822917526,-0.07864678682503225,-0.14659433195163535,0.3183668593592256,0.05210971864243369,0.042631031989251264,0.30309705822917526,0.07864678682503225,0.14659433195163535,0.0165293778376297,0.11127012846931465,0.0,3,0.3,0,13,0.13590697148739567,222.15856425299998,0.07147738540418982,0.0,0.5927850685426974,0.0,0,0,0,0
0.5,0.0,0,0,0,0,0,0,0,0,0.3895346282879222,0.0,0.3078216178335902,0.7759966042264255,0.0,0.5984136311994293,0.0729035893573972,0.011516991702749144,0.360914264042712,-0.0636474368697178,-0.04114639786934804,0.09187185271682013,0.2112690561935474,0.133125281915566,0.0684061802583707,0.22463259905761068,-0.12499295163426027,0.12058723439582875,-0.15174779727990195,0.11418492049763439,0.05603850599980248,-0.11819676209271202,-0.14755665525466263,0.0749933211518867,0.33778169670845093,0.04407417423057616,0.14681456017073796,-0.04547412888862645,-0.34041050967557496,0.3469291476938733,0.05175293157947125,0.04407417423057616,0.14681456017073796,0.04547412888862645,0.34041050967557496,0.0391075298602831,0.1349346356703305,0.0,3,0.3,0,13,0.12035323374551225,123.69170462433843,0.05044588646052835,0.0,0.47285863226057234,0.0,0,0,0,0
0.51,0.0,0,0,0,0,0,0,0,0,0.3972907497806668,0.0,0.3137936018751874,0.7756121492744628,0.0,0.5971984041597211,0.07614398657671774,0.012347845842264855,0.36202810808762337,-0.06503490417529477,-0.044660641611510066,0.09570069339894996,0.22807361718313454,0.13952436196259982,0.09507730556038194,0.2361807170462456,-0.12412175458816975,0.1388434945382796,-0.14913226416292877,0.11343302268516775,0.07146717618087517,-0.10894408452340715,-0.14653222104964264,0.09845743716287292,0.32918169265390396,0.04786119572199098,0.058744666732095434,-0.28546361475280363,-0.35122388032824753,0.3602401780756217,0.06810905712676285,0.04786119572199098,0.058744666732095434,0.28546361475280363,0.35122388032824753,0.0464465762004343,0.16241682904918814,0.0,3,0.3,0,13,0.15578754465419115,38.921495613592924,0.0340962978094739,0.0,1.430787482981498,0.0,0,0,0,0
0.52,0.0,0,0,0,0,0,0,0,0,0.4050429501741038,0.0,0.31975319788268336,0.7752200393436992,0.0,0.595959600749596,0.0792720947164623,0.013163651096727989,0.3624144909779698,-0.06943338353492118,-0.04690662727139672,0.09951663666355995,0.23962531094272393,0.1466275053878492,0.1158063234947784,0.24696994806340886,-0.12354675970129607,0.1532136040973793,-0.14216231199769727,0.11387676583653607,0.08477136780682396,-0.10193031727186391,-0.14720674426885932,0.11561647585579513,0.31424487500235304,0.05052759885922994,-0.0003105782139576716,-0.4338926990599956,-0.16855061222472573,0.3743371192147014,0.09079807517175076,0.05052759885922994,0.0003105782139576716,0.4338926990599956,0.16855061222472573,0.05458392133201806,0.19590959536299876,0.0,3,0.3,0,13,0.18140181111220968,12.177610188098935,0.027253627637367116,0.0,1.3968077760522266,0.0,0,0,0,0
0.53,0.0,0,0,0,0,0,0,0,0,0.4127911529571451,0.0,0.325700170581432,0.774820278304128,0.0,0.5946972698748665,0.08233458738648425,0.013990258631248469,0.3623015692960125,-0.07287199243359997,-0.04786169896770209,0.10339674630641195,0.24604080460611588,0.15312458839742402,0.12719759168428557,0.25442972009588105,-0.12368776594995372,0.16093162806527553,-0.13431470219565692,0.11466836974566044,0.09168217044997326,-0.09581643115603289,-0.14879621543081364,0.12606013184312712,0.31030300638111596,0.055822918783057895,-0.04252121196333789,-0.22270381135136838,-0.10797475514475176,0.38284424075066403,0.10248814657602912,0.055822918783057895,0.04252121196333789,0.22270381135136838,0.10797475514475176,0.05714407016923201,0.21545513552831902,0.0,3,0.3,0,13,0.20875418072461596,3.3420974079128873,0.03618132341684374,0.0,0.9270822464588572,0.0,0,0,0,0
0.54,0.0,0,0,0,0,0,0,0,0,0.4205352816581571,0.0,0.3316342851951342,0.7744128701012043,0.0,0.593411461370219,0.08532374421442795,0.014852597020338426,0.3618904520582837,-0.07480502063031153,-0.048349609705275354,0.1072238775960663,0.24957232584488426,0.15834805955238268,0.1269376709871095,0.25904994364431555,-0.12299066336354439,0.1593598720322165,-0.12549890165190628,0.1147340700884701,0.092314694329936,-0.0903982674568562,-0.15145351571157245,0.12909538028595308,0.29328404705520156,0.060498706067413484,-0.054541790846226915,-0.12150640410245975,0.02379127890340888,0.38541451363067036,0.12725123460295557,0.060498706067413484,0.054541790846226915,0.12150640410245975,0.02379127890340888,0.05378022843553615,0.2415301691059052,0.0,3,0.3,0,13,0.22256981926644553,25.086093667621878,0.05587157562802878,0.0,0.2675963763741198,0.0,0,0,0,0
0.55,0.0,0,0,0,0,0,0,0,0,0.42827525984571624,0.0,0.3375553074551057,0.7739978187559116,0.0,0.5921022259971487,0.08805690681034621,0.0157349695884309,0.36136093883168924,-0.07718694729260515,-0.04587905454629859,0.11107023028924215,0.25409588191359045,0.16176722828443763,0.12042853996669109,0.26436871938520257,-0.12054463784530495,0.14907331042536476,-0.11408127499552403,0.11465331199786771,0.08462909616730374,-0.08503884677667936,-0.15485707951795,0.1245316387009861,0.26152130537945656,0.06694986070754257,-0.07223756341518815,-0.30061033802958004,0.4591513015609013,0.40586625127650133,0.16675395446625968,0.06694986070754257,0.07223756341518815,0.30061033802958004,0.4591513015609013,0.06831094382139563,0.30201475899519786,0.0,3,0.3,0,13,0.2820916464497235,89.7900559889581,0.05193348831027813,0.0,0.8890060841151614,0.0,0,0,0,0
0.56,0.0,0,0,0,0,0,0,0,0,0.4360110111293624,0.0,0.34346300360952614,0.7735751283646175,0.0,0.5907696154420439,0.09049873777009458,0.016663722823259113,0.36041790151148057,-0.08064761898833804,-0.039900854531143226,0.1146301948389958,0.25980943962802083,0.16390257403272102,0.11121372615924133,0.2735998896465678,-0.11735208084252052,0.13358595406210147,-0.09912017448635146,0.1140026527070323,0.0742231247232154,-0.08139019777236634,-0.159543321247847,0.1127735922651115,0.23810306783918553,0.07748557159653645,-0.1322687409940855,-0.35523078875602526,0.611164372375181,0.40047941031917145,0.19790794329017689,0.07748557159653645,0.1322687409940855,0.35523078875602526,0.611164372375181,0.057016406709645306,0.3324099215963586,0.0,3,0.3,0,13,0.3203660465658477,78.60219699300583,0.03306078769469491,0.0,1.0753172380905247,0.0,0,0,0,0
0.5700000000000001,0.0,0,0,0,0,0,0,0,0,0.44374245916035343,0.0,0.3493571404326669,0.7731448030991017,0.0,0.5894136823140772,0.09280206273355905,0.017594328123215514,0.35866377852897435,-0.0848071681059908,-0.03366230409350135,0.11808270121095886,0.26434373165758296,0.1633640619802414,0.09927073509022674,0.2852660645164282,-0.11236790486627014,0.11728517405293523,-0.08289979241280421,0.11340755819767998,0.06436993155896012,-0.07722457720246756,-0.16294517296062594,0.10065129998470737,0.23270130464448932,0.08406436786118093,-0.2286287245771178,-0.44418347377098116,0.5298929298617215,0.39084350396443873,0.2110411545158641,0.08406436786118093,0.2286287245771178,0.44418347377098116,0.5298929298617215,0.04148636353177182,0.33659188590881683,0.0,3,0.3,0,13,0.33687366722953027,23.62178190073767,0.02839384886603664,0.0,0.6595663373095753,0.0,0,0,0,0
0.58,0.0,0,0,0,0,0,0,0,0,0.45146952763241865,0.0,0.3552374852340987,0.7727068472065224,0.0,0.5880344801431792,0.09526658304970596,0.018529942902268618,0.3558270441877717,-0.08849902988525055,-0.030006349040980984,0.12164372382094063,0.26499286427331026,0.16062397492457509,0.08553469955792958,0.2941995802319701,-0.10696108322710116,0.10141306006751377,-0.07115391292993986,0.112530292020954,0.0523149983389995,-0.07499236694928896,-0.16598605638279748,0.08665636779324573,0.2665665238749043,0.09344607830383632,-0.3385425186758613,-0.3698039267581353,0.1024129352980872,0.3641054689464448,0.18490300375751434,0.09344607830383632,0.3385425186758613,0.3698039267581353,0.1024129352980872,0.008867983712346095,0.28721706577369677,0.0,3,0.3,0,13,0.3180930854028515,52.12247489137943,0.04549551395136854,0.0,0.5886862450146202,0.0,0,0,0,0
0.59,0.0,0,0,0,0,0,0,0,0,0.4591921402825117,0.0,0.3611038058678774,0.7722612650093053,0.0,0.5866320633778677,0.09814198030926884,0.019503438583677774,0.35190670764935184,-0.09372539126868461,-0.030478939879825973,0.1250068894159707,0.2633948869104405,0.1578661177261443,0.07189123259832914,0.2945978578894285,-0.10326967495546845,0.08342395381212867,-0.07122405565664208,0.10823280592472773,0.03513845757001635,-0.07013148509970171,-0.1656155479062515,0.07198870506389565,0.295029476091422,0.09852110021140051,-0.4461318731772347,-0.8073521058334109,-0.1392676877986328,0.30713268748134875,0.1641626641910897,0.09852110021140051,0.4461318731772347,0.8073521058334109,0.1392676877986328,0.05397111838652863,0.3166548827890188,0.0,3,0.3,0,13,0.2997119434819008,101.07414543726271,0.08163514902965738,0.0,1.1523709817148835,0.0,0,0,0,0
0.6,0.0,1,1,1,1,0,0,0,0,0.46691022089156364,0.0,0.3669558707417092,0.7718080609051936,0.0,0.585206487383183,0.1012595474106531,0.02043757370009714,0.34686086208080563,-0.10308696982723989,-0.031766337882152884,0.12808406431678526,0.2591545426518974,0.15628548873897177,0.058197642765018875,0.28690581937918064,-0.10100871765696603,0.06941597486036924,-0.07598729682044117,0.10118813565147741,0.01818974282843236,-0.05841790740097055,-0.16050955448557652,0.058595622213477305,0.3230665145925521,0.11209702969879122,-0.5770921406014348,-0.8263692260413321,-0.2550376014736185,0.28338557919176105,0.14384370629901155,0.11209702969879122,0.5770921406014348,0.8263692260413321,0.2550376014736185,0.08357029154994816,0.3395110275477509,20.0,3,0.3,0,13,0.3345080527111281,72.14709085799231,0.06140456941360758,0.0,1.5968983809905049,20.0,0,0,0,0
0.61,0.0,1,1,1,1,0,1,1,0,0.4746236932852346,0.0,0.3727934488260932,0.7713472393670984,0.0,0.583757808438401,0.10472520433899041,0.02129232639478917,0.34034609916013997,-0.10677476161330027,-0.034339247188389876,0.13127023324423961,0.2559206118033101,0.15658824254592085,0.05157702663331526,0.28719275179274834,-0.09630537374409821,0.06821406584638914,-0.07687517873907987,0.10032930520713203,0.016751195824726645,-0.049669576961633294,-0.1548403365485653,0.05406578031512896,0.33390930678720904,0.09938848015422373,-0.6614489775415562,0.07293166080373684,-0.0027634459731478087,0.3234876044225734,0.1407143864980256,0.09938848015422373,0.6614489775415562,0.07293166080373684,0.0027634459731478087,0.049305844403519816,0.28940871105576915,65.0,3,0.3,0,13,0.3230251468318853,75.77746354115901,0.1107460932376764,150.9274503327295,0.4298077888998968,65.0,0.0,0.12999999999999998,0.15,0.0
0.62,0.0,1,1,1,1,0,1,1,0,0.4823324813346662,0.0,0.3786163096634422,0.7708788049431592,0.0,0.5822860837348953,0.10837481319987309,0.021911935680653773,0.33401326925143376,-0.1077839550250942,-0.030877367337080797,0.13485908722409187,0.25409257556187814,0.16074384048022505,0.05076557574600768,0.2871836470075091,-0.09471247438378744,0.06770245335175679,-0.077065262624091,0.10030475099353063,0.01679920343137617,-0.04672755623096739,-0.14986930925498226,0.049156166112150124,0.3670595082761161,0.07131331667346484,-0.6237554352122366,0.05608603514031116,0.408057465756683,0.3964646110584997,0.11527297305855011,0.07131331667346484,0.6237554352122366,0.05608603514031116,0.408057465756683,0.017848301395057553,0.20443459112707252,55.0,3,0.3,0,13,0.2346997810440775,164.3845234085317,0.12572892351980305,217.64937347311132,0.3126264601396933,55.0,0,0,0,0
0.63,0.0,1,1,1,1,0,1,1,0,0.4900365089572325,0.0,0.38442422337718063,0.7704027622566278,0.0,0.5807913713738455,0.11231219613415683,0.022434765183164652,0.3281180046892892,-0.10471320420371638,-0.026285406305753378,0.13814679918465833,0.25482099675941794,0.1666495213440807,0.049966197967952375,0.28715254330165774,-0.09465260626739333,0.06775326228765649,-0.07715730390147094,0.1002805008466456,0.016837956694615602,-0.04827785124991474,-0.14776694411312086,0.043408236652556276,0.39290378099302614,0.05071676509321754,-0.5661455631558344,0.47816523713183184,0.48063460619205256,0.39943420566060117,0.09713272796420636,0.05071676509321754,0.5661455631558344,0.47816523713183184,0.48063460619205256,0.015009982283420542,0.16285947534084444,50.0,3,0.3,0,13,0.17651990096879613,136.7485067208707,0.13379274881186498,194.72648271335174,0.3497461130259927,50.0,0,0,0,0
0.64,0.0,1,1,1,1,0,1,1,0,0.4977357001172911,0.0,0.3902169606808198,0.7699191160058627,0.0,0.5792737303639162,0.11651714063140983,0.02290184452316172,0.3227662417021177,-0.09686253807680986,-0.021210595169880886,0.14174926890267445,0.25899813339586814,0.17230244429432615,0.05030947473473457,0.2871852050849702,-0.0945877523506457,0.06778693169676567,-0.07716224343585124,0.10025086005641812,0.01686980418336853,-0.052453616335114056,-0.14647116935526788,0.03825414946768582,0.4282018599841629,0.03649078114309891,-0.527465780746748,1.0881708335609206,0.39226013302511953,0.38546428358754586,0.06953384013312824,0.03649078114309891,0.527465780746748,1.0881708335609206,0.39226013302511953,0.004752677093273927,0.11077729836950108,50.0,3,0.3,0,13,0.14474683520783896,152.25840649420408,0.12769333411025113,181.4162557080332,0.5223350943830751,50.0,0,0,0,0
0.65,0.0,1,1,1,1,0,1,1,0,0.5054299788269336,0.0,0.39599429288700977,0.769427870964251,0.0,0.5777332206189978,0.12104687002979547,0.023383796272936203,0.31769912164389424,-0.085688788543124,-0.01779820045089142,0.1452614833853184,0.26464747301333164,0.17752124295218522,0.05090051513312768,0.2872904483986013,-0.09451862716123159,0.06779963711283696,-0.07712490007424139,0.10022195999134312,0.016901629542450086,-0.05708420397557515,-0.14584595747900284,0.033777179378643496,0.4635780586047797,0.02394601719106996,-0.507013480829082,1.146402044453742,0.19132917715667846,0.3844364059438296,0.04185192022215395,0.02394601719106996,0.507013480829082,1.146402044453742,0.19132917715667846,0.011557886943180162,0.07735582435640406,50.0,3,0.3,0,13,0.09504432094855812,101.77876228812441,0.09142252023906625,150.63665924624598,0.6041079391723878,50.0,0,0,0,0
0.66,0.0,1,1,1,1,0,1,1,0,0.5131192691467354,0.0,0.4017559919165674,0.7689290319801811,0.0,0.5761699029557643,0.1259106575143632,0.023886178515306597,0.3127323592554215,-0.0733209783151033,-0.01670211890336004,0.14891184587840745,0.2683714072846623,0.18081819231010032,0.049110494455824355,0.287463461489024,-0.09444405680975325,0.06779283494252536,-0.07706271544295584,0.10019263196794266,0.016935766656647505,-0.061204659554250224,-0.1458218196657443,0.028584052368480245,0.4948832691813488,0.014651539678999487,-0.5069734112222509,1.3620482568530958,-0.01465727489960593,0.35963237377378243,0.018235999965386662,0.014651539678999487,0.5069734112222509,1.3620482568530958,0.01465727489960593,0.04212361814278498,0.07501115778717113,50.0,3,0.3,0,13,0.07385067763199012,64.71560950998673,0.08086972581680163,122.64987649825427,0.676222559488652,50.0,0,0,0,0
0.67,0.0,1,1,1,1,0,1,1,0,0.5208034951865055,0.0,0.4075018303074806,0.7684226039770037,0.0,0.5745838390913194,0.1310292159139414,0.02442997012870319,0.3077534113268452,-0.0607812445755187,-0.01701216213322798,0.15265637431114004,0.2687274676791336,0.1817039012979817,0.04580869539431612,0.2876903308258027,-0.09436077082962044,0.06776982352288852,-0.07697850839022316,0.10016227434555658,0.01697177220028276,-0.0635989193771034,-0.14581664151882773,0.02341987789872113,0.5152637143131974,0.007348530191324466,-0.5075468684992458,1.135472476876137,-0.08994162482730408,0.3911720654288543,0.005539780873308087,0.007348530191324466,0.5075468684992458,1.135472476876137,0.08994162482730408,0.016329764878626307,0.02921807594325886,50.0,3,0.3,0,13,0.05041695731912708,29.54838939683221,0.06044595103693906,119.11463464349943,0.6855399551562384,50.0,0,0,0,0
0.68,0.0,1,1,1,1,0,1,1,1,0.5284825811060347,0.0,0.4132315812238882,0.767908591952926,0.0,0.5729750916407594,0.1362944599987208,0.025034251388887988,0.3029432799697756,-0.05302895873561166,-0.016832527553327203,0.15661687506241093,0.26584861760199446,0.18060623587427066,0.0401017558904288,0.2879638264708056,-0.09426638112492067,0.06772950777400177,-0.07685530673933608,0.10013309021608875,0.017007426539504683,-0.06613833675828276,-0.14726464733349146,0.02146853650960423,0.5266745807698265,0.006300495111363449,-0.4680605827124732,0.5053819146220291,0.10023734055993892,0.40424813075339233,0.0018080003362082042,0.006300495111363449,0.4680605827124732,0.5053819146220291,0.10023734055993892,0.008983450470495868,0.017091945918067522,30.0,3,0.3,0,13,0.02259348697847096,29.57394457981769,0.0681355130605009,166.97433778029904,0.44560682308750366,30.0,0.0,0.0,0.0,0.22000000000000006
