time,trans_flag,des_cont_state_fl,des_cont_state_fr,des_cont_state_rl,des_cont_state_rr,cont_state_fl,cont_state_fr,cont_state_rl,cont_state_rr,vel_cmd_x,vel_cmd_y,vel_cmd_yaw,acc_cmd_x,acc_cmd_y,acc_cmd_yaw,base_pos_x,base_pos_y,base_pos_z,base_ang_roll,base_ang_pitch,base_ang_yaw,FL_foot_pos_x,FL_foot_pos_y,FL_foot_pos_z,FR_foot_pos_x,FR_foot_pos_y,FR_foot_pos_z,RL_foot_pos_x,RL_foot_pos_y,RL_foot_pos_z,RR_foot_pos_x,RR_foot_pos_y,RR_foot_pos_z,base_vel_x,base_vel_y,base_vel_z,base_vel_roll,base_vel_pitch,base_vel_yaw,x_vel_err,y_vel_err,z_vel_err,roll_vel_err,pitch_vel_err,yaw_vel_err,cmd_err,cont_err,terr_freq,terr_height,failed,gait_id,base,CoT,musculoskeletal,foot_force,MWE,stability,FL_stride_t,FR_stride_t,RL_stride_t,RR_stride_t
0.01,0.0,1,1,1,1,1,1,1,0,0.006283178692509316,0.0,0.005026527078818862,0.6283178692509316,0.0,0.5026527078818862,-5.353695407061664e-05,-1.2357315079385898e-05,0.3098983593034267,-0.0005245425446332605,0.0003460223793612105,7.659585225101605e-05,0.18297357960902208,0.132050174118711,0.01733162818181902,0.18298011486788804,-0.13204977557774183,0.01733158862204881,-0.18301253637775197,0.1320474278146213,0.017331577945511156,-0.18300759092475796,-0.1320524032033618,0.01733156268769337,-0.012882987980085423,-0.0030779732501728216,-0.02544806360588238,-0.11995637494878741,0.07812017916866387,0.02257622017398905,0.01916616667259474,0.0030779732501728216,0.02544806360588238,0.11995637494878741,0.07812017916866387,0.01754969309517019,0.03979383301793775,85.0,3,0.3,0,13,0.018735382575207772,6.95689465793081,0.030192560552530036,37.66025780073028,0.017948102480663045,85.0,0,0,0,0
0.02,0.0,1,1,1,1,1,1,1,1,0.014137091596022201,0.0,0.011309492449657768,0.7853912903512885,0.0,0.6282965370838907,-0.00023096585111968043,-1.6319890583599252e-05,0.3094812552468274,-0.0004646462627289458,0.0012873010006284602,0.00011731341176058438,0.1829162867996298,0.1320499485878216,0.017339803748847527,0.18292073200637302,-0.13204996605290786,0.01733979564488533,-0.18304570985009624,0.1320478331094522,0.01733951759720123,-0.1830424415379234,-0.13205188649810162,0.017339514864509686,-0.021791553289638065,0.0008270272579557666,-0.05880282540637177,0.03346763785946489,0.09807125758366408,-0.01643056344599799,0.03592864488566026,0.0008270272579557666,0.05880282540637177,0.03346763785946489,0.09807125758366408,0.027740055895655757,0.06449572803927178,0.0,3,0.3,0,13,0.04409957478940183,6.4038411448980765,0.034766927362761456,33.205618954935105,0.0663414052895586,0.0,0.0,0.0,0.0,0.01
0.03,0.0,1,1,1,1,1,1,1,1,0.02199086497214841,0.0,0.01759201134109972,0.7853773376126207,0.0,0.628251889144195,-0.0004880910262091633,-3.5358468410891145e-05,0.308785802118118,-0.00140544850131131,0.002324963172843919,7.486970012724225e-05,0.182830538909723,0.13204823213581537,0.01734839550558731,0.1828426223848619,-0.13205162010765123,0.017348229543489357,-0.18310433194329526,0.13204570279443179,0.01734764578731779,-0.1830937212503007,-0.13205384389254868,0.017347566910016154,-0.02954718721382967,-0.0040921869642920085,-0.07883998788679127,-0.16860303179570701,0.11678095010030178,0.01628592911496163,0.05153805218597808,0.0040921869642920085,0.07883998788679127,0.16860303179570701,0.11678095010030178,0.0013060822261380875,0.056936321376408174,0.0,3,0.3,0,13,0.0635206165442555,7.010574256505384,0.040862607957891164,61.04419958552397,0.0991435191738321,0.0,0,0,0,0
0.04,0.0,1,1,1,1,1,1,1,1,0.02984442130731541,0.0,0.023873835730056265,0.7853556335166999,0.0,0.6281824388956546,-0.0008090332176687208,-6.805330824473126e-05,0.30792115843386114,-0.0022744802290014894,0.003425433054735194,0.00018368496169824048,0.18273128808198832,0.13204708631610568,0.017357198960577636,0.18274872193503586,-0.13205268362768838,0.0173569210227886,-0.18317614014471728,0.13204252449603396,0.01735590484626523,-0.18316136426147256,-0.13205686174077805,0.017355771620947202,-0.034293107106787214,-0.003115262553498861,-0.09406960812085716,-0.05499484217213178,0.10424648113814748,0.00393786424521637,0.06413752841410263,0.003115262553498861,0.09406960812085716,0.05499484217213178,0.10424648113814748,0.019935971484839894,0.08718876245244139,0.0,3,0.3,0,13,0.0735148271241034,6.388317211863358,0.03967068969652003,42.55939633359065,0.11456593167031451,0.0,0,0,0,0
0.05,0.0,1,1,1,1,1,1,1,1,0.03769768309009279,0.0,0.030154717620856746,0.7853261782777381,0.0,0.628088189080048,-0.0011706419126770436,-0.00010227365247217524,0.30691754138858124,-0.002587957491347887,0.004309896104045974,0.00032847989969021047,0.1826247761636001,0.13204712140362063,0.017366099776071536,0.18264592171839233,-0.13205257760850198,0.017365776814885436,-0.18326031827632686,0.13203819234727635,0.01736431645828862,-0.1832443710883078,-0.13206104719763187,0.017364193650877435,-0.03733239111283508,-0.002350350418478833,-0.10423214361490375,0.04129623141763896,0.08026115660770607,0.025390620629674038,0.07503007420292787,0.002350350418478833,0.10423214361490375,0.04129623141763896,0.08026115660770607,0.004764096991182708,0.08214452161258942,0.0,3,0.3,0,13,0.08450169215315169,6.93738572730623,0.044103743832685754,67.21961885174717,0.12608266803375373,0.0,0,0,0,0
0.06,0.0,1,1,1,1,1,1,1,1,0.04555057281195724,0.0,0.036434409055038704,0.7852889721864452,0.0,0.6279691434181958,-0.0015692777630088909,-0.0001352483786203909,0.30585617332778015,-0.002326211554297787,0.005222591934716636,0.000548040633012135,0.18251176017818307,0.13204754397697996,0.01737506962931029,0.1825360986510541,-0.1320520598264682,0.017374742446925023,-0.183347964676786,0.1320329883650327,0.017372735002906814,-0.18333212223811582,-0.13206612508579407,0.017372663665461308,-0.04161005971166022,-0.003934594723471261,-0.10650975736419785,-0.01872790033556986,0.10448116947796678,0.027352423114132322,0.08716063252361747,0.003934594723471261,0.10650975736419785,0.01872790033556986,0.10448116947796678,0.009081985940906381,0.1001772131879951,0.0,3,0.3,0,13,0.09693145692026447,7.716855006346327,0.04496309332067365,47.0399849665484,0.12609365566687097,0.0,0,0,0,0
0.07,0.0,1,1,1,1,1,1,1,1,0.05340301296805755,0.0,0.04271266212113687,0.7852440156100309,0.0,0.6278253066098166,-0.0020042450336815996,-0.00016882789781015188,0.30479559709316123,-0.0022755062513916823,0.006329396700772483,0.0008409685629243622,0.18239413613559724,0.13204862687192212,0.01738408506209671,0.1824244780163698,-0.13205087906487925,0.017383695799039145,-0.18343600775736835,0.1320273434082596,0.017381111245016873,-0.18341809219999142,-0.13207163091513613,0.01738104962408407,-0.0431064872925936,-0.003468989867562363,-0.10578595238194655,-0.04792607099577639,0.10829177723923422,0.021651358441968,0.09650950026065115,0.003468989867562363,0.10578595238194655,0.04792607099577639,0.10829177723923422,0.02106130367916887,0.12103979380738239,0.0,3,0.3,0,13,0.10756509924015945,9.95019427643694,0.045992998674007954,75.02838978501866,0.12046731702090162,0.0,0,0,0,0
0.08,0.0,1,1,1,1,1,1,1,1,0.06125492605797953,0.0,0.048989228964470284,0.7851913089921981,0.0,0.6276566843333414,-0.0024381224821183553,-0.00021832406289112044,0.30376654149059135,-0.003054010863662877,0.007478257791981191,0.0011889439962356647,0.18227617278601674,0.13205054468908292,0.017393066585517175,0.18231900875077914,-0.1320488374941764,0.017392474779377776,-0.1835223793183923,0.13201894921038917,0.017389447660963897,-0.18349805933826158,-0.13207985037937842,0.017389326820415635,-0.04177645057930362,-0.003919861117122897,-0.09966675128000937,0.010855777247946709,0.11474977265017805,0.06030364631088101,0.10303137663728315,0.003919861117122897,0.09966675128000937,0.010855777247946709,0.11474977265017805,0.011314417346410727,0.11826565510081677,0.0,3,0.3,0,13,0.11750854470742496,14.505679810890323,0.05211229077980273,51.75654354791798,0.10974570937314779,0.0,0,0,0,0
0.09,0.0,1,1,1,1,1,1,1,1,0.06910623458651093,0.0,0.055263861796927174,0.7851308528531393,0.0,0.627463283245689,-0.002844225387432035,-0.00023233552382792143,0.30280252258011797,-0.002006916877472127,0.008485979319876602,0.001772957542769904,0.18217074877736206,0.13205670853063445,0.0174017610304259,0.18221991254610184,-0.13204259178435293,0.017401179014552265,-0.1836011651328999,0.13201147550757486,0.01739760516512992,-0.18357851878974774,-0.13208724729437113,0.01739758526125096,-0.0368820805648337,-0.0009593674367129105,-0.0955548025029128,0.08802750184837424,0.07920749833670067,0.04538250394736001,0.10598831515134463,0.0009593674367129105,0.0955548025029128,0.08802750184837424,0.07920749833670067,0.009881357849567167,0.11682904043762471,0.0,3,0.3,0,13,0.1162107291184685,16.350781020271043,0.05212377734503365,76.50316776910432,0.10078303175921129,0.0,0,0,0,0
0.1,0.0,1,1,1,1,1,1,1,1,0.07695686106440629,0.0,0.06153631290674721,0.7850626477895362,0.0,0.6272451109820033,-0.0031925536702807054,-0.000273214179017648,0.30187234920871686,-0.0024138163460473714,0.009030800935648786,0.0023020554169917574,0.18207178729607632,0.13206103820948323,0.017410277548346315,0.1821370652439655,-0.13203814921729695,0.017409526823678106,-0.18368361380392811,0.13200124181618594,0.01740585644822709,-0.18365327942640897,-0.1320973746530868,0.017405815614891768,-0.032238883710578446,-0.0037726370849570055,-0.0908746195091964,-0.012051471011860191,0.05345309315882586,0.07406080381479858,0.10919574477498473,0.0037726370849570055,0.0908746195091964,0.012051471011860191,0.05345309315882586,0.012524490908051376,0.12549287276799312,0.0,3,0.3,0,13,0.12110237681332683,17.427433015744917,0.05277947505076695,52.2318437173534,0.09827807699773339,0.0,0,0,0,0
0.11,0.0,1,1,1,1,1,1,1,1,0.08480672800915168,0.0,0.06780633466830074,0.784986694474539,0.0,0.6270021761553536,-0.0035098896784274245,-0.0003074021480606049,0.3010100148910453,-0.002609667063550502,0.00958161907543098,0.003009637711654104,0.18197886892039897,0.13206692701937403,0.017418662211943353,0.18206218714376907,-0.13203216521211436,0.01741774452532477,-0.1837593583808966,0.13199051696633063,0.017413985044152175,-0.18372056813911705,-0.13210802013474485,0.01741392972494757,-0.0281075644457303,-0.004509436358636289,-0.08357806644542543,-0.10693722814784799,0.042787465858407356,0.05758772110996505,0.11291429245488198,0.004509436358636289,0.08357806644542543,0.10693722814784799,0.042787465858407356,0.010218613558335692,0.12764234237185396,0.0,3,0.3,0,13,0.1254330559167718,18.764702387085222,0.052471014742944674,79.09803560078919,0.08830723088052421,0.0,0,0,0,0
0.12,0.0,1,1,1,1,1,1,1,1,0.09265575794572947,0.0,0.0740736795518646,0.7849029936577795,0.0,0.6267344883563855,-0.003767580135769044,-0.000349627011552115,0.3002028390930025,-0.0031796092201286817,0.010074953456004732,0.0037023175954652454,0.18189357677312076,0.1320733529932652,0.017426921934067308,0.1819949787164168,-0.132025640468736,0.017425850929034065,-0.18382656952642176,0.131978901256391,0.01742201055376355,-0.1837801510468131,-0.13211954830388392,0.017421956919198484,-0.022147923156973146,-0.0029833746523909898,-0.07705904065201213,0.0532079715898309,0.062259498448981376,0.07799136084761996,0.11480368110270261,0.0029833746523909898,0.07705904065201213,0.0532079715898309,0.062259498448981376,0.003917681295755357,0.12170473705084896,0.0,3,0.3,0,13,0.12146366738244133,21.067353079094183,0.054007997043090096,52.289925889912716,0.08380088137342839,0.0,0,0,0,0
0.13,0.0,1,1,1,1,1,1,1,1,0.10050387340738298,0.0,0.08033810013339421,0.784811546165351,0.0,0.6264420581529608,-0.003940128011184645,-0.0003943165477010549,0.29943561862147083,-0.0028544729201439873,0.010545629928581102,0.004433671681806533,0.18182015461411907,0.13207915697144018,0.017435038847333384,0.18193677219356516,-0.13201974413593853,0.01743391425584817,-0.1838861334750778,0.13196677162355358,0.01742993364450887,-0.18383483239331436,-0.1321317140275401,0.01742995628057953,-0.009137592051621202,-0.004827568798329997,-0.07755090233810977,-0.038267294652664346,0.017044396973977728,0.07089140892116315,0.10964146545900419,0.004827568798329997,0.07755090233810977,0.038267294652664346,0.017044396973977728,0.00944669121223106,0.12391572546956524,0.0,3,0.3,0,13,0.12302524770588981,24.620248495688365,0.058312342606103094,73.70574962208833,0.08322303349516771,0.0,0,0,0,0
0.14,0.0,1,1,1,1,1,1,1,1,0.10835099693638103,0.0,0.08659934910429141,0.7847123528998051,0.0,0.6261248970897206,-0.003967866858683134,-0.00043342558321115497,0.29863221736292106,-0.0027420763500064552,0.010605879989208145,0.005154295752860046,0.18175834064231192,0.13208530070672364,0.017443068641075116,0.18189036652471433,-0.13201351887277085,0.01744192591549318,-0.18394323394204898,0.13195506578010863,0.017437911041120052,-0.18388655964438488,-0.13214345854353643,0.01743806745455806,0.004732304018516334,-0.004266367635604872,-0.08152366091959386,-0.0056196966404044695,-0.006988923227883808,0.06616420757932273,0.1036186929178647,0.004266367635604872,0.08152366091959386,0.0056196966404044695,0.006988923227883808,0.020435141524968684,0.12832020207843825,0.0,3,0.3,0,13,0.1218774372598724,24.25543892069478,0.05882613047619425,48.98737928515679,0.09200011589253651,0.0,0,0,0,0
0.15,0.0,1,1,1,1,1,1,1,1,0.11619705108478236,0.0,0.09285717928116781,0.7846054148401324,0.0,0.6257830176876394,-0.0038666545937877167,-0.0004892882596838118,0.2978278498818026,-0.002184772229021647,0.010536800790651446,0.005951842797161837,0.18170772366986024,0.1320918064266679,0.01745103812206883,0.18185369686758396,-0.13200694085448442,0.017449971158280675,-0.1839909280532606,0.1319404196000817,0.017445827248807555,-0.18393216947586263,-0.1321582240148247,0.017446254955239854,0.017678428288124833,-0.00559604517726437,-0.08028754768308273,0.12398705738727298,-0.013458882700426309,0.09338391848788936,0.09851862279665752,0.00559604517726437,0.08028754768308273,0.12398705738727298,0.013458882700426309,0.0005267392067215548,0.10464140718064344,0.0,3,0.3,0,13,0.11450404108197568,26.51370752582789,0.05990807855875341,75.98585998137813,0.09009815732648421,0.0,0,0,0,0
0.16,0.0,0,0,0,0,1,1,1,1,0.12404195841520015,0.0,0.09911134361560314,0.7844907330417789,0.0,0.6254164334435333,-0.0034214956493102107,-0.000580937497697166,0.29777583873591085,0.0008815526474159294,0.010449392477974273,0.007146224903488106,0.181772200556576,0.1321008936880136,0.017459276849992933,0.17685469947255625,-0.1303570985453315,0.017483939199770038,-0.18391951466671425,0.13191747892955805,0.017453897019431314,-0.18387373587654227,-0.13218166008465512,0.017454300553426616,0.08182322705244788,-0.014861270244638694,0.11939013423681302,0.4425695216543566,-0.010336243972138837,0.1608079576629516,0.04221873136275227,0.014861270244638694,0.11939013423681302,0.4425695216543566,0.010336243972138837,0.06169661404734847,0.11877661565473943,100.0,3,0.3,0,13,0.1113882371786828,537.6752923069162,0.19286574632145884,165.83207807907124,0.17690606744761167,100.0,0,0,0,0
0.17,0.0,0,0,0,0,1,1,1,1,0.13188564150156615,0.0,0.10536159520389834,0.7843683086366001,0.0,0.6250251588295203,-0.0021519933147084343,-0.0007416369711923345,0.30061975085477033,0.0005437748337749236,0.009419669238152073,0.008636665192684643,0.18208210802027272,0.13210667943880075,0.01747509451057433,0.16894775591339156,-0.12580034171833787,0.018711779423884245,-0.18499560714874394,0.13198631379939144,0.017738812800799975,-0.18356735199941226,-0.1322035303729644,0.01746965291287214,0.16575437475139834,-0.015621298236770926,0.41447566524519674,-0.8830587199939894,-0.2557890447123561,0.08334383651752736,0.033868733249832195,0.015621298236770926,0.41447566524519674,0.8830587199939894,0.2557890447123561,0.022017758686370986,0.07150779017297411,100.0,3,0.3,0,13,0.08360060168333606,1149.2653747347888,0.2742852906097304,282.6511968447895,0.770055240584018,100.0,0,0,0,0
0.18,0.0,0,0,0,0,1,0,0,1,0.1397280229298949,0.0,0.11160768729682284,0.7842381428328743,0.0,0.6246092092924496,-0.00024380228124542766,-0.0008154738483135081,0.30439954933135804,-0.006853426813660826,0.0039198212186175585,0.009092046998485696,0.1824761630090963,0.13203738362243284,0.017515467913164467,0.1715963771537417,-0.12323956162177628,0.030116839705797233,-0.18880730895699246,0.13253692363467126,0.02897826447725349,-0.18450818454543907,-0.13244784187641967,0.018989623577052334,0.18976706372429558,-0.006955638505831142,0.32525093816619943,0.013733193942645511,-0.750950382240031,0.07042993343465154,0.05003904079440069,0.006955638505831142,0.32525093816619943,0.013733193942645511,0.750950382240031,0.041177753862171304,0.09817243316240314,60.0,3,0.3,0,13,0.1308538613152233,305.37060489202497,0.1470933197524116,34.24112438275368,0.5006067708528004,60.0,0,0,0,0
0.19,0.0,0,0,0,0,0,0,0,0,0.1475690252990478,0.0,0.11784937330935583,0.7841002369152916,0.0,0.6241686012532984,0.0016988509230301625,-0.000812403152852454,0.3067086106944153,-0.005764441414432002,-0.002311156035579076,0.00968838565267491,0.18629960649141583,0.13129019142753687,0.03417524523779564,0.1787115684665499,-0.123904693514158,0.04594640805704797,-0.19109788574365408,0.13484663475648026,0.04090342048751011,-0.18067550472854524,-0.13338557138423157,0.03137915201831959,0.1994733710096263,-0.0014287304322559771,0.1293866584723199,-0.011713284620751977,-0.4350299368921718,0.052325333606887625,0.0519043457105785,0.0014287304322559771,0.1293866584723199,0.011713284620751977,0.4350299368921718,0.0655240397024682,0.11885711584530267,15.0,3,0.3,0,13,0.11430346301081429,213.3220565983097,0.08106370289675853,0.0,0.7125141102079398,15.0,0,0,0,0
0.2,0.0,0,0,0,0,0,0,0,0,0.15540857122149707,0.0,0.124086406830421,0.7839545922449259,0.0,0.623703352106518,0.0036821330489445574,-0.0007992255236581532,0.3071232029560476,-0.0067130360194526525,-0.005413592323316507,0.01061932256551304,0.19326134349027485,0.13315749895817275,0.06397137459720094,0.18561406936131775,-0.1276260654891215,0.06971934184921806,-0.1878752817758318,0.13646307446364953,0.05898215286452321,-0.173635376653941,-0.1329300755364798,0.051367518192323464,0.1935977016746923,-0.0012693055186152144,-0.03197734742232705,-0.12242072406232538,-0.2415402782521402,0.12480945929039472,0.03818913045319525,0.0012693055186152144,0.03197734742232705,0.12242072406232538,0.2415402782521402,0.0007230524599737137,0.04018148843178417,0.0,3,0.3,0,13,0.06991797454676808,164.4311435265801,0.060638446649160606,0.0,0.8441180900565479,0.0,0,0,0,0
0.21,0.0,0,0,0,0,0,0,0,0,0.16324658332408937,0.0,0.1303185416326145,0.7838012102592301,0.0,0.6232134802193492,0.005575904441366069,-0.0007989650955234918,0.3064984398195993,-0.0062699903790445636,-0.008167139815457025,0.011812415178995379,0.19839463893247195,0.13763894903443114,0.08675857584232285,0.18965526117943143,-0.13250831888907647,0.08748167416515078,-0.18320145004707988,0.13840900158239566,0.07425822210029434,-0.16805584495578738,-0.1338589563771807,0.07000700305906205,0.18542255110358313,-0.0010020198952574418,-0.08545306108681966,0.3157119521157145,-0.29877804012893194,0.11200856464897728,0.022175967779493766,0.0010020198952574418,0.08545306108681966,0.3157119521157145,0.29877804012893194,0.01830997698363722,0.04148796465838843,0.0,3,0.3,0,13,0.04149121599099812,11.43950518615012,0.041806172154147135,0.0,1.6317688300930115,0.0,0,0,0,0
0.22,0.0,0,0,0,0,0,0,0,0,0.17108298424880955,0.0,0.1365455316819254,0.7836400924720183,0.0,0.6226990049310904,0.007410336344560521,-0.0007970148652103692,0.30545963329782205,-0.0029293186765124817,-0.011421949182885749,0.013057523888285768,0.20157118306849156,0.14206505024659,0.09905646230269244,0.19069651621733993,-0.135823084057047,0.09605688673669711,-0.1776227241038726,0.1392791116029757,0.08449177535330149,-0.16595777185819297,-0.13542887636380818,0.08121384474607643,0.17881201959458992,-0.0016476060759852509,-0.12673291895972114,0.35273881539369667,-0.36380740629099817,0.11384602881966441,0.007729035345780372,0.0016476060759852509,0.12673291895972114,0.35273881539369667,0.36380740629099817,0.022699502862260995,0.032076144284026616,0.0,3,0.3,0,13,0.026320496407807446,5.553409880585033,0.04232598171441478,0.0,0.8527257368759141,0.0,0,0,0,0
0.23,0.0,0,0,0,0,0,0,0,0,0.17891769665354415,0.0,0.1427671311474489,0.7834712404734601,0.0,0.6221599465523503,0.009188823662834142,-0.000793636790278453,0.30402490862325776,0.0007482820026799799,-0.015175839989389761,0.014033945269427752,0.20237555928772524,0.14538554538070306,0.10219876655286173,0.1916625160820652,-0.13718943558638944,0.09744355456390703,-0.17250071133200845,0.13916880099880685,0.08945565282691538,-0.16559649139997934,-0.13700562606295116,0.08557224558796703,0.17382417927957425,-0.002110895973925657,-0.1644457294756857,0.4514707697640757,-0.36486690751787515,0.08952026329190392,0.0050935173739699025,0.002110895973925657,0.1644457294756857,0.4514707697640757,0.36486690751787515,0.053246867855544985,0.060451281203440545,0.0,3,0.3,0,13,0.050537269473887605,3.632184873614732,0.04639116479779773,0.0,0.19297567814998767,0.0,0,0,0,0
0.24,0.0,0,0,0,0,0,0,0,0,0.18675064321284485,0.0,0.1489830944110912,0.7832946559300696,0.0,0.6215963263642293,0.010926030897087463,-0.0007992133051196568,0.3021680589672078,0.004144438660044689,-0.01857888643578587,0.014844731645475546,0.20248412249563574,0.14701634246075487,0.10038575321356066,0.19262322876322535,-0.13611315719452505,0.09388700161245972,-0.1682612271824365,0.13791705593990625,0.08862136538277994,-0.16597050266111885,-0.1377429671375875,0.08446889371726483,0.1669057982824374,-0.004708063382583135,-0.2162285944084813,0.25818305284748205,-0.3125722072085106,0.07661906537085841,0.019844844930407446,0.004708063382583135,0.2162285944084813,0.25818305284748205,0.3125722072085106,0.07236402904023279,0.09691693735322336,0.0,3,0.3,0,13,0.08348629344342759,5.265924796766648,0.034904439037447575,0.0,0.3537282923237976,0.0,0,0,0,0
0.25,0.0,0,0,0,0,0,0,0,0,0.19458174661869126,0.0,0.15519317607726604,0.7831103405846418,0.0,0.6210081666174844,0.012568778648954448,-0.0008139572551895456,0.29978030493944446,0.006720020024054347,-0.02085201422084082,0.015677838226183034,0.20445666433816712,0.14712780193425945,0.09560189755181613,0.19253857275086173,-0.13331111284488809,0.08582160132316644,-0.1646641549631055,0.13675017718471438,0.08203426010119738,-0.1651850529642627,-0.13843442795237548,0.07827479083903524,0.14999659089620274,-0.006203322842606181,-0.26638994725214243,0.29347043164126696,-0.10949438762240388,0.09735353841499483,0.04458515572248853,0.006203322842606181,0.26638994725214243,0.29347043164126696,0.10949438762240388,0.05783963766227121,0.10862811622736593,0.0,3,0.3,0,13,0.10530173369927423,21.411459298976034,0.0330291484199036,0.0,0.7585418700666151,0.0,0,0,0,0
0.26,0.0,0,0,0,0,0,0,0,0,0.2024109295812544,0.0,0.16139713098258265,0.782918296256313,0.0,0.6203954905316611,0.01399305174323615,-0.0008334622299927362,0.29693901858256416,0.009399311359437496,-0.019714988490674434,0.01659365809146373,0.208087472177409,0.1468569901969205,0.08693651199778256,0.1922223052881247,-0.13054679355125143,0.07279210645670872,-0.1601187674480844,0.1351969837629663,0.06917428947624604,-0.16104491867470835,-0.1383826663630392,0.06659973789462176,0.12371026634941652,-0.007126917747453578,-0.30715574489358394,0.25040889318979204,0.3586900731035565,0.09065434073177092,0.07870066323183787,0.007126917747453578,0.30715574489358394,0.25040889318979204,0.3586900731035565,0.07074279025081173,0.1565703712301032,0.0,3,0.3,0,13,0.14116932413597844,61.808200806529385,0.0378541706445578,0.0,1.3484575644198398,0.0,0,0,0,0
0.27,0.0,0,0,0,0,0,0,0,0,0.21023811482965918,0.0,0.16759471420552421,0.7827185248404783,0.0,0.6197583222941561,0.015218017659485104,-0.0008637983356594536,0.29355021704637124,0.010824674311425057,-0.015193842540498936,0.01761784546580604,0.20977576711257523,0.14585836378988346,0.0733239671122527,0.19467040227027627,-0.12846244375184868,0.05789974128713549,-0.15327609811041276,0.13379465709895744,0.05319092025295932,-0.15612861205318662,-0.13662998100102466,0.0495750521574778,0.11142824633245307,-0.009456314139439335,-0.3835029420371068,0.06900501627649337,0.47064089472883347,0.10501888873678632,0.0988098684972061,0.009456314139439335,0.3835029420371068,0.06900501627649337,0.47064089472883347,0.0625758254687379,0.17084200810538336,0.0,3,0.3,0,13,0.1666312949329504,49.362675174852995,0.029056193146690577,0.0,1.4287555023426624,0.0,0,0,0,0
0.28,0.0,0,0,0,0,0,0,0,0,0.21806322511274712,0.0,0.17378568107611705,0.7825110283087938,0.0,0.619096687059284,0.016375837798184134,-0.0008955995070075918,0.2891588750277092,0.011705128978028894,-0.010883822511764008,0.01858351980780928,0.2082429011401774,0.14445658370146572,0.05708694852692822,0.19690343936778928,-0.12672671381276562,0.04135972530767551,-0.14473354552298962,0.1336622858998739,0.0373788322597554,-0.14891013404615594,-0.1355722544800802,0.03358684084265985,0.11261039737916001,-0.010684270166721119,-0.4987280269574854,0.19629394819627927,0.3747605412048336,0.07619357140196437,0.1054528277335871,0.010684270166721119,0.4987280269574854,0.19629394819627927,0.3747605412048336,0.09759210967415269,0.2137292075744609,0.0,3,0.3,0,13,0.19749698449154526,27.991927347440026,0.025970600448789155,0.0,1.3293927771535579,0.0,0,0,0,0
0.29,0.0,0,0,0,0,0,0,0,0,0.2258861831998389,0.0,0.17996978718558976,0.7822958087091797,0.0,0.6184106109472703,0.01773141442673526,-0.000892526075262981,0.2836250561118951,0.017302450162898646,-0.008368463874915966,0.01951590084560573,0.2019915387919855,0.1414864897041432,0.0401885435607042,0.1934835720137495,-0.12446336507807411,0.026840747076222055,-0.1376171004769212,0.13266022469823327,0.019082726379954507,-0.1437505681228243,-0.13468526400774786,0.016547755374041836,0.15078658904392336,-0.0110572620022256,-0.6101420927784738,0.8193449250977572,0.06167593862517781,0.10242012743608572,0.07509959415591555,0.0110572620022256,0.6101420927784738,0.8193449250977572,0.06167593862517781,0.07754965974950404,0.16370651590764518,0.0,3,0.3,0,13,0.18367854573207168,49.81466651697791,0.049347288312916134,0.0,1.5901963618337174,0.0,0,0,0,0
0.3,0.0,1,1,1,1,0,0,1,1,0.23370691188149645,0.0,0.186146788396022,0.7820728681657535,0.0,0.6177001210432242,0.01930081399449315,-0.0008319065457547735,0.2773220761699333,0.022271741336234958,-0.005804366848821019,0.020156284925337137,0.19353298794914678,0.13848709675922302,0.024503683309770513,0.18760433021336603,-0.12217667722928176,0.016579255642718754,-0.1372998325206784,0.13233955903663538,0.017263446792647852,-0.1440075379091864,-0.13469977603773908,0.01658042761126846,0.1526926019986868,-0.01320969890293034,-0.6174945862770413,0.18503061134545679,0.7601522103530035,0.05797781050729675,0.08101430988280964,0.01320969890293034,0.6174945862770413,0.18503061134545679,0.7601522103530035,0.12816897788872525,0.22239298667446522,30.0,3,0.3,0,13,0.21807954754047051,46.25753698423372,0.07998471074163513,122.5868348828714,1.0575089142126792,30.0,0.0,0.0,0.11999999999999998,0.10999999999999999
0.31,0.0,1,1,1,1,0,1,1,1,0.241525333970285,0.0,0.19231644084998276,0.7818422088788551,0.0,0.6169652453960756,0.02109192100061533,-0.0008082591098314923,0.2715644984034564,0.015218788759443923,0.004350134353778845,0.021727208569819256,0.18804059452216504,0.135719863527417,0.019035631217792837,0.18740316287369815,-0.12217658405173804,0.016618540408358667,-0.1374503907723062,0.1323110627593626,0.01728465253412738,-0.14406441673031573,-0.13472335600418606,0.016601217546134625,0.20242347570593636,-0.003928442112777191,-0.5191516136465948,-1.122899027148141,1.1337803229009091,0.19175124637954227,0.03910185826434864,0.003928442112777191,0.5191516136465948,1.122899027148141,1.1337803229009091,0.0005651944704404832,0.04359549484756632,35.0,3,0.3,0,13,0.106186682025779,235.3501689336661,0.15814463500303882,172.54587940871747,0.2342591246893142,35.0,0.0,0.12999999999999998,0.0,0.0
0.32,0.0,1,1,1,1,1,1,1,1,0.249341372301535,0.0,0.1984785009801572,0.7816038331249997,0.0,0.6162060130174452,0.023321762978652818,-0.0007334584042777684,0.26703527061881804,0.006973669088182319,0.013592499446038575,0.023639411147273838,0.18787892219111169,0.13573911099864963,0.01906295276848638,0.1873379610756274,-0.12216706149419111,0.016647645151562723,-0.1375022174977561,0.1322833630502643,0.017302628647662993,-0.14403355564395198,-0.13474706076076845,0.01662011224215723,0.2493491945449726,-0.006601918769481818,-0.388862775163828,-0.5706617502182978,0.7520027250579575,0.18701598412056655,7.822243437594079e-06,0.006601918769481818,0.388862775163828,0.5706617502182978,0.7520027250579575,0.011462516859590655,0.018072257872510065,0.0,3,0.3,0,13,0.032459062211568065,149.62674903006484,0.13881362109611312,110.35961103402076,0.20526133851682116,0.0,0.12999999999999998,0.0,0.0,0.0
0.33,0.0,1,1,1,1,1,1,1,1,0.2571549497341036,0.0,0.2046327255189626,0.781357743256858,0.0,0.6154224538805403,0.025839246587185182,-0.0007328068847127561,0.26370318506096047,0.003745919045783183,0.02056395713090753,0.02567488641918518,0.18783476867586787,0.13575847759094276,0.019080030534751546,0.18736783942744734,-0.12215570454835982,0.016670977576986934,-0.13746291670754043,0.132250629218648,0.017317639789625278,-0.1439427065504189,-0.13477862743813482,0.016638211219632326,0.26316059061371294,-0.007054430746861348,-0.2725117109606798,-0.06492834767470808,0.6331936306990998,0.19733694352969083,0.006005640879609364,0.007054430746861348,0.2725117109606798,0.06492834767470808,0.6331936306990998,0.007295781989271777,0.02035585361574249,0.0,3,0.3,0,13,0.016519018674422337,73.14611603389086,0.11178315046631107,153.61745592534027,0.05752172630745456,0.0,0,0,0,0
0.34,0.0,1,1,1,1,1,1,1,1,0.2649659891511359,0.0,0.21077887150815186,0.7811039417032317,0.0,0.614614598918925,0.02847830550038019,-0.0007445056322926856,0.2614291464478432,0.003753799804634143,0.026259348839962948,0.027601856718230636,0.18787712878690357,0.13577665035464365,0.019091937146028776,0.18746766267978174,-0.1221433953771136,0.01669074395301179,-0.13735158895535354,0.1322197628360932,0.017330925747737314,-0.14379851656831222,-0.13480993648318376,0.01665514423682868,0.2734534817389197,-0.011899336140364683,-0.17010360397993776,0.041217388051745504,0.5449942651144581,0.1980754305321041,0.008487492587783807,0.011899336140364683,0.17010360397993776,0.041217388051745504,0.5449942651144581,0.012703440976047753,0.03309026970419624,0.0,3,0.3,0,13,0.035388077731287416,77.6695860221583,0.09557408998517107,96.66860778671685,0.014465551223762585,0.0,0,0,0,0
0.35000000000000003,0.0,1,1,1,1,1,1,1,1,0.2727744134608264,0.0,0.21691669630840524,0.7808424309690531,0.0,0.6137824800253378,0.031220705957009254,-0.0007653236674574918,0.2601338944864661,0.0050511391503005485,0.03132452671118746,0.029602944512140638,0.1879867277826971,0.13579677412316846,0.01910129969572727,0.18762761279995108,-0.12212713621574987,0.016708530400947802,-0.13717440855980056,0.13219165887357415,0.01734350342609557,-0.14359838570680514,-0.13483967512620593,0.01667141878648863,0.28178753974784304,-0.00946452404101264,-0.07414470301432666,0.14148050539724652,0.4715554612548004,0.18728802359044353,0.009013126287016615,0.00946452404101264,0.07414470301432666,0.14148050539724652,0.4715554612548004,0.029628672717961713,0.04810632304599097,0.0,3,0.3,0,13,0.03668520873457579,91.77941880593275,0.09536163892765419,138.92698430023364,0.024527691304451982,0.0,0,0,0,0
0.36,0.0,1,1,1,1,1,1,1,1,0.2805801455971796,0.0,0.2230459576089092,0.7805732136353161,0.0,0.6129261300503952,0.03406294989590957,-0.0007895879490372965,0.2597141588586772,0.006156270784724049,0.03576290309980745,0.031507644458382514,0.18815116049971667,0.13581540297531494,0.019109505233995655,0.18784100972871332,-0.12211022959152214,0.016725319003558753,-0.13694554222103583,0.13216553143716958,0.017356326227873267,-0.14334675096961685,-0.13486798268372324,0.01668778321628829,0.28814231529700296,-0.013727519529405543,0.007994069613929514,0.021244576374452546,0.4188418661899516,0.19446604752997795,0.007562169699823373,0.013727519529405543,0.007994069613929514,0.021244576374452546,0.4188418661899516,0.028579910078931237,0.04986959930816015,0.0,3,0.3,0,13,0.05216566254022067,93.97271313507633,0.08727907280782643,86.31978803282291,0.0278352020051591,0.0,0,0,0,0
0.37,0.0,1,1,1,1,1,1,1,1,0.2883831085207705,0.0,0.22916641343692262,0.7802962923590895,0.0,0.6120455828013432,0.03701085160234575,-0.0008333320317140653,0.2601138582397215,0.00671125234204321,0.03940469430228899,0.03363997011774691,0.18836868859373818,0.13583686625189453,0.019117452025341236,0.18811151847667149,-0.12208850702236873,0.0167423525512905,-0.1366708210634961,0.13213807867991925,0.017369831113847184,-0.1430481623970765,-0.13489838774837326,0.016705011776402462,0.29794256330989727,-0.012755415716624788,0.09622501693610203,0.11873901954581684,0.2975603185183793,0.22810473255225594,0.009559454789126787,0.012755415716624788,0.09622501693610203,0.11873901954581684,0.2975603185183793,0.0010616808846666825,0.023376551390418256,0.0,3,0.3,0,13,0.03458103756999292,122.40230061737233,0.09318724993771978,135.07600766403462,0.029363621408925566,0.0,0,0,0,0
0.38,0.0,1,1,1,1,1,1,1,1,0.29618322521950524,0.0,0.23527782216732931,0.780011669873476,0.0,0.6111408730406692,0.040100439182955736,-0.0008810198338103317,0.26145499247799847,0.00748265755888852,0.041739719547188026,0.035917343944442785,0.1886508552583732,0.13585858969600614,0.019126350891844307,0.18844361481568778,-0.12206429372642609,0.016760853547064247,-0.13634396184635791,0.13211257735215637,0.01738476125856761,-0.14269953195086502,-0.13492760399921794,0.01672374599764831,0.3063293122626357,-0.015560401452119064,0.1988620309260339,0.031748526837236495,0.19253204709702199,0.21250045898568282,0.01014608704313047,0.015560401452119064,0.1988620309260339,0.031748526837236495,0.19253204709702199,0.0227773631816465,0.048483851676896034,0.0,3,0.3,0,13,0.034888180761401225,157.83114820048945,0.09852206720744312,94.50346115411524,0.04322331093467391,0.0,0,0,0,0
0.39,0.0,1,1,1,1,1,1,1,1,0.3039804187093811,0.0,0.24137994253217698,0.7797193489875842,0.0,0.6102120364847669,0.04328832740370986,-0.0009340414180713458,0.26389225617731527,0.008169567153779575,0.04337598368275475,0.038160375765537435,0.18899411998351706,0.13588159128406943,0.01913748266272547,0.1888333689521034,-0.12203671372883865,0.01678192502071635,-0.13595274682578065,0.1320912574803302,0.01740242679452346,-0.14229076010921254,-0.13495341749281453,0.016745015437087618,0.3105188875051858,-0.015050242074619347,0.31747649475721107,0.06981618147474472,0.13465834449955422,0.24182457485193934,0.006538468795804719,0.015050242074619347,0.31747649475721107,0.06981618147474472,0.13465834449955422,0.00044463231976235584,0.022033343190186423,0.0,3,0.3,0,13,0.03564114874428856,198.87201604304573,0.10532346534044831,156.12895174816913,0.09218547713589331,0.0,0,0,0,0
0.4,0.0,1,1,1,1,1,1,1,1,0.3117746120352462,0.0,0.2474725336302022,0.7794193325865117,0.0,0.6092591098025207,0.046619632317720525,-0.0009989321982525755,0.2675517209434453,0.008327960314602034,0.04400853728237264,0.040594548417345444,0.189410962732707,0.13590641575075277,0.019153051934895915,0.18929757761851762,-0.12200514402634116,0.016808309769108826,-0.13549682013884395,0.13207254283020844,0.017424297867525917,-0.14181643302892433,-0.1349771818918862,0.0167706936725861,0.3232092730325989,-0.01619272477017663,0.4436073897523379,-0.0345830519900765,-0.02865933057700034,0.24703964767500625,0.011434660997352686,0.01619272477017663,0.4436073897523379,0.0345830519900765,0.02865933057700034,0.0004328859551959441,0.02806027172272526,0.0,3,0.3,0,13,0.027318542861251682,255.76393872838767,0.11227749053321023,107.85781612109972,0.18802503085239008,0.0,0,0,0,0
0.41000000000000003,0.0,1,1,1,1,1,1,1,1,0.31956572827155894,0.0,0.2535553549363405,0.7791116236312734,0.0,0.6082821306138325,0.05014754014975393,-0.001051158712407976,0.27244026699239077,0.008204654621979784,0.04293304903383155,0.043181199669228,0.18990897705167462,0.13593523270551375,0.019175942464990325,0.1898422996880924,-0.12196795455637811,0.016843069236216923,-0.13497837564146856,0.13205836717889594,0.017451499663613812,-0.1412798797799906,-0.13499694008780158,0.016801961287319617,0.33812598257732746,-0.01482902344953995,0.5610726589139976,-0.047352295343652574,-0.16907000222794477,0.2568420131488206,0.01856025430576852,0.01482902344953995,0.5610726589139976,0.047352295343652574,0.16907000222794477,0.003286658212480087,0.03667593596778856,0.0,3,0.3,0,13,0.04053627788055285,278.64395421125835,0.11164011394278325,156.44884138023272,0.1945891971434317,0.0,0,0,0,0
0.42,0.0,1,1,1,1,1,1,1,1,0.32735369052314756,0.0,0.2596281663112222,0.778796225158862,0.0,0.6072811374881693,0.05387968517947153,-0.0010397875372698824,0.27847279881662007,0.007232855041244177,0.04030044100423491,0.04572616365881052,0.1904872605330193,0.13597055652332293,0.019208474223336935,0.19046930138119478,-0.12192293844778256,0.016889060495425823,-0.13440334698234543,0.13205392341760197,0.01748485598843777,-0.14068150230175033,-0.13500652023265874,0.016840310222203975,0.3566217419131565,-0.006969955202960958,0.6727124579794738,-0.1575786532186586,-0.3433713227761216,0.26304513153032466,0.02926805139000893,0.006969955202960958,0.6727124579794738,0.1575786532186586,0.3433713227761216,0.0034169652191024524,0.039654971812072344,0.0,3,0.3,0,13,0.037550695730294605,291.7177616089484,0.10980806428012742,102.2411011070192,0.2081419710823713,0.0,0,0,0,0
0.43,0.0,1,1,1,1,1,1,1,1,0.33513842192596877,0.0,0.2656907280106526,0.778473140282121,0.0,0.6062561699430369,0.05778103531556036,-0.0009827723088710815,0.2854656891180448,0.0047422373502848105,0.03688039003880439,0.048313580586583964,0.19112309455355905,0.13600933870932091,0.01925016007276109,0.1911597754006996,-0.12187371937172191,0.01694630900575303,-0.13377423061030522,0.13205543212343723,0.017525693245957485,-0.14002348846324195,-0.13500974586516257,0.016887349717023853,0.368563004790689,-0.010034622483977915,0.748371453428988,-0.26960758679246344,-0.32497441765886925,0.2626693994242339,0.03342458286472022,0.010034622483977915,0.748371453428988,0.26960758679246344,0.32497441765886925,0.003021328586418681,0.046480533935116815,0.0,3,0.3,0,13,0.04531565429691202,235.81132433122994,0.09029899226151067,127.56342446744652,0.13460172232668421,0.0,0,0,0,0
0.44,0.0,1,1,1,1,1,1,1,1,0.3429198456478665,0.0,0.2717428006950765,0.7781423721897718,0.0,0.6052072684423926,0.061816472692025184,-0.0009067211960261718,0.29302135748178126,0.0020039417542913407,0.033290924471967465,0.05096493867418303,0.19180326641499715,0.13605116037595233,0.019299953800217096,0.19189668706490265,-0.12182148805035635,0.017013060045297068,-0.13322552487442746,0.13205485512200413,0.017572943647815864,-0.13933167381843523,-0.13500793035585482,0.01694094743579469,0.3863100458618719,-0.009737377431112675,0.7764084088741348,-0.35991119953732503,-0.4543680842175383,0.24513774259506324,0.043390200214005414,0.009737377431112675,0.7764084088741348,0.35991119953732503,0.4543680842175383,0.026605058100013262,0.07973263574513136,0.0,3,0.3,0,13,0.05769807683332676,174.14086034095445,0.07107240506304299,65.22055450341061,0.5019337285932481,0.0,0,0,0,0
0.45,0.0,0,0,0,0,1,1,0,1,0.3506978848893299,0.0,0.2777841454390272,0.7778039241463419,0.0,0.6041344743950683,0.06598184960215851,-0.00077290016697063,0.30054154323253063,-0.000576982633853644,0.028127456474780432,0.053282074492954745,0.1928244291839979,0.13612103301472397,0.019552591714158685,0.19301779717723952,-0.12176602166765174,0.01751408497931667,-0.13296407179140368,0.13166487277569822,0.018266850610213742,-0.13872214356064988,-0.13496148047688872,0.01699372200405025,0.39786295780124603,-0.0033946749743544724,0.7459844748471876,0.025460113510048697,-0.540483859344243,0.24278561288208983,0.04716507291191613,0.0033946749743544724,0.7459844748471876,0.025460113510048697,0.540483859344243,0.034998532556937356,0.08555828044320796,20.0,3,0.3,0,13,0.09808903861172479,87.4238089059566,0.04677566973714788,55.380598550505475,1.0538986514319157,20.0,0,0,0,0
0.46,0.0,0,0,0,0,0,0,0,0,0.35847246288425194,0.0,0.28381452374055854,0.7774577994922038,0.0,0.6030378301531358,0.07009949497781125,-0.0005763114163599493,0.3070383422607398,-0.0018523351707212406,0.023641715255872997,0.05580391625703962,0.2005553017843238,0.1372981163597118,0.022527711429471575,0.20250384163463825,-0.12246462808756388,0.02491432836576496,-0.13093687701939768,0.13041745386757417,0.026782272841548216,-0.13955886051617494,-0.1343206876317666,0.018203170433512078,0.3924380647228266,-0.005875179399222515,0.5950721248860097,-0.06818150670700238,-0.45699543456604724,0.2648541585665909,0.033965601838574666,0.005875179399222515,0.5950721248860097,0.06818150670700238,0.45699543456604724,0.018960365173967653,0.058801146411764836,50.0,3,0.3,0,13,0.07069984699052011,61.96411729956559,0.07268746502268794,0.4608562716165284,1.6384268219171836,50.0,0,0,0,0
0.47000000000000003,0.0,0,0,0,0,0,0,0,0,0.3662435029006865,0.0,0.28983369753066096,0.7771040016434583,0.0,0.6019173790102417,0.07415275553749894,-0.0004067438518260693,0.31224970340988234,-0.003090045821340192,0.018938441886682478,0.05824511694456013,0.21298205249042487,0.13854335334932785,0.030258112546680704,0.21429365813895299,-0.12237874842699147,0.03347463387549307,-0.13183334832783125,0.1310864021468006,0.033136719974761863,-0.13639893227644967,-0.13502880107387222,0.02510024186784074,0.3992171622870696,-0.0075518993408771615,0.45017417475658733,-0.17272748168329655,-0.44587327202961247,0.2384331891130779,0.03297365938638308,0.0075518993408771615,0.45017417475658733,0.17272748168329655,0.44587327202961247,0.05140050841758306,0.0919260671448433,0.0,3,0.3,0,13,0.0866139996621365,35.0695772721656,0.04548129545250775,0.0,1.207601979232678,0.0,0,0,0,0
0.48,0.0,0,0,0,0,0,0,0,0,0.3740109282416059,0.0,0.29584142918265965,0.7767425340919398,0.0,0.6007731651998693,0.07825551932154037,-0.00021340546752216715,0.31599673770594816,-0.002942949293517112,0.014479183818975283,0.06074041487177237,0.2264862614969328,0.14020136740434616,0.044081489402089474,0.22530263673467832,-0.12347897175385829,0.0453840653176196,-0.13130116713899762,0.13156045117495974,0.04086454848529081,-0.13051305866039004,-0.13562488414387117,0.03551625325606919,0.4109613606502848,-0.005662508797797913,0.3160821258382723,0.08850740206724572,-0.4612544978496663,0.23066973768444687,0.0369504324086789,0.005662508797797913,0.3160821258382723,0.08850740206724572,0.4612544978496663,0.06517169149821278,0.1077846327046896,0.0,3,0.3,0,13,0.08691278641264195,29.297999737887988,0.02890483668804087,0.0,0.8868574183943543,0.0,0,0,0,0
0.49,0.0,0,0,0,0,0,0,0,0,0.3817746622456579,0.0,0.3018374815215959,0.7763734004052003,0.0,0.5996052338936242,0.08244583794109238,2.0031705195917068e-06,0.31850390734978495,-0.0013458321405231454,0.009438706434453437,0.06293814929664396,0.23832063504706763,0.14202658140986565,0.05979089606859453,0.23417255902567882,-0.12474237689344607,0.05843517870491399,-0.13043119243142878,0.1315619630399412,0.04926051213544683,-0.12242642831148251,-0.1364957160742536,0.04724140897634502,0.41964029254876123,-0.004893189522117677,0.1942075582087774,0.14386637233242375,-0.5411910342113324,0.21971383265261538,0.037865630303103304,0.004893189522117677,0.1942075582087774,0.14386637233242375,0.5411910342113324,0.08212364886898052,0.1248824686942015,0.0,3,0.3,0,13,0.1254474167392027,30.276879382359006,0.018825557455574352,0.0,0.6366639470403066,0.0,0,0,0,0
0.5,0.0,0,0,0,0,0,0,0,0,0.3895346282879222,0.0,0.3078216178335902,0.7759966042264255,0.0,0.5984136311994293,0.08662116373723537,0.00021193928175658824,0.31981956996362004,-0.0017334600454746642,0.004355768928042458,0.06499236208116523,0.24944273500887382,0.14430213725174473,0.07672393032890701,0.2428728009799342,-0.12552688499315792,0.07223321916602429,-0.1264299167411097,0.13162669575820612,0.06051920416396492,-0.11196478274475222,-0.13773549209386535,0.06023693948282352,0.4133218657344065,-0.007063769288418687,0.07874889349435547,-0.17722509491817953,-0.4592637010877727,0.190017149779658,0.02378723744648431,0.007063769288418687,0.07874889349435547,0.17722509491817953,0.4592637010877727,0.11780446805393219,0.14865547478883517,0.0,3,0.3,0,13,0.1397300143384685,34.39613800224489,0.021608740884466883,0.0,0.4055530606789093,0.0,0,0,0,0
0.51,0.0,0,0,0,0,0,0,0,0,0.3972907497806668,0.0,0.3137936018751874,0.7756121492744628,0.0,0.5971984041597211,0.09072059508543086,0.0004117916031353266,0.3201451726474247,-0.003234746355963896,5.7919425907382305e-05,0.06689552270060549,0.2590932720767985,0.14720948616088408,0.09143711396465787,0.2516552316947219,-0.1267161696188452,0.08416239592048247,-0.12052172912432216,0.1319048005810716,0.07147284252331323,-0.10062826000464642,-0.13925706149669162,0.07262360490987288,0.40774517159012286,-0.007779229474586205,-0.01071862007505582,-0.14217385338019087,-0.3941172654781473,0.19664941310734438,0.01045442180945605,0.007779229474586205,0.01071862007505582,0.14217385338019087,0.3941172654781473,0.11714418876784302,0.13537784005188527,0.0,3,0.3,0,13,0.14422596987257535,4.77812639358611,0.011785605909759583,0.0,0.5090767413305637,0.0,0,0,0,0
0.52,0.0,0,0,0,0,0,0,0,0,0.4050429501741038,0.0,0.31975319788268336,0.7752200393436992,0.0,0.595959600749596,0.09477419350070332,0.0006053192756756931,0.31962021563814963,-0.0043743366917774655,-0.00379590720520695,0.06884079904328164,0.2666787502103779,0.15046986758839295,0.10176855977534244,0.2604895386937646,-0.12781716039096477,0.09354653272214908,-0.11238046286121878,0.13168246630188654,0.08183201416219946,-0.09028373722982747,-0.14065448593538046,0.08326420022693609,0.40312478560035897,-0.008234112333284496,-0.09129315638219947,-0.05891230862948324,-0.3678217759134381,0.18703391608338568,0.0019181645737448294,0.008234112333284496,0.09129315638219947,0.05891230862948324,0.3678217759134381,0.13271928179929768,0.142871558706327,0.0,3,0.3,0,13,0.13727657470705146,7.365682361262825,0.01787243889546254,0.0,0.3056432036388659,0.0,0,0,0,0
0.53,0.0,0,0,0,0,0,0,0,0,0.4127911529571451,0.0,0.325700170581432,0.774820278304128,0.0,0.5946972698748665,0.098789031044092,0.0007925852732847481,0.3184286830440717,-0.004836156221456705,-0.007215316673316652,0.07069328961234855,0.2720053136487137,0.15390754592864586,0.10569608549921963,0.26886301541753665,-0.12833725056341072,0.09811062253197586,-0.10346925930781892,0.13083026642436718,0.08846901563182066,-0.08166351749945538,-0.1421919114089536,0.08964683043215539,0.39919611020382334,-0.009147270688035647,-0.14586544534458717,-0.0030542879121005615,-0.31246514967916367,0.18171222128724596,0.01359504275332174,0.009147270688035647,0.14586544534458717,0.0030542879121005615,0.31246514967916367,0.14398794929418607,0.16673026273554345,0.0,3,0.3,0,13,0.1579859642132155,1.7879308632993673,0.030442184560680995,0.0,0.1677787595486553,0.0,0,0,0,0
0.54,0.0,0,0,0,0,0,0,0,0,0.4205352816581571,0.0,0.3316342851951342,0.7744128701012043,0.0,0.593411461370219,0.10277398451795423,0.0009695263839089959,0.31675885459665415,-0.005075788853725762,-0.010089695056804349,0.07254950818929091,0.276506118934907,0.15647799726469563,0.10400876662305027,0.27648610321137,-0.1272914500327902,0.09735050920206528,-0.09500855679419162,0.12936144856706033,0.08915648941431073,-0.07499234760736948,-0.14351362491928063,0.08992383418074819,0.392701794465115,-0.01027511404164501,-0.19485708124531986,0.011588254083074175,-0.2038280076769251,0.19144114892533265,0.027833487193042128,0.01027511404164501,0.19485708124531986,0.011588254083074175,0.2038280076769251,0.14019313626980157,0.1783017375044887,0.0,3,0.3,0,13,0.17505934590312408,6.532062384131306,0.035317293466419826,0.0,0.2847343593020024,0.0,0,0,0,0
0.55,0.0,0,0,0,0,0,0,0,0,0.42827525984571624,0.0,0.3375553074551057,0.7739978187559116,0.0,0.5921022259971487,0.10659451188421729,0.0011217214525995121,0.3146901796777151,-0.006014972519400828,-0.010064055239231706,0.07458168172338149,0.2828380451116306,0.1581727760668137,0.09883606562434921,0.28307554535600243,-0.125062215338407,0.09060365002854681,-0.08539670544257008,0.12790008560741295,0.08262654888485826,-0.06599626257433011,-0.14426634820650974,0.08463004142865474,0.36405960653957004,-0.01212974740713435,-0.22662857610333276,-0.0973367740386205,0.23765786432063837,0.21792142481837054,0.0642156533061462,0.01212974740713435,0.22662857610333276,0.0973367740386205,0.23765786432063837,0.11963388263673516,0.19597928335001571,0.0,3,0.3,0,13,0.18928334595973964,53.671233610029375,0.04385663916981212,0.0,0.9551055722897932,0.0,0,0,0,0
0.56,0.0,0,0,0,0,0,0,0,0,0.4360110111293624,0.0,0.34346300360952614,0.7735751283646175,0.0,0.5907696154420439,0.11009750232710445,0.0012497601739974596,0.31224380101577454,-0.007696544010448081,-0.0056271355480121965,0.07680776339583163,0.2917519540034853,0.1597218354323681,0.08945133062780682,0.29035469155738586,-0.12273123213173232,0.0780017633555907,-0.07305431564453707,0.12709476148592122,0.07081919854611884,-0.05451186195318461,-0.14525979408564765,0.0726098556007827,0.3342591938951151,-0.011841171420188886,-0.27420991938184536,-0.24558303362564501,0.5700823167377893,0.23252715503436144,0.10175181723424731,0.011841171420188886,0.27420991938184536,0.24558303362564501,0.5700823167377893,0.1109358485751647,0.22452883722960087,0.0,3,0.3,0,13,0.21361173160164276,82.29973066748383,0.031518720788850096,0.0,1.5323364734704827,0.0,0,0,0,0
0.5700000000000001,0.0,0,0,0,0,0,0,0,0,0.44374245916035343,0.0,0.3493571404326669,0.7731448030991017,0.0,0.5894136823140772,0.11333522780878538,0.0013660058274182335,0.3092019411402249,-0.008803641073245832,0.00042792027375315733,0.0791005480652164,0.3010926608399251,0.15991735015920233,0.07465575260871668,0.29991744370206025,-0.11986874963269994,0.060636084121115735,-0.058405118019420554,0.12633646244795585,0.057364771799201214,-0.04117302405628348,-0.14545263426123134,0.0595264354921792,0.31531853401157733,-0.01005869790273818,-0.3446029711301204,0.04706346730178782,0.6015491553817081,0.2337958032733256,0.1284239251487761,0.01005869790273818,0.3446029711301204,0.04706346730178782,0.6015491553817081,0.1155613371593413,0.25404396021085557,0.0,3,0.3,0,13,0.24291782386800337,65.81933387949681,0.03291454659437909,0.0,1.511530920413537,0.0,0,0,0,0
0.58,0.0,0,0,0,0,0,0,0,0,0.45146952763241865,0.0,0.3552374852340987,0.7727068472065224,0.0,0.5880344801431792,0.1165301148257808,0.0014869159812505328,0.30527304810540723,-0.007880750959688937,0.005680581105642846,0.0814253384247202,0.30574797616911414,0.15859309693068707,0.055230080017414626,0.3086217452318749,-0.11686420574434593,0.042286723141046034,-0.043498472251179504,0.12683006704173044,0.0404356737047151,-0.029190222116375453,-0.14602845985720966,0.04266047236323692,0.3332184358484932,-0.010895137239376348,-0.4424788726780233,0.1815971817325023,0.391361233364375,0.24775088854346713,0.11825109178392545,0.010895137239376348,0.4424788726780233,0.1815971817325023,0.391361233364375,0.10748659669063157,0.23663282571393338,0.0,3,0.3,0,13,0.25076093113217607,73.85558235976553,0.03379547745538399,0.0,1.3713651911524911,0.0,0,0,0,0
0.59,0.0,0,0,0,0,0,0,0,0,0.4591921402825117,0.0,0.3611038058678774,0.7722612650093053,0.0,0.5866320633778677,0.12003669753016069,0.001622325171912338,0.3001423998213858,-0.00606441252947973,0.007375667576615896,0.0837916502349054,0.30462229910320476,0.15555348021554197,0.03637766777630032,0.31068389636843724,-0.11252670980220002,0.025027603613590216,-0.030538011958119365,0.12654774636435545,0.021997771244134892,-0.01832287581576686,-0.14625175951197808,0.026443461915012137,0.3725468035995313,-0.011840893658463714,-0.5764119377108697,0.22897707315985422,-0.006453772562466748,0.2142431791855475,0.08664533668298041,0.011840893658463714,0.5764119377108697,0.22897707315985422,0.006453772562466748,0.14686062668232988,0.245346857023774,0.0,3,0.3,0,13,0.23428942408211717,16.043192767689668,0.039656680404375734,0.0,0.956304135829761,0.0,0,0,0,0
0.6,0.0,1,1,1,1,0,1,1,1,0.46691022089156364,0.0,0.3669558707417092,0.7718080609051936,0.0,0.585206487383183,0.12386775058505332,0.001788337526778113,0.29374013163375856,-0.003435669732028377,0.007043788896389902,0.08620084971110298,0.300551572716161,0.15282831434930716,0.020913580308548285,0.30951703126436597,-0.1101916419212666,0.01730577559405158,-0.026419882425333524,0.12559033148527932,0.01717993918929696,-0.013692201649204955,-0.14602455570958522,0.01831880013154713,0.3927711165345006,-0.015366980223463554,-0.6586097239385356,0.3134209198508389,0.2410477313891205,0.3200252690257847,0.07413910435706306,0.015366980223463554,0.6586097239385356,0.3134209198508389,0.2410477313891205,0.0469306017159245,0.13643668629645112,10.0,3,0.3,0,13,0.20067366083355037,33.29890686338863,0.06843863293094027,130.56252140987755,1.7121246675462487,10.0,0.0,0.13999999999999999,0.15,0.13999999999999999
0.61,0.0,1,1,1,1,1,1,1,1,0.4746236932852346,0.0,0.3727934488260932,0.7713472393670984,0.0,0.583757808438401,0.12778702450233853,0.0020463079267609686,0.28749096066176116,-0.005926162646728983,0.011260057481081498,0.08929330257096697,0.2990974864093399,0.15190317197567646,0.018225485174995393,0.3094664843474394,-0.11017177139657496,0.017354259448251474,-0.026583414960238555,0.12552844421407966,0.017221194534038087,-0.013769603252026169,-0.14606961684820458,0.018360246987724926,0.4084737169334653,0.005069655980092428,-0.5632503260749893,-0.3373024053504786,0.5145474901663603,0.30590293249448813,0.06614997635176934,0.005069655980092428,0.5632503260749893,0.3373024053504786,0.5145474901663603,0.06689051633160509,0.13811014866346685,15.0,3,0.3,0,13,0.13978217858317823,99.19309556067645,0.13885234153406778,158.81161394666066,0.24892117740092168,15.0,0.15,0.0,0.0,0.0
0.62,0.0,1,1,1,1,1,1,1,1,0.4823324813346662,0.0,0.3786163096634422,0.7708788049431592,0.0,0.5822860837348953,0.13195388137734226,0.002360119418781595,0.2823828692752364,-0.009260442920170326,0.016809952740029832,0.09285569249112088,0.2989858928504664,0.15192480584485424,0.018265803484549897,0.309520602414266,-0.110136855823666,0.017395210844834502,-0.026618625702964305,0.12546848640447733,0.017253185824010683,-0.01371966164721089,-0.14611639159588571,0.01839365934037339,0.43807498922648824,-0.007213115129438541,-0.45374278500194776,-0.17252707282877805,0.5666431114430661,0.3922604470807623,0.044257492108177976,0.007213115129438541,0.45374278500194776,0.17252707282877805,0.5666431114430661,0.013644137417320124,0.06511474465493663,0.0,3,0.3,0,13,0.07603697224111299,130.95208587178905,0.13075016138594367,102.08536850296888,0.08899909606914802,0.0,0,0,0,0
0.63,0.0,1,1,1,1,1,1,1,1,0.4900365089572325,0.0,0.38442422337718063,0.7704027622566278,0.0,0.5807913713738455,0.13633538432051848,0.0027221306008202483,0.2782307763913753,-0.00806349394371967,0.02222717082427339,0.09648419667779673,0.29899916859534126,0.15196739703253065,0.01829797058783239,0.3096538994465453,-0.11009102557750085,0.01743193582788244,-0.026552612425155275,0.12542132657143445,0.017279696928033716,-0.013594940177223125,-0.14615573909954865,0.018423499250108846,0.4570326620579096,-0.0024124224238245614,-0.3579940262080142,0.13593480519987672,0.5197156623732273,0.3764459610008063,0.0330038468993229,0.0024124224238245614,0.3579940262080142,0.13593480519987672,0.5197156623732273,0.007978262376374334,0.043394531699521795,0.0,3,0.3,0,13,0.055217625307851195,79.70341467265946,0.1166676224749597,139.82418440451335,0.10289678069263486,0.0,0,0,0,0
0.64,0.0,1,1,1,1,1,1,1,1,0.4977357001172911,0.0,0.3902169606808198,0.7699191160058627,0.0,0.5792737303639162,0.14089548501863053,0.0030509060640853953,0.2749972785178716,-0.008247018381419639,0.02732662139886033,0.10049851459294575,0.2990848518954249,0.1520150166822555,0.01832496124091007,0.3098729838442081,-0.1100385425044389,0.01746414495421933,-0.02641462717752449,0.12537065098739453,0.017303803376361143,-0.013386000620097038,-0.14619974174114883,0.0184510262183626,0.47179650414589897,-0.010766577126754528,-0.2675790853732127,-0.008332651419926541,0.47829581499818424,0.40053726496740644,0.02593919597139216,0.010766577126754528,0.2675790853732127,0.008332651419926541,0.47829581499818424,0.010320304286586646,0.047026077384733335,0.0,3,0.3,0,13,0.05864580815455962,74.35591433020463,0.10731872171035786,91.446139046664,0.11413039066264097,0.0,0,0,0,0
0.65,0.0,1,1,1,1,1,1,1,1,0.5054299788269336,0.0,0.39599429288700977,0.769427870964251,0.0,0.5777332206189978,0.14559282058155956,0.0034406921369046404,0.27262158260993513,-0.006487869964290557,0.03157484901748342,0.10437463130118259,0.2992533031776958,0.1520721395897361,0.0183481422521391,0.310159367487962,-0.1099771264659043,0.017493998085102824,-0.026209418077976276,0.1253317624800851,0.017326111369478148,-0.013120815829764959,-0.14623484793798103,0.018476889550680275,0.48431713301403256,-0.009398968380947798,-0.18002562370166125,0.06288413576299655,0.3805580590780743,0.40334981608245357,0.02111284581290107,0.009398968380947798,0.18002562370166125,0.06288413576299655,0.3805580590780743,0.007355523195443803,0.03786733738929267,0.0,3,0.3,0,13,0.03699814784215588,78.43828054799526,0.10444994451234273,132.95203841650576,0.09655339080143555,0.0,0,0,0,0
0.66,0.0,1,1,1,1,1,1,1,1,0.5131192691467354,0.0,0.4017559919165674,0.7689290319801811,0.0,0.5761699029557643,0.1504400331299156,0.003823192081808552,0.2711360163296434,-0.006527333535658899,0.03501982026635653,0.1084433932897926,0.2994899254164204,0.15213368303351568,0.018368847953649098,0.3105183591369709,-0.10991010859078733,0.017522345803664685,-0.025944676040613457,0.12529527670994056,0.017347955914530325,-0.012786561444194378,-0.14626830027506468,0.018502295027972487,0.49721200384899283,-0.012679943902721324,-0.08032640702513658,0.009169801041444797,0.30314417903415336,0.4052759851063509,0.015907265297742612,0.012679943902721324,0.08032640702513658,0.009169801041444797,0.30314417903415336,0.0035199931897834658,0.032107202390247405,0.0,3,0.3,0,13,0.04058766457601474,107.96724388696262,0.10647003860953749,95.0765603119967,0.08518712175500665,0.0,0,0,0,0
0.67,0.0,1,1,1,1,1,1,1,1,0.5208034951865055,0.0,0.4075018303074806,0.7684226039770037,0.0,0.5745838390913194,0.15544603401329316,0.004265772930600436,0.2707118898521674,-0.0056441762643406595,0.03764657668664295,0.11244548890082759,0.2998065147502714,0.15220431054209044,0.018388649932550488,0.3109447902612068,-0.10983416181326075,0.01755105050481756,-0.025605196100370375,0.12527201582368838,0.017369672458005456,-0.012385089948473205,-0.14629144477108652,0.018527513769313192,0.5092256098298764,-0.011923843412692103,0.03497228882496922,0.0866387316082123,0.22475193862928397,0.4141151676859555,0.01157788535662907,0.011923843412692103,0.03497228882496922,0.0866387316082123,0.22475193862928397,0.006613337378474915,0.030115066147796087,0.0,3,0.3,0,13,0.029282209323656112,146.84338062796536,0.11274906307909797,153.87901574646128,0.08709451197124474,0.0,0,0,0,0
0.68,0.0,1,1,1,1,1,1,1,1,0.5284825811060347,0.0,0.4132315812238882,0.767908591952926,0.0,0.5729750916407594,0.16058662950040453,0.004736128805638765,0.2714995606994907,-0.0044567198963027,0.03955331584225186,0.11662365085577804,0.3001973250344627,0.15228253961897004,0.01840893643314015,0.3114383819278376,-0.10975031756520136,0.01758169669796575,-0.025190664199927965,0.12525927954613014,0.017392427295895962,-0.011912227269884529,-0.14630680469237903,0.01855383969771396,0.5152180669511678,-0.011238701673562675,0.1624732213025686,0.10519808754867777,0.1462865089531643,0.40611335253516634,0.013264514154866958,0.011238701673562675,0.1624732213025686,0.10519808754867777,0.1462865089531643,0.0071182286887218615,0.031621444517151494,0.0,3,0.3,0,13,0.034217913979127636,178.05942098237364,0.11271106802121836,107.95935006056553,0.09158634112525377,0.0,0,0,0,0
