time,trans_flag,des_cont_state_fl,des_cont_state_fr,des_cont_state_rl,des_cont_state_rr,cont_state_fl,cont_state_fr,cont_state_rl,cont_state_rr,vel_cmd_x,vel_cmd_y,vel_cmd_yaw,acc_cmd_x,acc_cmd_y,acc_cmd_yaw,base_pos_x,base_pos_y,base_pos_z,base_ang_roll,base_ang_pitch,base_ang_yaw,FL_foot_pos_x,FL_foot_pos_y,FL_foot_pos_z,FR_foot_pos_x,FR_foot_pos_y,FR_foot_pos_z,RL_foot_pos_x,RL_foot_pos_y,RL_foot_pos_z,RR_foot_pos_x,RR_foot_pos_y,RR_foot_pos_z,base_vel_x,base_vel_y,base_vel_z,base_vel_roll,base_vel_pitch,base_vel_yaw,x_vel_err,y_vel_err,z_vel_err,roll_vel_err,pitch_vel_err,yaw_vel_err,cmd_err,cont_err,terr_freq,terr_height,failed,gait_id,base,CoT,musculoskeletal,foot_force,MWE,stability,FL_stride_t,FR_stride_t,RL_stride_t,RR_stride_t
0.01,0.0,0,0,0,1,1,0,1,1,0.006283178692509316,0.0,0.005026527078818862,0.6283178692509316,0.0,0.5026527078818862,0.00015010278164817904,-1.6818124287362578e-05,0.3099978571286255,0.001530845471898372,0.00033140966956102247,-0.00020213957477381705,0.18289818119357437,0.13209574845880423,0.017331655953009395,0.18067544254313428,-0.1299417668354584,0.0200022111302737,-0.18296946864359961,0.13205118613310912,0.01733165373762452,-0.18299056073545078,-0.13204872894192443,0.017331608209421312,0.04054850117712521,-0.004564019933706615,0.00730052649658536,0.5009140119351376,0.005585341268709364,-0.047349058992752505,0.0342653224846159,0.004564019933706615,0.00730052649658536,0.5009140119351376,0.005585341268709364,0.05237558607157137,0.09120492848989388,30.0,3,0.3,0,11,0.04553534393604662,107.4925199414736,0.08351470023118282,66.6162185108254,0.07581987573775113,30.0,0,0,0,0
0.02,0.0,0,0,0,1,1,0,1,1,0.014137091596022201,0.0,0.011309492449657768,0.7853912903512885,0.0,0.6282965370838907,0.0010223994439490125,-0.00019807289369877767,0.3107368534786486,0.009626607477274694,-0.003369355072713631,-0.00010251085192870195,0.18313693213880344,0.13208148936437847,0.0173451300762556,0.1779065671366553,-0.12733025329800574,0.02741339602359419,-0.18381803309310343,0.13228173910873098,0.017506655730798987,-0.1829480368512574,-0.1320645911583252,0.017340321490130955,0.1318966950481276,-0.032390671258968294,0.17576367089026815,0.8665150559072784,-0.8606098816448362,0.050819645839359884,0.1177596034521054,0.032390671258968294,0.17576367089026815,0.8665150559072784,0.8606098816448362,0.03951015338970212,0.18966042810077582,50.0,3,0.3,0,11,0.13374127387246976,738.6244579221192,0.2632121786598856,150.59311405038915,0.3498805861653668,50.0,0,0,0,0
0.03,0.0,0,0,0,1,1,0,0,1,0.02199086497214841,0.0,0.01759201134109972,0.7853773376126207,0.0,0.628251889144195,0.0024473881265299384,-0.0005046903539761689,0.3130927587425366,0.019048444553193145,-0.017171504362251566,-0.0005034800145297631,0.18361509392856307,0.13205430779131647,0.01738010680367083,0.18176608990676799,-0.12604711587633613,0.035029344616641644,-0.1893860945673628,0.13505487784672504,0.02712941514161951,-0.1829060366909151,-0.13206883990989568,0.01735008271700486,0.1438402954846034,-0.019439968762938582,0.2402856718535868,1.275932260729074,-1.5745826444308588,-0.04407883948887389,0.12184943051245498,0.019439968762938582,0.2402856718535868,1.275932260729074,1.5745826444308588,0.0616708508299736,0.20296025010536717,45.0,3,0.3,0,11,0.20143045105704777,480.4208335737577,0.18639279618189372,147.85042703982919,0.6082142095138676,45.0,0,0,0,0
0.04,0.0,0,0,0,1,0,0,0,1,0.02984442130731541,0.0,0.023873835730056265,0.7853556335166999,0.0,0.6281824388956546,0.003759369272139537,-0.0007309919225042032,0.31512191182301846,0.03072679105380338,-0.030152255539443562,-0.000725826019991041,0.18814798848370407,0.1324368567109807,0.02638458831454593,0.18951863677898495,-0.1249138055104595,0.04544779662209544,-0.18874338089336962,0.13885617230948283,0.03870644135809148,-0.18286923031453714,-0.13207401155771387,0.01735995583351224,0.1400229954855895,-0.015813090450294547,0.12650892949880108,0.5507875180040529,-0.9333367737709677,-0.0002622337936840288,0.11017857417827409,0.015813090450294547,0.12650892949880108,0.5507875180040529,0.9333367737709677,0.024136069523740294,0.15012773415230893,15.0,3,0.3,0,11,0.14179989464367385,112.17605952764688,0.07203679762033044,9.132302499792322,0.9441466227449291,15.0,0,0,0,0
0.05,0.0,0,0,0,1,0,0,0,1,0.03769768309009279,0.0,0.030154717620856746,0.7853261782777381,0.0,0.628088189080048,0.005185052429382697,-0.0008932986856440258,0.3157655978829497,0.03311870632098248,-0.037709046300139715,-0.0011750006185532343,0.19672032117530142,0.13469588319422884,0.05053528728817777,0.1968016566291817,-0.12586153188080415,0.06259573731035376,-0.1860831564717492,0.1398452625417064,0.052843686353817754,-0.18283698825065384,-0.13207744816602607,0.017369774774280228,0.14414144030668702,-0.012817432441629974,0.008057336601960051,0.10806913377316005,-0.6682047877350437,-0.015626886274865984,0.10644375721659423,0.012817432441629974,0.008057336601960051,0.10806913377316005,0.6682047877350437,0.04578160389572273,0.16504279355394694,0.0,3,0.3,0,11,0.1740934357623854,84.73000289465574,0.05183616011217289,14.516078007675963,0.5615683311460664,0.0,0,0,0,0
0.06,0.0,0,0,0,1,0,0,0,1,0.04555057281195724,0.0,0.036434409055038704,0.7852889721864452,0.0,0.6279691434181958,0.006611465923999212,-0.0009935781699252045,0.3154339562192178,0.03415029041716117,-0.04347549090076308,-0.0013813610390538498,0.2040512744730761,0.13808044500888098,0.0726322231005467,0.2025840406878569,-0.12985400781567233,0.07947916141879965,-0.18243498240689593,0.1407352258024357,0.06798266599287886,-0.18284064258204014,-0.1320809375686381,0.01738072768163415,0.1378164079633416,-0.00951531080126249,-0.07682509926502731,0.16886380636002227,-0.4968690620958101,0.008327557632194069,0.09226583515138437,0.00951531080126249,0.07682509926502731,0.16886380636002227,0.4968690620958101,0.028106851422844636,0.1298879973754915,0.0,3,0.3,0,11,0.14174520974718205,17.253044601773365,0.02770431610687975,9.80353337342304,0.3335556977114038,0.0,0,0,0,0
0.07,0.0,0,0,0,1,0,0,0,1,0.05340301296805755,0.0,0.04271266212113687,0.7852440156100309,0.0,0.6278253066098166,0.00801293880106138,-0.0010560586674102518,0.3145555997277409,0.035661134610231696,-0.04830598107065165,-0.0014982956783324694,0.20905910050584184,0.14155642720714548,0.08670307038755451,0.20674742664233428,-0.1333290622553126,0.09146041453827734,-0.1784250312845482,0.1405472465307996,0.07967237360396762,-0.182865151038708,-0.13208288936061485,0.0173925092928425,0.13572085975226328,-0.008630709690311102,-0.11154267392367796,0.14953057429147754,-0.47827735524966086,0.0025829498291047998,0.08231784678420573,0.008630709690311102,0.11154267392367796,0.14953057429147754,0.47827735524966086,0.04012971229203207,0.1310782687665489,0.0,3,0.3,0,11,0.1303205314325623,6.980137687704629,0.04474505974546451,17.600318082453327,0.6667737706348144,0.0,0,0,0,0
0.08,0.0,0,0,0,1,0,0,0,1,0.06125492605797953,0.0,0.048989228964470284,0.7851913089921981,0.0,0.6276566843333414,0.00944291559727756,-0.0010879807173829388,0.3132756588045712,0.037468965873669824,-0.053285475302153884,-0.001600993429986858,0.2112905825805427,0.14413140554075848,0.09278408022405327,0.20887137720476315,-0.13521730395445397,0.09766814805426342,-0.17404476793248996,0.14047573353561457,0.08683305799506477,-0.18291337744273953,-0.1320829465177935,0.01740575104326622,0.13678727131268292,-0.007117932307592265,-0.15773544339441825,0.23755217764472814,-0.5158595338287199,0.011540501405205846,0.0755323452547034,0.007117932307592265,0.15773544339441825,0.23755217764472814,0.5158595338287199,0.03744872755926444,0.1200990051215601,0.0,3,0.3,0,11,0.12369538347577132,7.590224456046419,0.036543396068286424,10.962918778274783,0.17299879655964645,0.0,0,0,0,0
0.09,0.0,0,0,0,1,0,0,0,1,0.06910623458651093,0.0,0.055263861796927174,0.7851308528531393,0.0,0.627463283245689,0.010924926166465551,-0.001083214210908117,0.31147707046754164,0.03924164656048039,-0.05823841094149862,-0.0017033884953357508,0.21167057759005617,0.14541148709862636,0.09438890511055772,0.2104958828716623,-0.13578201305063442,0.10098033866984119,-0.16975785654592884,0.1405920173315822,0.09007057690191395,-0.18298324473893407,-0.1320801925393724,0.017420757679309007,0.13855813802479358,-0.005267136892828829,-0.22156358089584713,0.12442800641926825,-0.45864528691654344,0.007782100392742922,0.06945190343828266,0.005267136892828829,0.22156358089584713,0.12442800641926825,0.45864528691654344,0.04748176140418425,0.12220080173529574,0.0,3,0.3,0,11,0.1227503073619137,7.479328258634704,0.025093777775902847,15.985679172123685,0.24855910071787912,0.0,0,0,0,0
0.1,0.0,0,0,0,1,0,0,0,1,0.07695686106440629,0.0,0.06153631290674721,0.7850626477895362,0.0,0.6272451109820033,0.012474061371008774,-0.00103023324182471,0.30894758113859455,0.03989106947249558,-0.06272698226983797,-0.0017289694714433717,0.2112463851197507,0.1462584953599854,0.09421268228661726,0.21168359211968332,-0.1360294017292376,0.10275454194000559,-0.16486388058618168,0.1407587836647558,0.09179438808718224,-0.18307845595806432,-0.13207604326223804,0.017438271294960894,0.1392992348403021,-0.004683507715834136,-0.2994976518693288,-0.022050749761435933,-0.4289982843140839,0.018630595145209497,0.06234237377589581,0.004683507715834136,0.2994976518693288,0.022050749761435933,0.4289982843140839,0.04290571776153771,0.10993159925326765,0.0,3,0.3,0,11,0.1130021904478277,8.561064576078811,0.0172856974976855,9.508865314393242,0.4880472451221267,0.0,0,0,0,0
0.11,0.0,0,0,0,1,0,0,0,1,0.08480672800915168,0.0,0.06780633466830074,0.784986694474539,0.0,0.6270021761553536,0.014066429593878473,-0.0009425687489361215,0.30572933076564685,0.039288153780076225,-0.06640311561069967,-0.001678232624604098,0.2108191098948215,0.14697441043819473,0.0920296924795269,0.21249373311951392,-0.13566803045997358,0.10224147497131231,-0.1595914702344589,0.14018783328962753,0.09059752901367778,-0.1831890362597172,-0.13207061043397997,0.01745760513629882,0.13670054744605126,-0.0036453279496820555,-0.36192050106560963,-0.13074614881198426,-0.3102575120838457,0.022001843848470506,0.05189381943689958,0.0036453279496820555,0.36192050106560963,0.13074614881198426,0.3102575120838457,0.045804490819830235,0.10134363820641187,0.0,3,0.3,0,11,0.10546672548036753,8.505018682115734,0.024832930820197132,14.994670498031358,0.6409217389084648,0.0,0,0,0,0
0.12,0.0,0,0,0,1,0,0,0,1,0.09265575794572947,0.0,0.0740736795518646,0.7849029936577795,0.0,0.6267344883563855,0.015687497462792334,-0.0008196283111141567,0.3019584430061027,0.037754486701510284,-0.06925152292912462,-0.0014953510910633338,0.21133439817186184,0.1476082394623927,0.08620671297186597,0.21234065957703305,-0.13444300504752768,0.09824382664495562,-0.15459646998764212,0.1391386252896046,0.08559615728320902,-0.18330996286008064,-0.1320645042474677,0.017478432861929988,0.13492239897101993,-0.0005122649135801578,-0.41682803489942116,-0.1335015941794674,-0.2620724691909352,0.033576560317886514,0.04226664102529046,0.0005122649135801578,0.41682803489942116,0.1335015941794674,0.2620724691909352,0.040497119233978085,0.0832760251728487,0.0,3,0.3,0,11,0.08967993935897799,11.918726144317196,0.02863242498517262,12.558104288784344,0.8304315622071435,0.0,0,0,0,0
0.13,0.0,0,0,0,1,0,0,0,1,0.10050387340738298,0.0,0.08033810013339421,0.784811546165351,0.0,0.6264420581529608,0.017338231736653664,-0.000626253450618603,0.2975346586215381,0.03679589011125554,-0.07149672993974954,-0.0012603889113893194,0.2133982424180602,0.14781250416919728,0.07876358737504402,0.21179070221025692,-0.13368373656869378,0.09128880896730239,-0.15081608971426316,0.138241195519114,0.07742003612298076,-0.18344985202836508,-0.13205277749638952,0.017501775608643827,0.13137283568473834,0.006318767578271722,-0.48805792103308004,-0.004170011977682676,-0.16171246807009906,0.03627207095060985,0.03086896227735536,0.006318767578271722,0.48805792103308004,0.004170011977682676,0.16171246807009906,0.04406602918278436,0.08125375903841145,0.0,3,0.3,0,11,0.08495265858283552,10.261807639851542,0.023611761651770924,16.63816479343604,1.0155279310759626,0.0,0,0,0,0
0.14,0.0,0,0,0,1,0,0,0,1,0.10835099693638103,0.0,0.08659934910429141,0.7847123528998051,0.0,0.6261248970897206,0.0190272024140725,-0.0003360164859443923,0.29242397389813507,0.0374404628908299,-0.07247723146743423,-0.0008504075357037038,0.21757164488572162,0.14640464521284682,0.07146935778926178,0.20950961417391914,-0.13287552692003862,0.0833588451296843,-0.14759139053708623,0.13669060822854812,0.06740612638689379,-0.18359947506975619,-0.13203568710219568,0.01752737464588197,0.13417575752615,0.013593148451410589,-0.5626400487339193,0.11523336656459843,-0.03568156864923826,0.052269415516152364,0.025824760589768958,0.013593148451410589,0.5626400487339193,0.11523336656459843,0.03568156864923826,0.03432993358813905,0.0737478426293186,0.0,3,0.3,0,11,0.07528251218535195,12.261859330907745,0.027724810100103837,14.251359896768065,1.1660531398131184,0.0,0,0,0,0
0.15,0.0,0,0,0,1,0,0,0,1,0.11619705108478236,0.0,0.09285717928116781,0.7846054148401324,0.0,0.6257830176876394,0.02083752137056,6.13305373326058e-05,0.2865060661299372,0.038203002859279106,-0.07199608355471998,-0.0003112481828183867,0.22169821794134265,0.14413717865107506,0.06464994463037259,0.20569838263736717,-0.1330738269220468,0.07673060290125025,-0.1448787266886198,0.13454472270076132,0.05665866215985553,-0.1837491793058615,-0.13201087695916783,0.01755521005127003,0.1407967511819944,0.020501219840225654,-0.640108551101747,0.037178978109766954,0.1443221956041237,0.047761747802020915,0.024599700097212032,0.020501219840225654,0.640108551101747,0.037178978109766954,0.1443221956041237,0.045095431479146894,0.09019635141658458,0.0,3,0.3,0,11,0.08189811316616893,11.134634305395059,0.028764343796491752,23.31661206325507,1.2904729296286503,0.0,0,0,0,0
0.16,0.0,0,0,0,1,0,0,0,1,0.12404195841520015,0.0,0.09911134361560314,0.7844907330417789,0.0,0.6254164334435333,0.02276302014927296,0.0005400412366184421,0.2799283674647617,0.035906490804796895,-0.06986465664339492,0.00013874687964624823,0.22473828949452235,0.14193315046930058,0.05554073673589191,0.1999764422016598,-0.133851950468956,0.06912135058391064,-0.14345050335017093,0.13201920630542704,0.04308981638316223,-0.18388287624119778,-0.13197695830347772,0.017582965307630954,0.1489672522303149,0.026082858804919225,-0.6996687804129416,-0.5110970744681029,0.29705394917423145,0.026316470277072505,0.024925293815114755,0.026082858804919225,0.6996687804129416,0.5110970744681029,0.29705394917423145,0.07279487333853063,0.12380302595856461,0.0,3,0.3,0,11,0.11047331759924836,14.00117863770777,0.03110003157105783,17.176834910629164,1.4479198830194893,0.0,0,0,0,0
0.17,0.0,0,0,0,1,0,0,0,1,0.13188564150156615,0.0,0.10536159520389834,0.7843683086366001,0.0,0.6250251588295203,0.024750533708654023,0.0010919299652464376,0.2728542436305569,0.028021063539750927,-0.06507688028722436,0.00045616557567631003,0.22591012117784734,0.1399385078117879,0.04226787595701914,0.19245618816328866,-0.1364122693451121,0.059587913471339224,-0.14341235938946728,0.12860298588084265,0.025868437062867303,-0.183984246209261,-0.1319302017767578,0.017607787848366446,0.15518066542833034,0.03971822594324162,-0.7417803564148244,-1.038455177412986,0.661972230646303,-0.015815963358111085,0.02329502392676419,0.03971822594324162,0.7417803564148244,1.038455177412986,0.661972230646303,0.12117755856200943,0.18419080843201524,0.0,3,0.3,0,11,0.14618125581400537,21.925970232199877,0.046565609576330706,34.78915855543847,1.5773642129920291,0.0,0,0,0,0
0.18,0.0,0,0,0,1,0,0,1,1,0.1397280229298949,0.0,0.11160768729682284,0.7842381428328743,0.0,0.6246092092924496,0.026831707283909007,0.0017632099050108876,0.26537989187802735,0.01391989270285629,-0.0567931473444756,0.00036898494219458807,0.2238644842505583,0.13757945420201265,0.025484962353064924,0.18210626954280407,-0.14088041224802883,0.04805750720042176,-0.1442955142089687,0.12605231588988758,0.016023732883344646,-0.184039354401309,-0.1318635292126074,0.017628857947313198,0.16502962394705067,0.06147424476637301,-0.7721435314426003,-1.5691324314639108,1.084516610389463,0.014093190253222788,0.025301601017155784,0.06147424476637301,0.7721435314426003,1.5691324314639108,1.084516610389463,0.09751449704360005,0.18429034282712883,5.0,3,0.3,0,11,0.2116559798688939,30.959859784222097,0.06005250428017937,79.6923221190975,1.4040509742678786,5.0,0.0,0.0,0.15,0.0
0.19,0.0,0,0,0,1,0,0,1,1,0.1475690252990478,0.0,0.11784937330935583,0.7841002369152916,0.0,0.6241686012532984,0.02887262023736413,0.0022732143901557232,0.25811899623383516,-0.003829649923977035,-0.04102139344206557,0.0013734083793572546,0.22127003372171083,0.13634129504713208,0.01673543366520494,0.1697277459652366,-0.14246799755823528,0.03238500084575166,-0.14443855908518646,0.12609187620804307,0.016052566902403198,-0.18451894118316456,-0.13304591425312728,0.018946300272679545,0.16906504277700152,0.026331460383461017,-0.7039825815565735,-1.4098329821544813,1.8935009737951032,0.17195616729052718,0.02149601747795371,0.026331460383461017,0.7039825815565735,1.4098329821544813,1.8935009737951032,0.05410679398117135,0.10193427184258608,25.0,3,0.3,0,11,0.10988269774977213,125.88393093665613,0.11552010331713403,121.55714483599229,0.7645964063914938,25.0,0,0,0,0
0.2,0.0,1,1,1,0,1,0,1,0,0.15540857122149707,0.0,0.124086406830421,0.7839545922449259,0.0,0.623703352106518,0.030880574635428547,0.00231233564512723,0.25123883624676757,-0.00962770051392052,-0.02210920082442147,0.002559507743878877,0.2207997541661899,0.1363444537016826,0.016805164744661857,0.15832430781409895,-0.13910596828319272,0.01697392117098956,-0.1444878442302325,0.1260887683047899,0.01607413189350408,-0.18325749711532974,-0.13848722749416517,0.024174835912204373,0.19075550201390476,-0.005755067194664427,-0.6877850224913019,-0.005880271672737673,1.8793955253893948,0.06856612633842046,0.035346930792407694,0.005755067194664427,0.6877850224913019,0.005880271672737673,1.8793955253893948,0.05552028049200054,0.09662227847907266,65.0,3,0.3,0,11,0.07222530811986017,88.44408629327447,0.08984996071901845,55.63636177194299,0.8284550368999328,65.0,0.16,0.0,0.0,0.0
0.21,0.0,1,1,1,0,1,1,1,0,0.16324658332408937,0.0,0.1303185416326145,0.7838012102592301,0.0,0.6232134802193492,0.03306088293313364,0.0020824236208953207,0.2447810299632378,-0.010390922177566488,-0.004189296814065546,0.0031556561787373146,0.2202513567484609,0.13628110792325385,0.01686205081480105,0.15824119516541552,-0.13908800750446895,0.017019259893828215,-0.1444837673265018,0.12606634754821325,0.016094273744139104,-0.1779115039131524,-0.1375250613140884,0.03162058236459678,0.21989998775398567,-0.011974495629349087,-0.5823854405137824,-0.28089669915287907,1.6611040448397192,0.160338465498872,0.056653404429896304,0.011974495629349087,0.5823854405137824,0.28089669915287907,1.6611040448397192,0.030019923866257514,0.0986478239255029,5.0,3,0.3,0,11,0.12477595050351517,112.45282221008031,0.13307098630955796,182.75561799817982,0.5879978695354793,5.0,0.0,0.20000000000000004,0.0,0.0
0.22,0.0,1,1,1,0,1,1,1,0,0.17108298424880955,0.0,0.1365455316819254,0.7836400924720183,0.0,0.6226990049310904,0.03526608829707733,0.001996495610308549,0.2394930868518539,-0.010747849050992124,0.010367856328379554,0.004652086819056439,0.2199011553753748,0.13627919168194258,0.016902470951904905,0.1582459458185487,-0.13905351228826213,0.01705004499251661,-0.14444953788681403,0.12604396697241738,0.016112650700598086,-0.17148146457172922,-0.13590204202255685,0.041655220683313704,0.22497203131211266,-0.005913105477641664,-0.48084201866536364,0.014602822018219084,1.2545569985017868,0.1360370505929608,0.05388904706330311,0.005913105477641664,0.48084201866536364,0.014602822018219084,1.2545569985017868,0.0005084810889645908,0.06031063362990936,0.0,3,0.3,0,11,0.0870721419616726,84.39093322338722,0.13110551310554636,103.84108085274252,0.24926974679189584,0.0,0,0,0,0
0.23,0.0,1,1,1,0,1,1,1,0,0.17891769665354415,0.0,0.1427671311474489,0.7834712404734601,0.0,0.6221599465523503,0.037503271808828245,0.0019206140388744652,0.23519894576414427,-0.011023759959321307,0.02154690892925082,0.005857853113329698,0.2193587601999149,0.13620983944798365,0.01693327623717801,0.15831518370343517,-0.13902337661938885,0.017072783422381138,-0.14437981550131654,0.12602578666369565,0.01613012410319646,-0.1656586908797046,-0.13514981236451606,0.05137736139534574,0.23832185360633662,0.006576285357535255,-0.36784718335945155,0.22706357268566527,0.9558635877587945,0.14337053634723365,0.05940415695279247,0.006576285357535255,0.36784718335945155,0.22706357268566527,0.9558635877587945,0.0006034051997847456,0.06658384751011247,0.0,3,0.3,0,11,0.0688018046447694,110.18148343486261,0.12425866130995793,152.97689343278677,0.13059143462524458,0.0,0,0,0,0
0.24,0.0,1,1,1,0,1,1,1,0,0.18675064321284485,0.0,0.1489830944110912,0.7832946559300696,0.0,0.6215963263642293,0.03987663191665757,0.0019661602292991194,0.23194678623411025,-0.008020531500863437,0.029307217245321704,0.007260817035518744,0.21927267489988006,0.13622338738012849,0.016955298335706567,0.15845218436958708,-0.13898919130934592,0.017090992385659642,-0.1442721749515548,0.1260085404777629,0.016146855222896814,-0.16011988744951286,-0.13451893103899032,0.06019634929911048,0.2504220977332344,-2.9376373597635695e-05,-0.2710235112477037,0.13385615806459888,0.6161081388896639,0.14979543422203884,0.06367145452038953,2.9376373597635695e-05,0.2710235112477037,0.13385615806459888,0.6161081388896639,0.0008123398109476376,0.0645131707049348,0.0,3,0.3,0,11,0.07035178875780576,100.48506250289603,0.1181665396850552,96.69654352669714,0.08832301996342673,0.0,0,0,0,0
0.25,0.0,1,1,1,0,1,1,1,0,0.19458174661869126,0.0,0.15519317607726604,0.7831103405846418,0.0,0.6210081666174844,0.04235413297677121,0.002013661783042914,0.22964973981077855,-0.004799220934704215,0.0341682010304829,0.008832515873018346,0.21933714350413192,0.13625302441130138,0.01697258583166668,0.15864210243938143,-0.13895571788066624,0.017106966424566356,-0.14412789522658623,0.12598957872472033,0.016163077214389004,-0.15375098185124117,-0.13416693453763268,0.0687479880223823,0.26049747311777927,0.008880885942727871,-0.17318507569100886,0.4959945427721685,0.3666115482137577,0.16938557197387805,0.065915726499088,0.008880885942727871,0.17318507569100886,0.4959945427721685,0.3666115482137577,0.014192395896612003,0.08898900833842788,0.0,3,0.3,0,11,0.07940816623185729,130.81103388017328,0.12103011434903785,143.35806918027805,0.030417443224092344,0.0,0,0,0,0
0.26,0.0,1,1,1,0,1,1,1,0,0.2024109295812544,0.0,0.16139713098258265,0.782918296256313,0.0,0.6203954905316611,0.04494845701875548,0.0020892026094941622,0.22830899439479663,-0.0010311592086614126,0.036968942323685416,0.010461308190533558,0.2194789532155889,0.13628421324319345,0.016987752428945194,0.1588760327726525,-0.13892654491425505,0.017122239918763826,-0.1439432422423271,0.1259689930269879,0.016179078875098674,-0.14571663804797974,-0.13375662498300933,0.07693126274302298,0.2675324486358597,0.005405712873787564,-0.0772031149685005,0.3510065179191748,0.19178505565255266,0.17198097469745005,0.06512151905460528,0.005405712873787564,0.0772031149685005,0.3510065179191748,0.19178505565255266,0.010583843714867397,0.08111107564326024,0.0,3,0.3,0,11,0.07553235836033116,142.56835028370685,0.11636845753268421,91.91993480993338,0.028297799248131583,0.0,0,0,0,0
0.27,0.0,1,1,1,0,1,1,1,0,0.21023811482965918,0.0,0.16759471420552421,0.7827185248404783,0.0,0.6197583222941561,0.047632566357701606,0.002201071593115477,0.2278899202247523,0.0031482424141565705,0.03808347810029411,0.012335350172900102,0.21968520946361694,0.1363213318117573,0.01700208425130284,0.15914689409234306,-0.1388970308191959,0.017137885625449767,-0.14372090994567738,0.12594660376267508,0.016194897220034213,-0.13716670759255,-0.13338123059170542,0.08477278802971253,0.2717167165338719,0.007097017079341672,0.010436616872343497,0.40385625911210654,0.05145042137785765,0.17969969290405954,0.06147860170421274,0.007097017079341672,0.010436616872343497,0.40385625911210654,0.05145042137785765,0.01210497869853533,0.08068059748208974,0.0,3,0.3,0,11,0.09438121284224019,151.2244753082137,0.11277645092528892,135.65904158993783,0.023945174991833684,0.0,0,0,0,0
0.28,0.0,1,1,1,0,1,1,1,0,0.21806322511274712,0.0,0.17378568107611705,0.7825110283087938,0.0,0.619096687059284,0.0504011898259749,0.0022824580528487937,0.2282820570897887,0.005984366712073395,0.03794640391122783,0.014091292797407196,0.21994545992902445,0.13635309119306466,0.017016467226603202,0.15944645099996338,-0.13887634655705194,0.0171541801064245,-0.14346693845149106,0.12592254593390348,0.016211172164757218,-0.12860029103647844,-0.13318199627163438,0.09194430079236868,0.2786054518208111,0.0052016680884900066,0.08849984344477992,0.22114105983693638,-0.08994536878493341,0.18193784760188772,0.06054222670806397,0.0052016680884900066,0.08849984344477992,0.22114105983693638,0.08994536878493341,0.008152166525770665,0.07389606132232465,0.0,3,0.3,0,11,0.07002937373877746,151.86998085126956,0.10551357559046201,85.04548106254234,0.010886876328681905,0.0,0,0,0,0
0.29,0.0,1,1,1,0,1,1,1,0,0.2258861831998389,0.0,0.17996978718558976,0.7822958087091797,0.0,0.6184106109472703,0.05325507587300529,0.0023543199054046836,0.22940785266315072,0.007670539645444064,0.03648578184147966,0.015870114094870023,0.22025241265901488,0.13638230336384707,0.01703154960445076,0.15977144551615344,-0.1388615712791327,0.017171629787116782,-0.14318570069639608,0.12589706268703546,0.01622795611797187,-0.12050145336636078,-0.13331662349998985,0.097826688693542,0.28235548515087355,0.0010116476151356632,0.15776047608863367,0.08912910557606624,-0.17539703973750484,0.1685866097549255,0.05646930195103464,0.0010116476151356632,0.15776047608863367,0.08912910557606624,0.17539703973750484,0.011383177430664249,0.06886412699683456,0.0,3,0.3,0,11,0.06967739418624848,150.19596418592135,0.10072580648603018,122.49398386641492,0.03721593242202159,0.0,0,0,0,0
0.3,0.0,1,1,1,0,1,1,1,0,0.23370691188149645,0.0,0.186146788396022,0.7820728681657535,0.0,0.6177001210432242,0.056166027319477896,0.0023971026802547778,0.23119273684234487,0.009442583961123543,0.034141849465065155,0.017439943260022378,0.22060202678793558,0.13640638268409366,0.017047956757911722,0.16011322437584552,-0.1388531518596092,0.017190097374802843,-0.14287503047762218,0.12587285087049802,0.016245439850740603,-0.11313637373448618,-0.13384058244716157,0.10187934159671636,0.2861262780197528,0.001033792626013122,0.22025404667766488,0.2527701822271552,-0.2687297377825322,0.15613413572149865,0.052419366138256374,0.001033792626013122,0.22025404667766488,0.2527701822271552,0.2687297377825322,0.030012652674523355,0.08346581143879285,0.0,3,0.3,0,11,0.08152533622633835,151.07834226884884,0.09941287547268168,79.25814459865897,0.08475844919495568,0.0,0,0,0,0
0.31,0.0,1,1,1,0,1,1,1,0,0.241525333970285,0.0,0.19231644084998276,0.7818422088788551,0.0,0.6169652453960756,0.05911848907123508,0.002428369594774841,0.2336170157862575,0.011213717787907099,0.03140849379521393,0.019058368787631747,0.22098016896043693,0.1364296930152977,0.017065670495741425,0.16047311798385022,-0.13884795027575345,0.01720987669867724,-0.14253716536857244,0.1258462706832599,0.016263827294554722,-0.10636167609013314,-0.13395449213618058,0.10337340353235638,0.2878698593167161,6.590099902370299e-05,0.28085154395900536,0.17198410382593152,-0.2868127099758109,0.16755161127500603,0.046344525346431104,6.590099902370299e-05,0.28085154395900536,0.17198410382593152,0.2868127099758109,0.02476482957497672,0.07117525592043153,0.0,3,0.3,0,11,0.07335587167978556,145.1450437414395,0.08825271433802742,110.91071274143846,0.10663847036408636,0.0,0,0,0,0
0.32,0.0,1,1,1,0,1,1,1,0,0.249341372301535,0.0,0.1984785009801572,0.7816038331249997,0.0,0.6162060130174452,0.062105049433531366,0.0024332683801265038,0.23658827322054352,0.01308625188688038,0.028297469222370752,0.02051606366021855,0.22138809126147282,0.13644734872949077,0.01708514187995988,0.16084594343751202,-0.13884869354298873,0.01723079698219651,-0.14217492142858246,0.12582138064229323,0.016283323821141366,-0.09961733452174457,-0.13484639912887558,0.10145416125326884,0.29242387303561607,-0.0035445304659939766,0.33183427290934303,0.10258489221221946,-0.32090235609578943,0.13763740808466754,0.04308250073408107,0.0035445304659939766,0.33183427290934303,0.10258489221221946,0.32090235609578943,0.06084109289548967,0.10746812409556472,0.0,3,0.3,0,11,0.09540033330122957,149.18316669447262,0.08792701879869651,71.9651033537301,0.10495286242674973,0.0,0,0,0,0
0.33,0.0,1,1,1,0,1,1,1,0,0.2571549497341036,0.0,0.2046327255189626,0.781357743256858,0.0,0.6154224538805403,0.06514203736061332,0.002424439737457208,0.24011004246919518,0.014727593571981544,0.02524289352162845,0.02204148228245665,0.22181720236312802,0.13646599270539556,0.017106330915984458,0.16123753394019502,-0.1388504568848697,0.01725339653057331,-0.14178529063764428,0.1257932822555329,0.01630438114990801,-0.09316486387220643,-0.1351891790067221,0.09510423810664315,0.2947661917361339,-0.003532209924147927,0.3860659704811249,0.21605786165565527,-0.28873308718185686,0.17556272877894694,0.03761124200203031,0.003532209924147927,0.3860659704811249,0.21605786165565527,0.28873308718185686,0.029069996740015674,0.07021344866619392,0.0,3,0.3,0,11,0.08437351134330362,149.30257016658555,0.08064653254837395,104.73004473593474,0.12457603851268861,0.0,0,0,0,0
0.34,0.0,1,1,1,0,1,1,1,0,0.2649659891511359,0.0,0.21077887150815186,0.7811039417032317,0.0,0.614614598918925,0.06819205030336249,0.00238411247039298,0.2441649344918163,0.017433624148746572,0.022460833908026112,0.023658676307353327,0.22226942424315424,0.1364820408468833,0.01712964626693103,0.16164292195764857,-0.13885541772239063,0.01727748718230368,-0.1413676590889689,0.12576448604915594,0.016327413273912017,-0.0852835035713011,-0.13621369440156034,0.08616224449450599,0.29721066625605114,-0.0032068701721008636,0.4416183836430442,0.252975478377541,-0.27683742517696763,0.1565479296778203,0.03224467710491524,0.0032068701721008636,0.4416183836430442,0.252975478377541,0.27683742517696763,0.05423094183033156,0.08968248910734766,0.0,3,0.3,0,11,0.08193242888250298,171.19473754815857,0.0829938481437511,71.95204760549878,0.03867370591844277,0.0,0,0,0,0
0.35000000000000003,0.0,1,1,1,0,1,1,1,0,0.2727744134608264,0.0,0.21691669630840524,0.7808424309690531,0.0,0.6137824800253378,0.07129071824414333,0.002350404769744482,0.24882331845148625,0.02009535135416659,0.019542627745128716,0.0253385943470579,0.2227490293400352,0.13649997290550406,0.01715589879126636,0.1620745900887839,-0.1388601857925646,0.01730438860659536,-0.14092220295248778,0.12573466305789754,0.01635289210594773,-0.07683829191763708,-0.1366459148894106,0.07372189985608778,0.3006161934019855,-0.0029160814744542667,0.5036652108703754,0.2581761049687956,-0.2744879415049106,0.19524759403222214,0.02784177994115905,0.0029160814744542667,0.5036652108703754,0.2581761049687956,0.2744879415049106,0.0216691022761831,0.05242696369179642,0.0,3,0.3,0,11,0.06975080151621263,180.86956258297522,0.07741579976235544,112.36217152828581,0.07938176761539872,0.0,0,0,0,0
0.36,0.0,1,1,1,0,1,1,1,0,0.2805801455971796,0.0,0.2230459576089092,0.7805732136353161,0.0,0.6129261300503952,0.07440083033613684,0.0022949909515401585,0.2541281820231738,0.023327398081847365,0.01658711512762645,0.027249380582638247,0.22325971940200126,0.13651760704621163,0.01718600003710577,0.1625331419346061,-0.1388664290766544,0.01733466860857899,-0.14044786204734996,0.1257030021061242,0.016381475832597858,-0.06646026724809012,-0.13701109375455084,0.06059988120316366,0.3029296968687695,-0.0022839169329881715,0.5676650662912013,0.3215602905451557,-0.33585362253008383,0.1971498585291527,0.02234955127158994,0.0022839169329881715,0.5676650662912013,0.3215602905451557,0.33585362253008383,0.025896099079756485,0.050529567284334595,0.0,3,0.3,0,11,0.04888004912618382,202.8571797976993,0.07838488545428188,79.38455019165274,0.08810366880641851,0.0,0,0,0,0
0.37,0.0,1,1,1,0,1,1,1,0,0.2883831085207705,0.0,0.22916641343692262,0.7802962923590895,0.0,0.6120455828013432,0.07754188824860071,0.0021794665332985517,0.2600682932104541,0.02535960051178662,0.012952583098982284,0.02909961154022629,0.22380619676476696,0.13653108173918865,0.01722103134841696,0.16302528674636707,-0.13887751780931046,0.0173696952563743,-0.13994794975411812,0.12567006364280078,0.016413313874771712,-0.05554087805472038,-0.13609368219706533,0.04779979566638086,0.3048038726554202,-0.007425275219822985,0.6313688023814937,0.19846306107659864,-0.361089079437488,0.19630881866282235,0.016420764134649712,0.007425275219822985,0.6313688023814937,0.19846306107659864,0.361089079437488,0.032857594774100274,0.056703634128572974,0.0,3,0.3,0,11,0.05901906379587006,209.9379510792403,0.07877638283507218,118.67919148803428,0.19619915229247864,0.0,0,0,0,0
0.38,0.0,1,1,1,0,1,1,1,0,0.29618322521950524,0.0,0.23527782216732931,0.780011669873476,0.0,0.6111408730406692,0.08067322871904677,0.002024525733830251,0.2666491943394912,0.02919264025630349,0.009462421316731806,0.031197562015348346,0.2243858142574914,0.136545572204283,0.017261977720132493,0.1635480129011423,-0.13888826853317984,0.017409459540848188,-0.13940983481172883,0.12563370164089274,0.016450461697672586,-0.04271895228248759,-0.13225115027618128,0.03761460612196786,0.30665916183877917,-0.00832587333875029,0.6917405782471816,0.4403533956744446,-0.31883008197321144,0.23848887868014326,0.010475936619273929,0.00832587333875029,0.6917405782471816,0.4403533956744446,0.31883008197321144,0.003211056512813948,0.022012866470838166,0.0,3,0.3,0,11,0.030493903706868396,217.08070666361556,0.08239149283688386,74.65948329420603,0.2353526167342661,0.0,0,0,0,0
0.39,0.0,1,1,1,0,1,1,1,0,0.3039804187093811,0.0,0.24137994253217698,0.7797193489875842,0.0,0.6102120364847669,0.08380861350369823,0.0018005928153749628,0.27385536262340965,0.036155293542015306,0.0061281601557843235,0.03352558525120295,0.2250119024175892,0.13655690647009672,0.017311533143099356,0.16434027802466528,-0.138888541082147,0.017453749566066767,-0.13884476276817478,0.1255941491956476,0.016494692654181936,-0.028147391071209643,-0.1229521257765884,0.02927530795433045,0.30416092306719644,-0.011610714199073256,0.7524305686774151,1.125457574821427,-0.3527041409237697,0.25532576561722403,0.00018050435781535867,0.011610714199073256,0.7524305686774151,1.125457574821427,0.3527041409237697,0.013945823085047049,0.025737041641935663,0.0,3,0.3,0,11,0.021629548238987398,261.8632691219087,0.10342407112141119,113.50867959133231,0.11079764460117314,0.0,0,0,0,0
0.4,0.0,0,0,0,1,1,0,0,0,0.3117746120352462,0.0,0.2474725336302022,0.7794193325865117,0.0,0.6092591098025207,0.0868037115805345,0.001387448308237396,0.28116837448749454,0.04998064804353449,0.0016864936230012173,0.03575372500881301,0.2259050536855951,0.13667118242500226,0.017866340207903175,0.17582422853601531,-0.13655474974805568,0.020803112778363886,-0.13993834966097332,0.1263717190767443,0.018200484661923366,-0.0152050661705799,-0.10987789029472979,0.021371327456086428,0.28863420277656493,-0.027568374569491072,0.6882064576240107,1.3776977396449004,-0.6047774543982094,0.23577082684514933,0.02314040925868127,0.027568374569491072,0.6882064576240107,1.3776977396449004,0.6047774543982094,0.011701706785052862,0.062410490613225206,10.0,3,0.3,0,11,0.04657549672033995,145.79812203627583,0.08323647254504433,29.604655834067056,1.0647701338708,10.0,0,0,0,0
0.41000000000000003,0.0,0,0,0,1,0,0,0,1,0.31956572827155894,0.0,0.2535553549363405,0.7791116236312734,0.0,0.6082821306138325,0.08975686207937664,0.0008929508554924043,0.2871284097408462,0.05754215227996221,-0.005491867385868154,0.037463310951479006,0.2320383322098898,0.1412299523447762,0.027258827630449595,0.19324542545964202,-0.13211278028063442,0.02504546131502325,-0.1378078992988398,0.12991344287675655,0.02398150719685857,-0.012261592632218127,-0.10655592830432489,0.018472529910178614,0.297931688571889,-0.029987659950313317,0.5321631190531281,0.18822612259075377,-0.7567810933505991,0.17887640538505,0.021634039699669927,0.029987659950313317,0.5321631190531281,0.18822612259075377,0.7567810933505991,0.07467894955129051,0.12630064920127376,30.0,3,0.3,0,11,0.09610331152790505,78.95816274486482,0.1000814032446685,40.045632391062085,1.8515316237579675,30.0,0.0,0.0,0.0,0.21000000000000005
0.42,0.0,0,0,0,1,0,0,0,1,0.32735369052314756,0.0,0.2596281663112222,0.778796225158862,0.0,0.6072811374881693,0.0928042409219597,0.0004573072929231173,0.29197613461098254,0.058941020783903134,-0.013693340386832453,0.039044830868862894,0.239614697797474,0.14640277731207368,0.03811012714428752,0.20943492841857042,-0.12823966953970942,0.03080913832286533,-0.1333217365604418,0.13381562716064055,0.033272450778928736,-0.011864472728196601,-0.1065644551523113,0.018486535527662454,0.3151040065181068,-0.02200453953861199,0.4392336903065488,0.2950972751427952,-0.8197122196144422,0.22218140002702635,0.012249684005040729,0.02200453953861199,0.4392336903065488,0.2950972751427952,0.8197122196144422,0.037446766284195854,0.07170098982784857,0.0,3,0.3,0,11,0.08880751306370686,58.393030428888174,0.05057567705193344,17.16371867521071,1.0627901731149874,0.0,0,0,0,0
0.43,0.0,0,0,0,1,0,0,0,1,0.33513842192596877,0.0,0.2656907280106526,0.778473140282121,0.0,0.6062561699430369,0.0959488730348606,0.000146499654425178,0.29602781067607226,0.061490535701601304,-0.021590120928031142,0.040735420579839234,0.2470796920433611,0.15023181535759292,0.04898112778848543,0.22427513517496162,-0.12567080397758987,0.03839025612352043,-0.12821103766907763,0.13656383456424687,0.04382949305084269,-0.01151379723725518,-0.10657320591826384,0.018499736423169266,0.3260619239511047,-0.01810605854931762,0.3613856868073995,0.15585511338039992,-0.743521403263213,0.22031542052350114,0.00907649797486404,0.01810605854931762,0.3613856868073995,0.15585511338039992,0.743521403263213,0.045375307487151434,0.0725578640113331,0.0,3,0.3,0,11,0.0770222341331426,41.57108241853956,0.0380573967205471,24.245283217362648,0.925451601744673,0.0,0,0,0,0
0.44,0.0,0,0,0,1,0,0,0,1,0.3429198456478665,0.0,0.2717428006950765,0.7781423721897718,0.0,0.6052072684423926,0.09917441773027971,-8.522969772628152e-05,0.2993126437568133,0.06282554088682583,-0.028620214444028624,0.04260399994419934,0.25500699123340353,0.15236017356399734,0.06077895679111439,0.2384944497866714,-0.12370152467729018,0.047791356268426816,-0.1224579901347359,0.13796602704703648,0.05449238525563252,-0.011197163349398132,-0.10658493636292268,0.01851277220302666,0.3314432206099572,-0.015661568106631947,0.2873302125467681,0.049056168233532725,-0.618136698957363,0.227883291576564,0.011476625037909305,0.015661568106631947,0.2873302125467681,0.049056168233532725,0.618136698957363,0.043859509118512496,0.07099770226305374,0.0,3,0.3,0,11,0.06460097287517653,37.75924793069087,0.03621057489181249,15.411313691148802,0.7539241692141554,0.0,0,0,0,0
0.45,0.0,0,0,0,1,0,0,0,1,0.3506978848893299,0.0,0.2777841454390272,0.7778039241463419,0.0,0.6041344743950683,0.10244441501209663,-0.0002431927124106688,0.3019409201860885,0.06313301533588779,-0.034379032218970984,0.04443523655650379,0.26250438435418366,0.1534408599104684,0.07194255417045273,0.2524468268028752,-0.12239477913847394,0.05783245879340823,-0.11722585932120524,0.13836605541091002,0.0637668993639949,-0.01090693394576367,-0.10659613898471147,0.018525622681457743,0.33709068541682624,-0.011831066528260001,0.21731281532071936,0.04717422915276097,-0.5045498652687969,0.22065678857944468,0.013607199472503662,0.011831066528260001,0.21731281532071936,0.04717422915276097,0.5045498652687969,0.05712735685958251,0.08256562286034616,0.0,3,0.3,0,11,0.08378161951108214,33.89340848951581,0.03129655982683728,23.91347264378782,0.6330002373427914,0.0,0,0,0,0
0.46,0.0,0,0,0,1,0,0,0,1,0.35847246288425194,0.0,0.28381452374055854,0.7774577994922038,0.0,0.6030378301531358,0.10577452548215574,-0.00031939312296874105,0.30389615861106345,0.06285645678369699,-0.038979724353968015,0.046352715500102094,0.26989354612184413,0.15469904414074362,0.08182164400590144,0.2651360029123657,-0.12212349004982943,0.06760770523646287,-0.11150681879521387,0.13764539633008985,0.07234108623452776,-0.010642968715292744,-0.10660899740699141,0.01853857543510784,0.341498490730695,-0.011091851408334814,0.15222302728713233,-0.10694442968636471,-0.40307202891577726,0.22086064038604472,0.01697397215355695,0.011091851408334814,0.15222302728713233,0.10694442968636471,0.40307202891577726,0.06295388335451382,0.09101970691640558,0.0,3,0.3,0,11,0.08781095264200875,32.16540633227341,0.03099336213373785,15.676540006469285,0.5328566598501887,0.0,0,0,0,0
0.47000000000000003,0.0,0,0,0,1,0,0,0,1,0.3662435029006865,0.0,0.28983369753066096,0.7771040016434583,0.0,0.6019173790102417,0.1091810954084836,-0.00033645728107272,0.3052246632395748,0.061866330280016944,-0.04300983643286127,0.04849816334254979,0.27651449719680093,0.1564144887210388,0.08892827761305194,0.27649521764693197,-0.12208675784677768,0.07623412284668299,-0.10397336601304738,0.13628404651571985,0.08027797988855839,-0.010410941083997927,-0.10662706812044975,0.018552192294063283,0.3498291237395161,-0.00856788972800465,0.08554472104124856,-0.03688353556719768,-0.37992094879962607,0.249977874309071,0.016414379161170445,0.00856788972800465,0.08554472104124856,0.03688353556719768,0.37992094879962607,0.03985582322158995,0.06483809211076505,0.0,3,0.3,0,11,0.07263059542326104,40.86195961957371,0.034029124121436286,23.521580859428706,0.33712281677496225,0.0,0,0,0,0
0.48,0.0,0,0,0,1,0,0,0,1,0.3740109282416059,0.0,0.29584142918265965,0.7767425340919398,0.0,0.6007731651998693,0.11268161968397697,-0.0002683394873152929,0.305904007996159,0.06051674557330937,-0.04671049079729306,0.05081217887883959,0.2822656184097163,0.15791106035681537,0.0940759242885222,0.28755604510199373,-0.12216386554590317,0.08427395750423124,-0.09538447553061033,0.13503179572499532,0.08778725621860883,-0.010209943896282853,-0.10664868086859408,0.018566836854984642,0.3560271461690099,-0.005863754877253727,0.021226074480822133,-0.13884049897377104,-0.3387196633638696,0.2624804105060401,0.017983782072596044,0.005863754877253727,0.021226074480822133,0.13884049897377104,0.3387196633638696,0.03336101867661956,0.05720855562646933,0.0,3,0.3,0,11,0.06350492193902915,37.27761239149062,0.03122685203720176,16.510190460880057,0.17291250539868308,0.0,0,0,0,0
0.49,0.0,0,0,0,1,0,0,0,1,0.3817746622456579,0.0,0.3018374815215959,0.7763734004052003,0.0,0.5996052338936242,0.11628583676158157,-0.0001146778659975387,0.30597657462849837,0.05924042023604403,-0.05014992386146089,0.05334457749047369,0.28791099574907664,0.15959609953433898,0.09771506969367576,0.2975685174908633,-0.12176959964697671,0.09061863123173132,-0.08557454474655196,0.13373452435029012,0.0939304034145837,-0.010038251165906897,-0.10667483072335901,0.01858301743622927,0.3650051583456734,-0.0022499300274824796,-0.04315085505725135,-0.0731074749922938,-0.3089937408725766,0.2772854570727574,0.01676950389998455,0.0022499300274824796,0.04315085505725135,0.0731074749922938,0.3089937408725766,0.024552024448838472,0.0435714583763055,0.0,3,0.3,0,11,0.04567262914044662,38.4105070042281,0.03807817548690655,24.40711276875646,0.055159813247126044,0.0,0,0,0,0
0.5,0.0,0,0,0,1,0,0,0,1,0.3895346282879222,0.0,0.3078216178335902,0.7759966042264255,0.0,0.5984136311994293,0.11999867295336103,0.00012302982730823408,0.30540516491911146,0.05795925474902871,-0.05316921558083387,0.055993157405796336,0.293633492364222,0.16215703187867156,0.09976584440150736,0.30697524726759895,-0.12109864695920522,0.09562588777973031,-0.07508893192184166,0.13257095663438975,0.09841284562103753,-0.009893188309807538,-0.10670531875747703,0.018601003821184126,0.37240828143936106,0.0003233941947288913,-0.1048147529959016,-0.10036061379115599,-0.27865098546914135,0.29160467660966716,0.017126346848561125,0.0003233941947288913,0.1048147529959016,0.10036061379115599,0.27865098546914135,0.01621694122392303,0.03366668226721305,0.0,3,0.3,0,11,0.040321368113047165,40.02380146256699,0.03706352507817512,17.00384416705851,0.1361197474572946,0.0,0,0,0,0
0.51,0.0,0,0,0,1,0,0,0,1,0.3972907497806668,0.0,0.3137936018751874,0.7756121492744628,0.0,0.5971984041597211,0.1238343127274067,0.00044334577613312846,0.3042858030418602,0.05755597785031636,-0.05635747717792383,0.05884369529543755,0.29941702974007894,0.1648885814448452,0.09922051909184268,0.3157730033320159,-0.11963422286377502,0.09793813438547797,-0.06446989871311393,0.13174951843874905,0.0996895153865388,-0.009776185046022207,-0.1067425256556725,0.018621704357210597,0.38421443104577846,0.004005323219699552,-0.16148162955654347,0.053497979559668285,-0.3441841274217107,0.3152193325299823,0.013076318734888348,0.004005323219699552,0.16148162955654347,0.053497979559668285,0.3441841274217107,0.001425730654794899,0.0185073726093828,0.0,3,0.3,0,11,0.024728117718802997,45.35223345666477,0.04178659475850889,25.335692934895764,0.3013636800169448,0.0,0,0,0,0
0.52,0.0,0,0,0,1,0,0,0,1,0.4050429501741038,0.0,0.31975319788268336,0.7752200393436992,0.0,0.595959600749596,0.12778313962085966,0.0008380158562498909,0.3026656200680202,0.05866696883191376,-0.06009034102502131,0.06177344860434638,0.30456857556658845,0.1682184591859546,0.09391036281692701,0.3240737139238471,-0.11754529723589785,0.09590823130392788,-0.05419284092500115,0.1312760824541548,0.09644003054009812,-0.009682690824330459,-0.10678571941949278,0.01864519411384931,0.38763862841310454,0.005295885974582389,-0.205763025313623,0.17479979110319854,-0.36082411497646594,0.3128612429695466,0.017404321760999264,0.005295885974582389,0.205763025313623,0.17479979110319854,0.36082411497646594,0.006891954913136766,0.029592162648718418,0.0,3,0.3,0,11,0.02409763356921185,36.474381286732395,0.0401802381866397,15.273696474337367,0.5095431576464455,0.0,0,0,0,0
0.53,0.0,0,0,0,1,0,0,0,1,0.4127911529571451,0.0,0.325700170581432,0.774820278304128,0.0,0.5946972698748665,0.13178508182631715,0.0012845292378648198,0.3006142704936501,0.059813997234821094,-0.06400965135650316,0.064793840632799,0.30966725070510837,0.17092261019272548,0.08467441472634174,0.33264715333895345,-0.11481454157458706,0.08946084555821199,-0.04460315735385342,0.13175120316965228,0.08798493573835255,-0.009603051185769068,-0.10683575948350868,0.018670800778787577,0.38784511927838494,0.00684869492221604,-0.2574393749365967,0.1384479869052283,-0.3523792723324816,0.3407294182118004,0.024946033678760138,0.00684869492221604,0.2574393749365967,0.1384479869052283,0.3523792723324816,0.015029247630368392,0.04682397623134457,0.0,3,0.3,0,11,0.03384366525662125,39.7716971746198,0.0391381800828089,23.03040044772344,0.7106952657904184,0.0,0,0,0,0
0.54,0.0,0,0,0,1,0,0,0,1,0.4205352816581571,0.0,0.3316342851951342,0.7744128701012043,0.0,0.593411461370219,0.13577210807314916,0.0018072148413394618,0.2980332395491553,0.060427394991024584,-0.06704834428616491,0.06807213861743028,0.3163668317591224,0.17234464581906536,0.07461386974764042,0.3416687599451263,-0.11188216630825175,0.07932351271169832,-0.03454661892735775,0.13250518434577535,0.07717590269521427,-0.009530441638067155,-0.10688966498341768,0.018697262499963632,0.38010042613470724,0.00986553605870405,-0.31449251555224217,-0.01615227573862197,-0.2199841824146492,0.3429776569428594,0.040434855523449886,0.00986553605870405,0.31449251555224217,0.01615227573862197,0.2199841824146492,0.011343371747725206,0.06164376332987914,0.0,3,0.3,0,11,0.05935753908507446,25.88699855506306,0.030854261003195577,15.179874789937037,0.7892912554983633,0.0,0,0,0,0
0.55,0.0,0,0,0,1,0,0,0,1,0.42827525984571624,0.0,0.3375553074551057,0.7739978187559116,0.0,0.5921022259971487,0.13973988536850387,0.002416718395207973,0.2948541416999729,0.059090035537871954,-0.06842690776991334,0.07130172824354115,0.32408186735923084,0.17255633220163424,0.06483404835551589,0.350642707876838,-0.1084357482615101,0.06819262844844104,-0.023681580331107926,0.13283131308666174,0.06578960954667949,-0.009458290275430298,-0.10694106500065086,0.01872369493471497,0.3760090279229932,0.01593774529905951,-0.3769249803689323,-0.1545565440805187,0.014596902904624716,0.32375151842370903,0.05226623192272306,0.01593774529905951,0.3769249803689323,0.1545565440805187,0.014596902904624716,0.013803789031396674,0.08200776625317924,0.0,3,0.3,0,11,0.06983016981454367,12.674109414828195,0.027506457917182307,28.03866330527786,0.7569134235698476,0.0,0,0,0,0
0.56,0.0,0,0,0,1,0,0,0,1,0.4360110111293624,0.0,0.34346300360952614,0.7735751283646175,0.0,0.5907696154420439,0.1437314801540808,0.0031502847558716987,0.2910422161461489,0.057552720195543465,-0.06690653550360781,0.07473634800715301,0.33320043342222094,0.17195278859320956,0.05608322958010539,0.35759799453418484,-0.10677089435332074,0.05783621665692544,-0.013036802936159914,0.132549233436028,0.05303297663482033,-0.009375215165123352,-0.10698864148274237,0.01874978791848521,0.37836572468500745,0.02498262619470988,-0.4412280645245152,-0.12132140903334561,0.3309514095173168,0.3342123584504858,0.05764528644435496,0.02498262619470988,0.4412280645245152,0.12132140903334561,0.3309514095173168,0.009250645159040338,0.09187855779810518,0.0,3,0.3,0,11,0.08394759609937522,16.01333390767071,0.039793741893167235,23.033797998692986,0.7749812377144623,0.0,0,0,0,0
0.5700000000000001,0.0,0,0,0,1,0,0,0,1,0.44374245916035343,0.0,0.3493571404326669,0.7731448030991017,0.0,0.5894136823140772,0.14778255520957256,0.004034001001476793,0.2866927707213109,0.05568963062760278,-0.06211601003051692,0.0780077207817676,0.3429171758627244,0.17188850819175866,0.046444061087188265,0.3623863073449168,-0.10785743776103748,0.047303120245266256,-0.0052847169412588435,0.13052746251936817,0.0372466608563648,-0.009269425865930464,-0.10701984278320734,0.018774676621233152,0.3855189865952823,0.03711217277894867,-0.4861293371225102,-0.16541743387120791,0.6598559503626764,0.2806182816986828,0.058223472565071155,0.03711217277894867,0.4861293371225102,0.16541743387120791,0.6598559503626764,0.06873885873398411,0.16407450407800395,0.0,3,0.3,0,11,0.14400176724021685,32.164583038028766,0.04588903936299538,40.72823097657473,0.9206893372677651,0.0,0,0,0,0
0.58,0.0,0,0,0,1,0,0,0,1,0.45146952763241865,0.0,0.3552374852340987,0.7727068472065224,0.0,0.5880344801431792,0.15198584736268642,0.005089558665998194,0.2817707009521381,0.052533920172038055,-0.05498584740959411,0.08107646519022872,0.35259106937205387,0.17136897837756243,0.03633323916081835,0.3631994384017486,-0.11159346143689283,0.03786159991183606,-0.001136015227120507,0.12675328778230455,0.022289083896552778,-0.009145761584956058,-0.1070372881071877,0.018800733321087754,0.41508218761100235,0.04970009965920619,-0.5549147253272027,-0.5625862375540278,0.7414502350489445,0.23892597727817974,0.0363873400214163,0.04970009965920619,0.5549147253272027,0.5625862375540278,0.7414502350489445,0.11631150795591896,0.20239894763654145,0.0,3,0.3,0,11,0.18238333463954193,27.100115796070202,0.05237933220630475,26.6744035948567,0.8742584599368564,0.0,0,0,0,0
0.59,0.0,0,0,0,1,0,0,1,1,0.4591921402825117,0.0,0.3611038058678774,0.7722612650093053,0.0,0.5866320633778677,0.15650649112456927,0.0062861616351585475,0.2762139514399312,0.04321962974791887,-0.04685131541638432,0.08389651964025102,0.357549149227875,0.16990675935060132,0.02651218478913378,0.35737158682973325,-0.11651366781324622,0.029109900782959608,-0.0006311012817609984,0.1256123684441389,0.0180781574382526,-0.008976794564436952,-0.10704330867122404,0.018829090290077163,0.4426212532637183,0.05188678218001883,-0.5815701192449303,-1.2546500986339788,1.1433101884962282,0.2812045158562906,0.01657088701879339,0.05188678218001883,0.5815701192449303,1.2546500986339788,1.1433101884962282,0.0798992900115868,0.14835695921039901,10.0,3,0.3,0,11,0.18848327324286998,65.33034470950366,0.07912624128663308,110.58201092981699,0.7317479162312361,10.0,0.0,0.0,0.19000000000000003,0.0
0.6,0.0,1,1,1,0,0,0,1,1,0.46691022089156364,0.0,0.3669558707417092,0.7718080609051936,0.0,0.585206487383183,0.16115967560944572,0.007234006151272405,0.2707338428912926,0.029073523909704815,-0.03306795242354177,0.0878620143110236,0.3550701751524692,0.1688855610281611,0.018670886215496632,0.34733883576347446,-0.11754294638719946,0.017851400153344105,-0.0005743193393211166,0.12560679292208904,0.018108821448393958,-0.012249170918841729,-0.11172957427057761,0.01901706663058167,0.4541813527183473,0.01700630449782024,-0.5688572763552039,-1.1972092975348343,1.5327970006158258,0.3989082693868618,0.012728868173216334,0.01700630449782024,0.5688572763552039,1.1972092975348343,1.5327970006158258,0.03195239864515259,0.06168757131618917,35.0,3,0.3,0,11,0.07202289841684903,179.85769239443007,0.1617716326290693,67.0164686641032,1.0564331639282578,35.0,0,0,0,0
0.61,0.0,1,1,1,0,1,1,1,0,0.4746236932852346,0.0,0.3727934488260932,0.7713472393670984,0.0,0.583757808438401,0.16600764885844416,0.007862531168216046,0.2653043415062311,0.022929093572046103,-0.01927749744672358,0.09164825239871276,0.35412874651908793,0.16882333746958628,0.018740442610427177,0.3473775504871852,-0.11745391747653926,0.017907947974865196,-0.000454331443334538,0.1255829429702779,0.018137383410849334,-0.02043340797988019,-0.12291409823073382,0.020034587595949976,0.48300926395960136,0.0006752909730859367,-0.520854178127863,-0.31378652624145986,1.2893817215821244,0.3335908881107131,0.008385570674366738,0.0006752909730859367,0.520854178127863,0.31378652624145986,1.2893817215821244,0.03920256071538014,0.04826342236283282,10.0,3,0.3,0,11,0.047553661242779814,176.4917093424123,0.1361103171180475,165.42671013145304,0.4113362887058254,10.0,0.20000000000000004,0.21000000000000005,0.0,0.0
0.62,0.0,1,1,1,0,1,1,1,0,0.4823324813346662,0.0,0.3786163096634422,0.7708788049431592,0.0,0.5822860837348953,0.17085317380872433,0.008397273509602782,0.26052454677182735,0.01929976096732973,-0.006980355061219967,0.09594706428186305,0.35177712526139876,0.16848272620388888,0.018813083093678157,0.3475110345225785,-0.11736048171173527,0.017954309715843247,-0.00029647069937344117,0.12554154057011774,0.018163043339769536,-0.027537704438990396,-0.13096315879744191,0.025110051311095755,0.4808940256377648,-0.010774423619641444,-0.45633777157153604,-0.4387121234868025,1.14087814012081,0.42872672692397207,0.0014384556969014306,0.010774423619641444,0.45633777157153604,0.4387121234868025,1.14087814012081,0.050110417260529894,0.062323296577072765,10.0,3,0.3,0,11,0.04710843158137799,86.80768319500233,0.10792795171794192,84.34496209674923,0.11796365111998064,10.0,0,0,0,0
0.63,0.0,1,1,1,0,1,1,1,0,0.4900365089572325,0.0,0.38442422337718063,0.7704027622566278,0.0,0.5807913713738455,0.17568093378520833,0.008825122278306188,0.2562050514437851,0.016075198246915192,0.0031460912763290327,0.1001355758292391,0.3492089425062733,0.16779801691598545,0.018879909644799076,0.3477062963645565,-0.11727400136598029,0.017994504586839988,-0.00011771385361797337,0.12549590974632735,0.018187918029934094,-0.030469957519210278,-0.13726849954377307,0.03454219765570843,0.4875530414346196,-0.00928986626596072,-0.40593113589142155,-0.2163383149593275,0.9071364491226878,0.3994983440604703,0.0024834675226129144,0.00928986626596072,0.40593113589142155,0.2163383149593275,0.9071364491226878,0.015074120683289671,0.026847454471863305,0.0,3,0.3,0,11,0.030540799946517205,92.56875848817641,0.11930875116827862,107.56066641288999,0.07912543208009426,0.0,0,0,0,0
0.64,0.0,1,1,1,0,1,1,1,0,0.4977357001172911,0.0,0.3902169606808198,0.7699191160058627,0.0,0.5792737303639162,0.18052625330333952,0.00928255507574939,0.25235025345749795,0.014255618944730862,0.011508701765007068,0.10458521834767989,0.3467219785531114,0.1668067846022278,0.018942233210443582,0.3479621588843171,-0.11717966636765202,0.018031010998608293,8.48664301215385e-05,0.12544611210082826,0.01821164182119736,-0.026838924429791633,-0.14005245185097556,0.04658043326755787,0.4910766291131927,-0.011680019886141367,-0.363662090041414,-0.1427125410561617,0.7775774889076749,0.4200465081950947,0.006659071004098405,0.011680019886141367,0.363662090041414,0.1427125410561617,0.7775774889076749,0.029829547514274912,0.048168638404514685,0.0,3,0.3,0,11,0.06122946708333018,92.6428350031816,0.10537721064739702,67.28485806382471,0.18262810082337433,0.0,0,0,0,0
0.65,0.0,1,1,1,0,1,1,1,0,0.5054299788269336,0.0,0.39599429288700977,0.769427870964251,0.0,0.5777332206189978,0.1854181374522292,0.009746988954920034,0.2488283517806215,0.01360443700706452,0.01839298425029634,0.10860379132275225,0.34437266570884356,0.16578993254743943,0.01899959265096636,0.34826288102132985,-0.11708749247269767,0.01806512656354317,0.00031394252167657455,0.12540304867301008,0.018235209718918885,-0.017328376486805436,-0.14152218124201887,0.059676779708416894,0.5031618849279691,-0.009601229069736471,-0.32223805203191325,-0.007342641460330858,0.62213505424692,0.3965778272902796,0.0022680938989645405,0.009601229069736471,0.32223805203191325,0.007342641460330858,0.62213505424692,0.0005835344032698586,0.01245285737197087,0.0,3,0.3,0,11,0.021839984670141123,89.18447503788431,0.11059402649811642,95.8263081116879,0.2303099036293248,0.0,0,0,0,0
0.66,0.0,1,1,1,0,1,1,1,0,0.5131192691467354,0.0,0.4017559919165674,0.7689290319801811,0.0,0.5761699029557643,0.19041512445822462,0.01024637039406318,0.24571653871023139,0.013950066496200604,0.023872699195630842,0.11278028116727899,0.34318186760152314,0.16523833464567272,0.019041318481139255,0.34861921176460997,-0.11698906545070542,0.0180981844776337,0.0005713169130015794,0.1253583824755961,0.01825847419338683,-0.005409032132031255,-0.14143921314535463,0.07171523803190132,0.5155500715935966,-0.009403279404678146,-0.2802865545753101,0.10490644877633568,0.4534041267040892,0.41295359672860094,0.0024308024468611134,0.009403279404678146,0.2802865545753101,0.10490644877633568,0.4534041267040892,0.011197604812033524,0.023031686663572783,0.0,3,0.3,0,11,0.023308264681525588,74.33076313826268,0.09466487245841296,65.58207650888403,0.20057455815832848,0.0,0,0,0,0
0.67,0.0,1,1,1,0,1,1,1,0,0.5208034951865055,0.0,0.4075018303074806,0.7684226039770037,0.0,0.5745838390913194,0.19556290481630337,0.010781240390965102,0.24301309643644434,0.015229450782040539,0.027381270562050863,0.11699476042802,0.3427494287492414,0.16500383373235641,0.01907261619674608,0.3490313352631714,-0.11688677440873904,0.018131066509028987,0.0008578170318267186,0.12531426462902368,0.018281999828292053,0.007668201953702991,-0.1410940093678166,0.08203797002055352,0.5324718588606722,-0.00931173669923542,-0.23108165469503794,0.21898883442373623,0.27770879333019816,0.4283349248600693,0.011668363674166682,0.00931173669923542,0.23108165469503794,0.21898883442373623,0.27770879333019816,0.020833094552588693,0.041813194925990796,0.0,3,0.3,0,11,0.030376553076404734,89.06442132681325,0.1004572801507222,104.36651179249841,0.21561729504326577,0.0,0,0,0,0
0.68,0.0,1,1,1,0,1,1,1,0,0.5284825811060347,0.0,0.4132315812238882,0.767908591952926,0.0,0.5729750916407594,0.2008550981226944,0.011360667647585641,0.24084894479555896,0.017604830093670698,0.029469066647397346,0.12129429502702917,0.34293946492564603,0.1650495933129474,0.019097213522109774,0.34949247531902816,-0.11678042698340259,0.018164323886307843,0.0011819057134826727,0.12527377568411335,0.01830536027075276,0.021972794590543604,-0.14065824822449435,0.09081413462636713,0.5438193255204342,-0.0065584440018468994,-0.1695354140217148,0.18212297935422056,0.14786924486963524,0.43034129604881016,0.015336744414399472,0.0065584440018468994,0.1695354140217148,0.18212297935422056,0.14786924486963524,0.017109714824921962,0.039004903241168336,0.0,3,0.3,0,11,0.037997289687052925,110.07062650141799,0.1050746336709664,75.8398847623815,0.1986552051911561,0.0,0,0,0,0
