time,trans_flag,des_cont_state_fl,des_cont_state_fr,des_cont_state_rl,des_cont_state_rr,cont_state_fl,cont_state_fr,cont_state_rl,cont_state_rr,vel_cmd_x,vel_cmd_y,vel_cmd_yaw,acc_cmd_x,acc_cmd_y,acc_cmd_yaw,base_pos_x,base_pos_y,base_pos_z,base_ang_roll,base_ang_pitch,base_ang_yaw,FL_foot_pos_x,FL_foot_pos_y,FL_foot_pos_z,FR_foot_pos_x,FR_foot_pos_y,FR_foot_pos_z,RL_foot_pos_x,RL_foot_pos_y,RL_foot_pos_z,RR_foot_pos_x,RR_foot_pos_y,RR_foot_pos_z,base_vel_x,base_vel_y,base_vel_z,base_vel_roll,base_vel_pitch,base_vel_yaw,x_vel_err,y_vel_err,z_vel_err,roll_vel_err,pitch_vel_err,yaw_vel_err,cmd_err,cont_err,terr_freq,terr_height,failed,gait_id,base,CoT,musculoskeletal,foot_force,MWE,stability,FL_stride_t,FR_stride_t,RL_stride_t,RR_stride_t
0.01,0.0,0,0,0,1,0,0,1,1,0.006283178692509316,0.0,0.005026527078818862,0.6283178692509316,0.0,0.5026527078818862,0.00014997473022287702,-1.7022488438501404e-05,0.309907812957354,0.0009548256482579161,0.00042783569573545677,0.00010848949006237474,0.18223739050532686,0.1321854334229176,0.017332544337931244,0.18021651365175445,-0.13022381135980285,0.019953159804703247,-0.1829807850321784,0.13204614554653282,0.017331698267397777,-0.1829926777964955,-0.13205383007526156,0.017331719110307398,0.04010711035881012,-0.005369824928090095,-0.009253775003949746,0.4237460699420246,0.026705513349726984,0.023884405006030524,0.03382393166630081,0.005369824928090095,0.009253775003949746,0.4237460699420246,0.026705513349726984,0.018857877927211664,0.058051634521602564,25.0,3,0.3,0,11,0.028829844465865312,97.96894434580395,0.07867600116077718,106.99226668875335,0.0904584485480971,25.0,0,0,0,0
0.02,0.0,0,0,0,1,1,0,1,1,0.014137091596022201,0.0,0.011309492449657768,0.7853912903512885,0.0,0.6282965370838907,0.0008841764902085148,-0.00019839962480683337,0.3104658639071713,0.007823472902429357,-0.002650673729652331,0.00039592419941102553,0.18243749586352465,0.13217264463182288,0.017344628583951388,0.1771466251647841,-0.12782196604789864,0.026053693930564226,-0.1841141150370929,0.13225825872207267,0.017582475838295697,-0.18296410143916234,-0.1320700136499473,0.01734037403714747,0.11056385952909438,-0.029183595063967588,0.1440073975001742,0.855715456961611,-0.7904414493142068,0.02897982158926163,0.09642676793307217,0.029183595063967588,0.1440073975001742,0.855715456961611,0.7904414493142068,0.01767032913960386,0.14328069213664363,50.0,3,0.3,0,11,0.11193559838188567,567.1763407799853,0.2267029645251057,333.2313735727739,0.23482823256301472,50.0,0.01,0.0,0.0,0.0
0.03,0.0,0,0,0,1,1,0,0,1,0.02199086497214841,0.0,0.01759201134109972,0.7853773376126207,0.0,0.628251889144195,0.0020997826838064205,-0.00047021509458126216,0.31235824844607046,0.017460733628316117,-0.01546108541757163,-1.0868761082061346e-05,0.18285865407033486,0.13214749994421643,0.017373623153280726,0.18118899939447766,-0.12662229449095241,0.033957631771594,-0.18823214460256557,0.13512777977633125,0.028222045040802418,-0.18295707512218082,-0.13207342799757862,0.017350393722654733,0.12303756487297772,-0.01923086532866836,0.19432695064753225,1.2770976141438861,-1.4937744229532317,-0.037724460296211126,0.10104669990082932,0.01923086532866836,0.19432695064753225,1.2770976141438861,1.4937744229532317,0.05531647163731085,0.17559403686680852,45.0,3,0.3,0,11,0.1757019457802222,434.3853523597002,0.18147562674259926,237.47184995277934,0.5204489250908811,45.0,0,0,0,0
0.04,0.0,0,0,0,1,1,0,0,1,0.02984442130731541,0.0,0.023873835730056265,0.7853556335166999,0.0,0.6281824388956546,0.0032381468520872596,-0.0006622064317702091,0.31406560120613497,0.030453690353216874,-0.028273792047035284,-0.00038273095745958776,0.18590006432663517,0.1319963986041959,0.02425692116285158,0.18876702969516876,-0.12552711843459735,0.04340780608954031,-0.18771642862378024,0.13956455183877015,0.039307570370596484,-0.1829556473265312,-0.13207236524812274,0.017360695207210314,0.12237646040758206,-0.01148553796286996,0.11436650977437418,0.8521214003784192,-0.9774015180514884,-0.020050918487052614,0.09253203910026665,0.01148553796286996,0.11436650977437418,0.8521214003784192,0.9774015180514884,0.04392475421710888,0.14794233128024548,25.0,3,0.3,0,11,0.13126718753093286,70.61167282459222,0.06560533088163317,47.047146671443784,0.7102401852200336,25.0,0,0,0,0
0.05,0.0,0,0,0,1,0,0,0,1,0.03769768309009279,0.0,0.030154717620856746,0.7853261782777381,0.0,0.628088189080048,0.0045187113952620565,-0.0007579895025728998,0.31453498912804195,0.03485618282656995,-0.035716157411038285,-0.0009420546950054181,0.19461336755644584,0.13305845084553183,0.04854640853761172,0.1952831923197838,-0.12592986460232353,0.05986225507485525,-0.1847093621637559,0.1406045100197074,0.05333649583101896,-0.18294566691924524,-0.13206920205455067,0.017370742971135,0.13146819461123146,-0.005810904885518673,-0.018324615441999027,0.19915523922642167,-0.5899129197108975,-0.01789882229175035,0.09377051152113867,0.005810904885518673,0.018324615441999027,0.19915523922642167,0.5899129197108975,0.04805353991260709,0.14763495631926443,0.0,3,0.3,0,11,0.16206548852947913,135.05857431475653,0.06482709809412189,30.916397297135745,0.5758959405942096,0.0,0,0,0,0
0.06,0.0,0,0,0,1,0,0,0,1,0.04555057281195724,0.0,0.036434409055038704,0.7852889721864452,0.0,0.6279691434181958,0.005825323653728548,-0.0007825035722836459,0.31399590154303497,0.03574718729893906,-0.04061451800708671,-0.001374030312906365,0.20246411931631028,0.13637632380062545,0.07135042572697811,0.2007520160332148,-0.12930259324739043,0.07702931877401273,-0.18085718326689382,0.1410483131680028,0.0688355056813723,-0.18295797986486786,-0.1320643835178424,0.017381433209489955,0.12583383080331825,-0.0038036156386736762,-0.08963109393968985,0.012297510973083044,-0.40431978092331083,-0.03062077719103297,0.08028325799136102,0.0038036156386736762,0.08963109393968985,0.012297510973083044,0.40431978092331083,0.06705518624607168,0.15114205987610638,0.0,3,0.3,0,11,0.15066428573556342,15.983687274621465,0.03322393695996116,31.321878963868237,0.4551159623905965,0.0,0,0,0,0
0.07,0.0,0,0,0,1,0,0,0,1,0.05340301296805755,0.0,0.04271266212113687,0.7852440156100309,0.0,0.6278253066098166,0.007144284539506538,-0.0007762336060889292,0.3129529625164253,0.035716539918760004,-0.04491579954727176,-0.00167742956675195,0.20765110496725994,0.1397974904447399,0.08570064376168876,0.20500632809995567,-0.1323050468326037,0.08968221238469833,-0.1771043825513702,0.14078248671557464,0.08073459493599891,-0.18298991546680154,-0.13205935495272034,0.01739310281628137,0.1293343138861261,-0.0006767270715002625,-0.12697424885817302,0.039083792823583124,-0.4596049779818672,-0.011760675775787613,0.07593130091806854,0.0006767270715002625,0.12697424885817302,0.039083792823583124,0.4596049779818672,0.05447333789692448,0.1310813658864933,0.0,3,0.3,0,11,0.13344195684978868,13.617552381284924,0.043671842221812286,33.529942925528175,0.6220539262791368,0.0,0,0,0,0
0.08,0.0,0,0,0,1,0,0,0,1,0.06125492605797953,0.0,0.048989228964470284,0.7851913089921981,0.0,0.6276566843333414,0.008519196995472116,-0.0007164543040581317,0.31153995785592475,0.036635527433216776,-0.04945052977212816,-0.001971474860393494,0.21036583604981543,0.14274576360561458,0.09222133553791033,0.20736281468667134,-0.13406758074237218,0.09638081169484082,-0.17344749559026051,0.140546571307301,0.08743899110602533,-0.18304170621966834,-0.13205085003039915,0.017406149167375512,0.132137913158817,0.0008329663537273782,-0.17312218485397915,0.038342969135307034,-0.4586449208273935,-0.0015022079966156635,0.07088298710083749,0.0008329663537273782,0.17312218485397915,0.038342969135307034,0.4586449208273935,0.05049143696108595,0.1222073904156508,0.0,3,0.3,0,11,0.13222643481466206,9.826673963934061,0.036329212814637295,30.92416170749384,0.16670119282324525,0.0,0,0,0,0
0.09,0.0,0,0,0,1,0,0,0,1,0.06910623458651093,0.0,0.055263861796927174,0.7851308528531393,0.0,0.627463283245689,0.009967239732901213,-0.0006207273730029725,0.30960839489557473,0.037586983496881374,-0.05426723109784559,-0.0020901008453469774,0.2110910977507345,0.14451284952913276,0.09330940966679895,0.2088903729578936,-0.13470572178887028,0.0995478834836408,-0.16983218760826455,0.14075777633181294,0.09004379868289855,-0.18311832047952836,-0.13204117208007943,0.017421432909292045,0.13668468140746964,0.004150092397761951,-0.23107177924422218,0.08851935231986467,-0.4765893550636975,0.002912445652758052,0.06757844682095872,0.004150092397761951,0.23107177924422218,0.08851935231986467,0.4765893550636975,0.05235141614416912,0.1240799553628898,0.0,3,0.3,0,11,0.11811945025370925,9.801815737453182,0.030060492413459844,28.37592836746874,0.24298949927108726,0.0,0,0,0,0
0.1,0.0,0,0,0,1,0,0,0,1,0.07695686106440629,0.0,0.06153631290674721,0.7850626477895362,0.0,0.6272451109820033,0.011501935075696,-0.00047001945542470355,0.3069952030302178,0.03796345552748369,-0.05887898781867329,-0.00214223462263405,0.21095059037777872,0.145685957373683,0.09268823374902158,0.20983041927098303,-0.1348209259851365,0.10082849200885885,-0.16546644898924256,0.14051102023087716,0.09090425132667415,-0.18321930105546835,-0.13202887124080273,0.01743935891237164,0.13943867186496198,0.006495649125812963,-0.3084106614300149,0.05891457435650976,-0.4352942981708094,0.023505580219732144,0.06248181080055569,0.006495649125812963,0.3084106614300149,0.05891457435650976,0.4352942981708094,0.03803073268701507,0.10700819261338372,0.0,3,0.3,0,11,0.11504039770127497,11.83597201701841,0.01940026217487877,24.287368435308945,0.5265146445251686,0.0,0,0,0,0
0.11,0.0,0,0,0,1,0,0,0,1,0.08480672800915168,0.0,0.06780633466830074,0.784986694474539,0.0,0.6270021761553536,0.013092675462575904,-0.000273319676578885,0.30362107496366564,0.03788831521778502,-0.06291231552883314,-0.0021501756739737967,0.2102854642485584,0.14695440517430064,0.089920822569127,0.21093040531814164,-0.13465016606789912,0.10075327390505875,-0.16051246443615633,0.14015650575018712,0.08988227721644185,-0.18334399234424104,-0.13201298834445127,0.017459932229778485,0.13570230528474234,0.00767977103837913,-0.3807001510087004,-0.012635022710953223,-0.35592194266195964,0.008847938170770293,0.05089557727559066,0.00767977103837913,0.3807001510087004,0.012635022710953223,0.35592194266195964,0.05895839649753045,0.11753374481150024,0.0,3,0.3,0,11,0.11528491152442374,7.26379048804373,0.01924880009796225,23.289176257433184,0.6908235315981319,0.0,0,0,0,0
0.12,0.0,0,0,0,1,0,0,0,1,0.09265575794572947,0.0,0.0740736795518646,0.7849029936577795,0.0,0.6267344883563855,0.014669421364512129,-4.353286186095132e-05,0.2996885080853275,0.03678553138129517,-0.06564656191940177,-0.0021175460227811603,0.21055231526453472,0.14800869687465468,0.08361008375817784,0.21173133600010613,-0.1339106495515777,0.09705802269840431,-0.15585226683152265,0.1394983077115129,0.0844186554060119,-0.18347505652999813,-0.1319951865291442,0.017481136786256846,0.129685048676921,0.010247677191075867,-0.4289657654763838,-0.13645480863617732,-0.2333848238545329,0.016578893254406164,0.037029290731191516,0.010247677191075867,0.4289657654763838,0.13645480863617732,0.2333848238545329,0.05749478629745844,0.10477175421972582,0.0,3,0.3,0,11,0.10767364140611471,8.631413114990258,0.03109678555654774,30.832111331783814,0.8374277861414807,0.0,0,0,0,0
0.13,0.0,0,0,0,1,0,0,0,1,0.10050387340738298,0.0,0.08033810013339421,0.784811546165351,0.0,0.6264420581529608,0.016282916712237427,0.0002606382122299337,0.29514056453350035,0.03585451012770367,-0.06790552204346789,-0.0019762730264506908,0.21258800552552315,0.1480779008250371,0.07602248983940776,0.21117548828281807,-0.1330554947293608,0.09066766425205211,-0.15214076075148691,0.1388986261420643,0.07616420555915601,-0.18362361796554869,-0.13197146854004566,0.017504954109472975,0.1303385015535941,0.018092290184526967,-0.5004710584237188,0.01241793736875562,-0.17976810027163168,0.026416238869246628,0.02983462814621113,0.018092290184526967,0.5004710584237188,0.01241793736875562,0.17976810027163168,0.05392186126414758,0.10184877959488567,0.0,3,0.3,0,11,0.10252697727660147,12.651094221689943,0.026421294223888316,29.576914359136005,1.044590850324948,0.0,0,0,0,0
0.14,0.0,0,0,0,1,0,1,0,1,0.10835099693638103,0.0,0.08659934910429141,0.7847123528998051,0.0,0.6261248970897206,0.017909180181379096,0.0006917186423245315,0.28996136736457556,0.035347921108689374,-0.06913849895654067,-0.0016830760571764527,0.21687384327360482,0.14677002081287926,0.0686592101210915,0.21105303017235702,-0.13299626874923617,0.09070369936800997,-0.1490445374217864,0.1375251618091847,0.06600038198721084,-0.18377905887168294,-0.13193843216783463,0.017530344451731544,0.12686106452751775,0.0342380587100537,-0.5541447834275891,-0.10977310571273848,-0.139130384519993,0.052446902123325326,0.018510067591136714,0.0342380587100537,0.5541447834275891,0.10977310571273848,0.139130384519993,0.03415244698096609,0.0869005732821565,10.0,3,0.3,0,11,0.09508355667923615,11.34270020370782,0.030730736230813092,47.10319734785169,0.9803068716535546,10.0,0.0,0.12999999999999998,0.0,0.0
0.15,0.0,0,0,0,1,0,1,0,1,0.11619705108478236,0.0,0.09285717928116781,0.7846054148401324,0.0,0.6257830176876394,0.01962917063610628,0.001315323415750471,0.28429749141450417,0.03233454594141065,-0.07138557108875165,-0.0012513779307833889,0.22118698777637605,0.1448528973236983,0.06063559205092449,0.2109451251503058,-0.13292012874510578,0.0907309947898441,-0.14793516033183038,0.13584646933285904,0.0523249612670592,-0.18393470084210792,-0.1318895739598929,0.01755814898730898,0.1354966451851025,0.052011544991940946,-0.5999231197893978,-0.5540592167907933,-0.262985198405118,0.04695548940963497,0.01929959410032013,0.052011544991940946,0.5999231197893978,0.5540592167907933,0.262985198405118,0.04590168987153284,0.11721282896379392,25.0,3,0.3,0,11,0.10443573969464914,19.7595714659579,0.040602755369648955,56.16691704895868,1.1384448033081251,25.0,0,0,0,0
0.16,0.0,0,0,0,1,0,1,0,1,0.12404195841520015,0.0,0.09911134361560314,0.7844907330417789,0.0,0.6254164334435333,0.021468499836992335,0.002141581886549218,0.27827287417647256,0.024706216553022728,-0.0742777897886624,-0.0007585577259985611,0.22405493750142094,0.1430108432695818,0.051224630893693696,0.21085301362502287,-0.1328184431022273,0.09075865387798707,-0.147949652845836,0.13273793586727578,0.034391478127933126,-0.18407072482902823,-0.13182208366472686,0.01758629478998136,0.1432550721274822,0.08068844566164868,-0.6254042071243479,-1.0020677382753083,-0.32929669899184016,0.059140892484002505,0.019213113712282057,0.08068844566164868,0.6254042071243479,1.0020677382753083,0.32929669899184016,0.03997045113160064,0.13987201050553139,25.0,3,0.3,0,11,0.12526882834043157,20.99012612380177,0.041442724785650746,60.2055766375007,1.184446462525747,25.0,0,0,0,0
0.17,0.0,0,0,0,1,0,1,0,1,0.13188564150156615,0.0,0.10536159520389834,0.7843683086366001,0.0,0.6250251588295203,0.023368355534325716,0.003294250248837377,0.2723150514816214,0.010846253697425225,-0.07792666596589459,-0.0001324486994785879,0.22581200661367645,0.14146451882815717,0.037916207613262615,0.21072983576792703,-0.13262121097791604,0.09106013756101991,-0.15014060381251626,0.12856029836256086,0.01268321078344578,-0.18416613254267547,-0.13172422781703344,0.017611945319282202,0.14743194561584907,0.13184856639484707,-0.5946511969031697,-1.7713544840330984,-0.39512519077788144,0.07790043676168455,0.015546304114282927,0.13184856639484707,0.5946511969031697,1.7713544840330984,0.39512519077788144,0.027461158442213793,0.17485602895134378,25.0,3,0.3,0,11,0.15690454971865916,58.465413319692786,0.05885079415013472,111.23000300611929,1.1677173759398753,25.0,0,0,0,0
0.18,0.0,0,0,0,1,0,1,1,1,0.1397280229298949,0.0,0.11160768729682284,0.7842381428328743,0.0,0.6246092092924496,0.025371590300974356,0.004858222441593833,0.26708034137507136,-0.0067905127519390755,-0.07950625771571951,0.00087585305254411,0.22785953380723206,0.13981602707383478,0.027328226138712622,0.21067258376224768,-0.13239067079609013,0.09131044641691227,-0.15034206033215286,0.12869295498903938,0.012731494421120398,-0.18415327891632563,-0.13160373567947176,0.01763117257630875,0.17689475816806063,0.1658160875108975,-0.4435415498085701,-1.4748122153212762,0.27823835791139334,0.1548791723357198,0.03716673523816574,0.1658160875108975,0.4435415498085701,1.4748122153212762,0.27823835791139334,0.043271485038896954,0.2462543077879602,50.0,3,0.3,0,11,0.20459633851072354,281.9652295671782,0.1446302342518595,341.00101637070577,1.2133133141534416,50.0,0.0,0.0,0.15,0.0
0.19,0.0,0,0,0,1,0,1,1,1,0.1475690252990478,0.0,0.11784937330935583,0.7841002369152916,0.0,0.6241686012532984,0.02740317128072551,0.006404742953628704,0.263621345616275,-0.025378207044845617,-0.07082271813785268,0.0030671807627076202,0.22441010623936455,0.13948990338330147,0.01882725225202997,0.2105789104384599,-0.1320948239313441,0.09179797292092658,-0.15035241099054886,0.1287944963775736,0.012762925053307353,-0.1839769665500078,-0.1315175824009518,0.01764405356266996,0.18531699890358505,0.16072714237203534,-0.28904396399372684,-1.7681485584566738,1.3007325714036717,0.26279698969202353,0.037747973604537244,0.16072714237203534,0.28904396399372684,1.7681485584566738,1.3007325714036717,0.1449476163826677,0.34342273235924026,50.0,3,0.3,0,11,0.3215287070946264,266.91462980841584,0.15221339936880995,299.7994807568986,0.16702311842222484,50.0,0,0,0,0
0.2,0.0,1,1,1,0,1,1,1,1,0.15540857122149707,0.0,0.124086406830421,0.7839545922449259,0.0,0.623703352106518,0.02947493485334617,0.007952822251596556,0.2615391492155547,-0.03930451383165451,-0.05584920043436892,0.005034796462759323,0.22401120713777115,0.13966846905535732,0.01885673727062158,0.21060376165806352,-0.13180012504182528,0.09169825603929432,-0.1502136911345099,0.12889146570291238,0.012790175591502986,-0.18425545322472378,-0.13226702025016573,0.018029707319247495,0.18837400242797578,0.1593589373921449,-0.13698028852612126,-1.1043634968985934,1.6760163345958476,0.24936464900977126,0.03296543120647871,0.1593589373921449,0.13698028852612126,1.1043634968985934,1.6760163345958476,0.12527824217935024,0.31760261077797386,60.0,3,0.3,0,11,0.3259497927265961,254.89186158968764,0.15283471559504752,339.39976797106095,0.08690140168947247,60.0,0.15,0.0,0.0,0.0
0.21,0.0,1,1,1,0,1,1,1,0,0.16324658332408937,0.0,0.1303185416326145,0.7838012102592301,0.0,0.6232134802193492,0.03161547509939884,0.009142197312109364,0.2606830253270404,-0.051364449115322154,-0.041019804449641706,0.006405801755547229,0.2184355534563042,0.14062742485934987,0.01891642450154704,0.2094305400950048,-0.12991848930311128,0.09066942290002204,-0.14999681886535493,0.1289576190394293,0.012816825934057016,-0.18385002210543083,-0.13431041403969615,0.02824260433947201,0.23555498686280965,0.09738313890797831,-0.058578426224098076,-0.6789461404268523,1.251476729124119,0.14776928190554967,0.07230840353872028,0.09738313890797831,0.058578426224098076,0.6789461404268523,1.251476729124119,0.017450740272935167,0.18714228271963376,20.0,3,0.3,0,11,0.23665831325099934,455.25671474936524,0.19378926807454783,286.05141098314766,0.25908304716928865,20.0,0,0,0,0
0.22,0.0,1,1,1,0,1,1,1,0,0.17108298424880955,0.0,0.1365455316819254,0.7836400924720183,0.0,0.6226990049310904,0.03412624813573133,0.010086736410931937,0.26038369271564976,-0.05186285405494131,-0.03012330589478318,0.006908743823690556,0.21053430786413682,0.14090309170755225,0.019013009235507056,0.20949828757774433,-0.1297219168609134,0.09061780204193484,-0.1497290943980887,0.1290161293020465,0.012843892399581988,-0.1830293182317948,-0.13622493104271882,0.042694088358328525,0.2575250700089607,0.09114972504525035,-0.005250239992535761,-0.020701173932079108,0.9762925632987126,0.10319518932583105,0.08644208576015114,0.09114972504525035,0.005250239992535761,0.020701173932079108,0.9762925632987126,0.033350342356094353,0.21094215316149584,0.0,3,0.3,0,11,0.2102306352139976,178.23529261662048,0.11487231044867081,193.17578647329944,0.10856441780574189,0.0,0,0,0,0
0.23,0.0,1,1,1,0,1,1,1,0,0.17891769665354415,0.0,0.1427671311474489,0.7834712404734601,0.0,0.6221599465523503,0.036744568359967256,0.010950573703579946,0.2606999017587872,-0.054616740581815204,-0.021033727728510865,0.007459484568968263,0.20411662223497112,0.14032573841730583,0.019087355076752965,0.20973497200607386,-0.12963136179292808,0.09064923933911909,-0.14944216019873602,0.12906634574009043,0.012871438891558576,-0.17984902469781375,-0.13624390588448249,0.056896359483163655,0.2712330704104106,0.07876759604266713,0.0589470447302444,-0.2501331027163527,0.790427276430739,0.08584796375005552,0.09231537375686646,0.07876759604266713,0.0589470447302444,0.2501331027163527,0.790427276430739,0.05691916739739339,0.22800213719692697,0.0,3,0.3,0,11,0.20940950240377942,167.35852904994633,0.10536075599410924,191.64765255601182,0.17006632397621246,0.0,0,0,0,0
0.24,0.0,1,1,1,0,1,1,1,0,0.18675064321284485,0.0,0.1489830944110912,0.7832946559300696,0.0,0.6215963263642293,0.039529497077504826,0.011804821121899825,0.26153039885486407,-0.055771954009288,-0.014299365808667641,0.007883982538798443,0.1985236452717449,0.13873895786922072,0.019154310237522038,0.2100174926641754,-0.1295448730945857,0.09069487906750784,-0.14913302142736232,0.12911588452713307,0.012899759034933095,-0.17363097453928317,-0.13602857316369704,0.07070670627166406,0.2888797320441471,0.07710734157515252,0.11066924244079532,-0.1798942258911604,0.5912906679670733,0.09104160414887527,0.10212908883130223,0.07710734157515252,0.11066924244079532,0.1798942258911604,0.5912906679670733,0.05794149026221593,0.2371779206686707,0.0,3,0.3,0,11,0.2438227616149356,164.6184121763713,0.10467622765822249,175.94963462198785,0.11860209185401305,0.0,0,0,0,0
0.25,0.0,1,1,1,0,1,1,1,0,0.19458174661869126,0.0,0.15519317607726604,0.7831103405846418,0.0,0.6210081666174844,0.042486675228909206,0.012693350556483915,0.2628713193844891,-0.05634176862929746,-0.009389313916289499,0.008512956711610259,0.19451354243575178,0.1372372373820885,0.01920345833962303,0.2103443016475103,-0.12945733139354865,0.09075296590797406,-0.14880160221794786,0.12916465114366107,0.012928987174440298,-0.16511563381226463,-0.13539072900500815,0.08269842532193225,0.3071215385022987,0.0810145124551179,0.15818019134498498,0.024844975743501526,0.3788629727770696,0.08379284028383355,0.11253979188360741,0.0810145124551179,0.15818019134498498,0.024844975743501526,0.3788629727770696,0.0714003357934325,0.2649546401321578,0.0,3,0.3,0,11,0.25068453856792894,155.39211301174515,0.097537546424894,172.06189275770487,0.15036290360934323,0.0,0,0,0,0
0.26,0.0,1,1,1,0,1,1,1,0,0.2024109295812544,0.0,0.16139713098258265,0.782918296256313,0.0,0.6203954905316611,0.04563083589470103,0.013614369548525488,0.2646744943065055,-0.05748824719299611,-0.006210290100468807,0.009281675172448411,0.19153831815691869,0.13613848190974148,0.019241725251755826,0.2107139403708565,-0.12937123271849024,0.0908246139729218,-0.1484514241997481,0.12921042463816115,0.012959144433755676,-0.15511835339810165,-0.1345053838898735,0.09288467335062887,0.32563000559252153,0.07737395467333619,0.20662419861418935,-0.2072538114575042,0.25273327084646174,0.10766518519000844,0.12321907601126714,0.07737395467333619,0.20662419861418935,0.2072538114575042,0.25273327084646174,0.05373194579257422,0.25432497647717756,0.0,3,0.3,0,11,0.259654609120724,165.6561467299135,0.09170167244441943,173.3474166600799,0.09328524401591487,0.0,0,0,0,0
0.27,0.0,1,1,1,0,1,1,1,0,0.21023811482965918,0.0,0.16759471420552421,0.7827185248404783,0.0,0.6197583222941561,0.04894098134534955,0.014564737156545623,0.26692409051031835,-0.0588826339581019,-0.0039980154756984465,0.01038248689749588,0.18931912810334123,0.13521926315754415,0.019274092829333844,0.21111533202550647,-0.1292839438688042,0.09090604314443451,-0.14807733637229598,0.1292519392673253,0.01299043576866421,-0.1438403999310981,-0.13317413083835625,0.10169804512320567,0.3392859000553473,0.0786277607992321,0.2493326037600036,-0.1738856207119228,0.2039821962267569,0.1336417105450475,0.12904778522568813,0.0786277607992321,0.2493326037600036,0.1738856207119228,0.2039821962267569,0.03395300366047671,0.24162854968539693,0.0,3,0.3,0,11,0.24583413508912866,155.285807583103,0.08511713908717222,165.7813545332335,0.09681152607582044,0.0,0,0,0,0
0.28,0.0,1,1,1,0,1,1,1,0,0.21806322511274712,0.0,0.17378568107611705,0.7825110283087938,0.0,0.619096687059284,0.052387050328629337,0.015544693677400462,0.2695394329174386,-0.06073250469893543,-0.0024285824989496163,0.011569044219864877,0.18827144989125869,0.13489576857406635,0.01929779423054176,0.2115400767515935,-0.12919894662923345,0.0909961957158539,-0.14768480299224124,0.12929336251789636,0.01302284750988797,-0.13199777453478911,-0.13170253037581467,0.10908817629929403,0.3540923795899938,0.07851086014934154,0.2799346873837945,-0.1695682149653314,0.09459418923857298,0.11531747644746398,0.13602915447724667,0.07851086014934154,0.2799346873837945,0.1695682149653314,0.09459418923857298,0.05846820462865307,0.2730082192552413,0.0,3,0.3,0,11,0.25682500052054874,142.8139739878758,0.08321568188169691,156.73578026029418,0.15620056133038895,0.0,0,0,0,0
0.29,0.0,1,1,1,0,1,1,1,0,0.2258861831998389,0.0,0.17996978718558976,0.7822958087091797,0.0,0.6184106109472703,0.05597475541194325,0.016545801355763532,0.2724421992203909,-0.06230158990406916,-0.0018887544029602132,0.012833036813610452,0.1884406020143166,0.13489868362439272,0.019314585992122324,0.21198661317098003,-0.12911532720504498,0.0910944830106577,-0.14727860663047423,0.12933175049907436,0.013056153737330212,-0.12128120345115623,-0.1297518239899857,0.11508807644529528,0.3668352950582714,0.07660569820007979,0.3075330351290783,-0.18055343381555436,0.0022173305742720015,0.15677373279762885,0.14094911185843248,0.07660569820007979,0.3075330351290783,0.18055343381555436,0.0022173305742720015,0.023196054387960907,0.24075086444647317,0.0,3,0.3,0,11,0.26052576682935036,130.21790639065838,0.07767659132489148,155.26554054093253,0.25096881106177693,0.0,0,0,0,0
0.3,0.0,1,1,1,0,1,1,1,0,0.23370691188149645,0.0,0.186146788396022,0.7820728681657535,0.0,0.6177001210432242,0.059681025483858056,0.017541588649825232,0.2755443070923736,-0.0653188947600862,-0.0024153686326000567,0.014300900513237647,0.18884777332631172,0.1349680627910072,0.019331065368760003,0.21245081844643413,-0.12903581687067936,0.09120087488126485,-0.14687083724814323,0.1293677065751481,0.01308982293410807,-0.11138827064991166,-0.12845472157046417,0.12008507720505522,0.3782665796382381,0.07307346139926853,0.3196879333644201,-0.36594442113159736,-0.14033867121596932,0.12612731089802567,0.14455966775674167,0.07307346139926853,0.3196879333644201,0.36594442113159736,0.14033867121596932,0.060019477497996326,0.2776526066540065,0.0,3,0.3,0,11,0.2610870911019706,120.40867387776476,0.07735561412667998,143.03456873485035,0.25833571236620645,0.0,0,0,0,0
0.31,0.0,1,1,1,0,1,1,1,0,0.241525333970285,0.0,0.19231644084998276,0.7818422088788551,0.0,0.6169652453960756,0.06346759039509127,0.01855099402200411,0.27879275529364994,-0.06850890392484656,-0.004003285635688414,0.015842225293657683,0.18927451469463835,0.13503787480726823,0.019349078486590537,0.2129247815441491,-0.1289569639844361,0.09131140140195051,-0.14645831636588227,0.1294020711088075,0.013123822729854878,-0.10247193558743406,-0.12780396466568225,0.12370000888695136,0.38328515692663334,0.07424912030260666,0.33899284008632974,-0.26616576957997307,-0.1772244226512467,0.15437387900329597,0.14175982295634834,0.07424912030260666,0.33899284008632974,0.26616576957997307,0.1772244226512467,0.03794256184668679,0.2539515051056418,0.0,3,0.3,0,11,0.2606111276908297,109.84095690688775,0.07089532305905609,144.86963041067207,0.3095813196990582,0.0,0,0,0,0
0.32,0.0,1,1,1,0,1,1,1,0,0.249341372301535,0.0,0.1984785009801572,0.7816038331249997,0.0,0.6162060130174452,0.06729165523860992,0.019598608009234086,0.2822298041429666,-0.0719597595412096,-0.005589854020064289,0.017417750624077445,0.1897100234814841,0.13510800817883592,0.019368091368022727,0.21340192300289132,-0.12887826572183403,0.09142344449668144,-0.14603459837656016,0.12943791780574468,0.013158695805128379,-0.0938446773355733,-0.1271219567813221,0.12451669397620672,0.38826567410410406,0.0768121712976923,0.3552231778043934,-0.24323236361081796,-0.15285456475545678,0.1499869059280645,0.13892430180256907,0.0768121712976923,0.3552231778043934,0.24323236361081796,0.15285456475545678,0.04849159505209272,0.2642280681523541,0.0,3,0.3,0,11,0.26484810875762044,105.0185091416673,0.06956482325980148,134.1263510647822,0.296058877110253,0.0,0,0,0,0
0.33,0.0,1,1,1,0,1,1,1,0,0.2571549497341036,0.0,0.2046327255189626,0.781357743256858,0.0,0.6154224538805403,0.071143011042677,0.02071076291221916,0.2858519034218373,-0.07407141044404754,-0.006863697372456734,0.019090454424468262,0.1901547562404683,0.13518043144702963,0.019388328479866768,0.21387937479863878,-0.12879781330168916,0.09153518752958781,-0.14559498584918384,0.12947510142576138,0.01319477599612176,-0.08540117813978326,-0.1265047597885278,0.12176366143871417,0.3904075731026911,0.07895117161886586,0.3749050756184229,-0.107133005505486,-0.1232177858424231,0.14917984367030718,0.1332526233685875,0.07895117161886586,0.3749050756184229,0.107133005505486,0.1232177858424231,0.05545288184865543,0.26765667683610883,0.0,3,0.3,0,11,0.2580810133974919,107.03820906954961,0.07094619590720438,138.44821113013163,0.28163905074506546,0.0,0,0,0,0
0.34,0.0,1,1,1,0,1,1,1,0,0.2649659891511359,0.0,0.21077887150815186,0.7811039417032317,0.0,0.614614598918925,0.07500767067183006,0.021861956278347035,0.2896304671982187,-0.07510271928796525,-0.007446687284629938,0.02066970845654566,0.19060244119384245,0.13525276270106934,0.019409280562019265,0.21418816518545147,-0.12874857609941776,0.09124215897695762,-0.14513583691646673,0.1295131682743497,0.013232570925470616,-0.07636851827995977,-0.12625879335628773,0.1155623211735827,0.3913632595281208,0.07906003197089176,0.39578049461419085,-0.056829756569737384,0.02607670823669667,0.1712188649413982,0.1263972703769849,0.07906003197089176,0.39578049461419085,0.056829756569737384,0.02607670823669667,0.03956000656675365,0.2450173089146303,0.0,3,0.3,0,11,0.2618088820909198,111.19536974439934,0.06585187593255645,135.11237879749075,0.22396403977220425,0.0,0,0,0,0
0.35000000000000003,0.0,1,1,1,0,1,1,1,0,0.2727744134608264,0.0,0.21691669630840524,0.7808424309690531,0.0,0.6137824800253378,0.07886705764443493,0.02303697689408782,0.2936790071457154,-0.07430620560144208,-0.00639822990751493,0.0220991224168241,0.1910560211056253,0.13532218950191438,0.019431107586899282,0.21448563329857304,-0.12870249246526672,0.09095270520083121,-0.14464318418126254,0.12955318607009297,0.013273798976193157,-0.06623639401783876,-0.12657749139560387,0.10348478616249886,0.3896101771349489,0.07699136453566094,0.42584066485616656,0.05157159541025986,0.14497866132939166,0.1299020956502347,0.11683576367412246,0.07699136453566094,0.42584066485616656,0.05157159541025986,0.14497866132939166,0.08701460065817054,0.28084172886795394,0.0,3,0.3,0,11,0.2682105170424781,132.33764553225222,0.07068220347360996,142.17878118730033,0.09326154545326659,0.0,0,0,0,0
0.36,0.0,1,1,1,0,1,1,1,0,0.2805801455971796,0.0,0.2230459576089092,0.7805732136353161,0.0,0.6129261300503952,0.08269199507238495,0.024197467794060422,0.29814679856647514,-0.07346380183683089,-0.0044593747222871905,0.023775138492491736,0.19151837028634577,0.1353902736723492,0.019454451101912462,0.2149580911666704,-0.12862916250164536,0.09106835453126316,-0.1441236566114873,0.12958126653308888,0.013318613861254824,-0.0545537255512871,-0.1252918005798766,0.0907191299738737,0.38736358915308367,0.07211184466345552,0.4719448413971071,0.17419525079851492,0.17852387886444415,0.23412516916840698,0.10678344355590408,0.07211184466345552,0.4719448413971071,0.17419525079851492,0.17852387886444415,0.011079211559497787,0.1899744997788574,0.0,3,0.3,0,11,0.21657597784362084,140.15936055028,0.06863865589306964,170.90560239294584,0.2296510957211475,0.0,0,0,0,0
0.37,0.0,1,1,1,0,1,1,1,0,0.2883831085207705,0.0,0.22916641343692262,0.7802962923590895,0.0,0.6120455828013432,0.08653974219940545,0.02534760484012541,0.3029273927276589,-0.07158217141221772,-0.003205840323067921,0.02591513634091818,0.19200745267506591,0.13545568143167713,0.01948117755292625,0.21544403031151563,-0.12855969036034315,0.0911908000806334,-0.14359061476318014,0.12960465529875195,0.013365438573105015,-0.042492716080082094,-0.1229449322392167,0.0799236504179101,0.3912777805392439,0.0689121737794212,0.4958151728471557,0.16798174952419426,0.08075805502654661,0.21174016619294012,0.10289467201847341,0.0689121737794212,0.4958151728471557,0.16798174952419426,0.08075805502654661,0.017426247243982507,0.18923309304187713,0.0,3,0.3,0,11,0.18545705435765053,127.58574302552779,0.07866949071708376,154.46117818784552,0.3965008157035723,0.0,0,0,0,0
0.38,0.0,1,1,1,0,1,1,1,0,0.29618322521950524,0.0,0.23527782216732931,0.780011669873476,0.0,0.6111408730406692,0.09042892916429311,0.026490944837003025,0.3081177031458363,-0.06956656053394951,-0.0018522597376258165,0.028404576469928035,0.1925207433775059,0.13552030262251474,0.019511610599636492,0.21572690449830528,-0.12820465857796876,0.09208828638279071,-0.14302173878754482,0.12961930675765007,0.013417427471224042,-0.030810283165226215,-0.11672705628123395,0.07011607790062788,0.3922186341881482,0.06610149573493382,0.5578237613430719,0.24087850958859489,0.1437112714604446,0.29102781009074197,0.09603540896864293,0.06610149573493382,0.5578237613430719,0.24087850958859489,0.1437112714604446,0.05574998792341265,0.2178868926269894,0.0,3,0.3,0,11,0.20034543706057403,164.21478900897574,0.0858226534691763,193.49514009671447,0.1737065786183858,0.0,0,0,0,0
0.39,0.0,1,1,1,0,1,1,1,0,0.3039804187093811,0.0,0.24137994253217698,0.7797193489875842,0.0,0.6102120364847669,0.09428940954452587,0.027647323231656067,0.3140303462367122,-0.06595119807782465,-0.0007878300356196632,0.031127413936315285,0.19308805353020114,0.13557977403388358,0.01955060691504787,0.2151402094157362,-0.1284776475911005,0.0905972213982621,-0.1424056253462812,0.12963347041369458,0.013477459257154656,-0.019233310251486724,-0.1047256635129719,0.06052511132439781,0.384134504179522,0.05693496638780787,0.6324853085190546,0.6126599196436441,0.0376789204192991,0.24324782620341207,0.08015408547014091,0.05693496638780787,0.6324853085190546,0.6126599196436441,0.0376789204192991,0.0018678836712350821,0.13895693552918387,0.0,3,0.3,0,11,0.1863252251500776,229.19955534528012,0.1028689804656131,180.1973871979707,0.17995738081927515,0.0,0,0,0,0
0.4,0.0,0,0,0,1,1,1,1,0,0.3117746120352462,0.0,0.2474725336302022,0.7794193325865117,0.0,0.6092591098025207,0.09791427725506212,0.02867782920482082,0.320619882675151,-0.056994209195009596,-0.00029064548363133547,0.033451941992550756,0.19407587406079724,0.1358789434813085,0.019817306327138046,0.21577503499165157,-0.12801689826742502,0.09187986325468109,-0.14235383709711974,0.12807964063202495,0.01423693474117771,-0.008866917727681639,-0.08570407228375365,0.05095885341720646,0.34384289462166784,0.04652799478253035,0.6830834830637755,1.3546208720275819,0.0642966519894854,0.24887047316577546,0.03206828258642164,0.04652799478253035,0.6830834830637755,1.3546208720275819,0.0642966519894854,0.0013979395355732671,0.07999421690452525,20.0,3,0.3,0,11,0.11254344491199149,279.39586665288374,0.10637818960012886,143.14338442261055,0.20035448249610788,20.0,0,0,0,0
0.41000000000000003,0.0,0,0,0,1,0,1,0,1,0.31956572827155894,0.0,0.2535553549363405,0.7791116236312734,0.0,0.6082821306138325,0.1012089381954666,0.029609298899119958,0.32643896762725283,-0.05325679810918282,-0.001111762025648666,0.03532226720697294,0.20562526904704465,0.14257648873209053,0.025516070086913117,0.21787103160572135,-0.1253516714644263,0.09127354786949546,-0.13526492420472236,0.1288724094328677,0.02090382959163639,-0.008676233605092204,-0.0795870675545314,0.05063721641228827,0.321446054818029,0.054984878939803465,0.5195497398398934,-0.10825905839662224,-0.12481514987312992,0.1549868441166034,0.0018803265464700791,0.054984878939803465,0.5195497398398934,0.10825905839662224,0.12481514987312992,0.09856851081973711,0.15543371630601066,55.0,3,0.3,0,11,0.14329583428916787,137.68121910926558,0.15720572584736395,60.3225641789082,2.1003333029605886,55.0,0.0,0.0,0.0,0.20000000000000004
0.42,0.0,0,0,0,1,0,1,0,0,0.32735369052314756,0.0,0.2596281663112222,0.778796225158862,0.0,0.6072811374881693,0.1044167371979801,0.03055603911086365,0.33123934933200283,-0.052970464525203875,-0.0031990008304867423,0.03765534952652898,0.22354057248379644,0.1490332554586335,0.030938629423858055,0.21820489304256635,-0.12338530027999375,0.09087898439324599,-0.12613147066471814,0.1336746376447872,0.02416408770164752,-0.01682794514566166,-0.08001548578075285,0.048531927446497064,0.3294326128723104,0.06232715364961705,0.434122950210043,0.009363954336335873,-0.3201567980550235,0.2314632603029987,0.0020789223491628483,0.06232715364961705,0.434122950210043,0.009363954336335873,0.3201567980550235,0.028164906008223495,0.0925709820070034,25.0,3,0.3,0,11,0.08753029468998923,99.0009925646222,0.07192161171511455,46.31051955793559,0.756819985599567,25.0,0,0,0,0
0.43,0.0,0,0,0,1,0,0,0,1,0.33513842192596877,0.0,0.2656907280106526,0.778473140282121,0.0,0.6062561699430369,0.10764630965249135,0.031560245603789984,0.3353381547150288,-0.05318898546051756,-0.007236264016022176,0.04001681613005281,0.24244061213132595,0.1533423042792134,0.033352721296223437,0.21909727903418372,-0.12060015693028872,0.08987716458095985,-0.11892828260417937,0.13872072272691247,0.024862586972532102,-0.029736071018421406,-0.08262009805388354,0.045523316663263716,0.33661609459087516,0.06827078411889617,0.3741278577923877,0.23657859514544358,-0.5848153939208481,0.2077213603049488,0.0014776726649063932,0.06827078411889617,0.3741278577923877,0.23657859514544358,0.5848153939208481,0.05796936770570377,0.12771782448950633,25.0,3,0.3,0,11,0.1211597992000131,99.57982490206403,0.06449182795601288,27.50202191187295,0.5317679893234564,25.0,0.0,0.0,0.0,0.01
0.44,0.0,0,0,0,1,0,1,0,0,0.3429198456478665,0.0,0.2717428006950765,0.7781423721897718,0.0,0.6052072684423926,0.11096743238225741,0.032603804219157595,0.3384640502738638,-0.05287558914539011,-0.014870133196319912,0.04227356726335907,0.2620932005065444,0.15435778681253778,0.034796172987484025,0.2229799405833316,-0.11610240722595871,0.08924898703245848,-0.11175806904061916,0.14392355668978857,0.028939489939845492,-0.047737559415867825,-0.0870224748429558,0.043582710265061636,0.33390802829528576,0.07998311679990232,0.2654750673594333,0.13063143571201172,-0.8995967882488417,0.16015493458884608,0.00901181735258072,0.07998311679990232,0.2654750673594333,0.13063143571201172,0.8995967882488417,0.11158786610623042,0.20058280025871345,40.0,3,0.3,0,11,0.16973727632847047,72.6563724618101,0.06268750553100785,0.0,0.4928759550375563,40.0,0.0,0.01,0.0,0.0
0.45,0.0,0,0,0,1,0,0,0,0,0.3506978848893299,0.0,0.2777841454390272,0.7778039241463419,0.0,0.6041344743950683,0.1141805765516476,0.03368198897738051,0.34031600402354645,-0.05292614431814764,-0.022914389170585858,0.044046558833086835,0.2842608670850829,0.15349625401106598,0.043903998591562576,0.2369398542889946,-0.10960582383100877,0.09261333967540097,-0.10113325993122042,0.14950081380144972,0.03834579655292264,-0.06514380162742531,-0.09230096294522613,0.04581290665527832,0.32367710767552854,0.08772656729696515,0.10197452990063381,-0.16582111747037576,-0.6373036107178323,0.08937407217786193,0.02702077721380136,0.08772656729696515,0.10197452990063381,0.16582111747037576,0.6373036107178323,0.18841007326116527,0.3031574177719318,25.0,3,0.3,0,11,0.252317022622948,88.9776244859069,0.05741290831815767,0.0,0.21059099108447699,25.0,0,0,0,0
0.46,0.0,0,0,0,1,0,0,0,0,0.35847246288425194,0.0,0.28381452374055854,0.7774577994922038,0.0,0.6030378301531358,0.11733535353542177,0.03474255403706072,0.340572655781682,-0.054876826033151166,-0.027397991353014683,0.044845666241081494,0.3029716301489597,0.15412399484519218,0.062065353179039384,0.2585088329948503,-0.10690045347950591,0.10443238560917745,-0.08863959632081159,0.15529050426631383,0.05055317163189807,-0.07790498906890253,-0.09592691780152189,0.049717664996691974,0.31774995338855505,0.09460761106961837,-0.041865359281083876,-0.04585592395667573,-0.33272578674966014,0.047709542188451304,0.04072250949569689,0.09460761106961837,0.041865359281083876,0.04585592395667573,0.33272578674966014,0.23610498155210724,0.3714351021174225,25.0,3,0.3,0,11,0.35707991476738815,76.63813678869636,0.06288787522465057,0.0,0.25427622758288404,25.0,0,0,0,0
0.47000000000000003,0.0,0,0,0,1,0,0,0,0,0.3662435029006865,0.0,0.28983369753066096,0.7771040016434583,0.0,0.6019173790102417,0.12048784846297395,0.035819788543942715,0.3397731325816381,-0.053103315140694426,-0.030723405836538653,0.04563395215657745,0.31591422439154776,0.1548239827380853,0.0774037091228604,0.27684705456972625,-0.10644531110319803,0.11585493169179786,-0.07411805100594271,0.1609610557019387,0.061950850705199345,-0.08856826367689465,-0.09902423894639319,0.05232723310894602,0.31777620640308585,0.1012098175448393,-0.13085421681035048,0.32792130495420496,-0.3447225731729815,0.05274233609388536,0.048467296497600676,0.1012098175448393,0.13085421681035048,0.32792130495420496,0.3447225731729815,0.23709136143677562,0.3867684754792156,25.0,3,0.3,0,11,0.3708347934719162,16.12310310962577,0.030843995835597632,0.0,0.4112507891129069,25.0,0,0,0,0
0.48,0.0,0,0,0,1,0,0,0,0,0.3740109282416059,0.0,0.29584142918265965,0.7767425340919398,0.0,0.6007731651998693,0.1236730465084259,0.03688767895166917,0.3379527715582005,-0.050840901519080176,-0.03398260653512475,0.04610225889196682,0.32497491088665487,0.1569167504850306,0.09118999616946412,0.2918985457723434,-0.10562732557822163,0.12732448678219777,-0.057498673397739175,0.165451143253644,0.07472107386622134,-0.09693900539867988,-0.10233389901779966,0.05475745223918557,0.3151684497139928,0.10220331946895146,-0.2414697155578362,0.15339198664837672,-0.29299665374594946,0.01698183082358398,0.058842478527613096,0.10220331946895146,0.2414697155578362,0.15339198664837672,0.29299665374594946,0.2788595983590757,0.43990539635564024,25.0,3,0.3,0,11,0.4232945810297591,20.806870196798197,0.02712753255928426,0.0,0.14199367437903754,25.0,0,0,0,0
0.49,0.0,0,0,0,1,0,0,0,0,0.3817746622456579,0.0,0.3018374815215959,0.7763734004052003,0.0,0.5996052338936242,0.12686103632001017,0.03791468694183238,0.3351441678076748,-0.049862108972437126,-0.03648597008593035,0.04632652723793569,0.33177264824196284,0.16051186643498266,0.10273085532776705,0.3027663429902025,-0.10480762752828168,0.13699691790737029,-0.04106767357259644,0.16935399525041622,0.08588420406975,-0.10189419864820114,-0.10570711968742556,0.05669582516345745,0.3125212777741718,0.10332498319833895,-0.33423993341774105,0.06302695020291746,-0.24690483830615148,-0.003620763979337584,0.0692533844714861,0.10332498319833895,0.33423993341774105,0.06302695020291746,0.24690483830615148,0.3054582455009335,0.4780366131707585,25.0,3,0.3,0,11,0.46008009108120584,9.764469047397016,0.025438404681399667,0.0,0.16133179708222078,25.0,0,0,0,0
0.5,0.0,0,0,0,1,0,0,0,0,0.3895346282879222,0.0,0.3078216178335902,0.7759966042264255,0.0,0.5984136311994293,0.1300866483290426,0.038921721815586084,0.3314592540229668,-0.04896331834251554,-0.03905937694181971,0.04632117103682052,0.3369909519650588,0.16502088259293693,0.11023549360862947,0.30959952482310305,-0.10362759640260824,0.14308163560234582,-0.026574222857122076,0.17207650824154458,0.09379961779708673,-0.10511431793542016,-0.10914636879406361,0.05727543464019083,0.3121911351831686,0.1048113738954591,-0.41434255118227137,0.10604645724566808,-0.28605728906026406,-0.025731490706970013,0.07734349310475358,0.1048113738954591,0.41434255118227137,0.10604645724566808,0.28605728906026406,0.3335531085405602,0.5157079755407729,25.0,3,0.3,0,11,0.49910631195551136,5.483133081132737,0.025509455222592303,0.0,0.3737585205921381,25.0,0,0,0,0
0.51,0.0,0,0,0,1,0,0,0,0,0.3972907497806668,0.0,0.3137936018751874,0.7756121492744628,0.0,0.5971984041597211,0.13332610581650123,0.03991060034513628,0.3270462020992567,-0.04668942609637786,-0.04206868966331445,0.04616842008875335,0.3419675065769943,0.17001037426891652,0.11225307160552689,0.3140621088558511,-0.10176924774331925,0.1447258109940442,-0.014825519196851794,0.17363263616274152,0.09543257880073652,-0.10790419183973599,-0.11230811285479983,0.05657142184586883,0.30826061268857086,0.10659270706423153,-0.4861081136512177,0.3125239659899331,-0.33272324829882066,-0.032181220845703136,0.08903013709209595,0.10659270706423153,0.4861081136512177,0.3125239659899331,0.33272324829882066,0.34597482272089053,0.541597666877218,25.0,3,0.3,0,11,0.5320073723051657,2.5694020025230926,0.024901474187011035,0.0,0.704396988688123,25.0,0,0,0,0
0.52,0.0,0,0,0,1,0,0,0,0,0.4050429501741038,0.0,0.31975319788268336,0.7752200393436992,0.0,0.595959600749596,0.1366018562061038,0.04090970378198107,0.3218674616468733,-0.04311180826285843,-0.045848377365429016,0.045923948938150244,0.3464674528924748,0.1744515118796554,0.11175879772048825,0.31802845428030385,-0.09965898277247986,0.1425594473615393,-0.005882560104915835,0.1741039311887346,0.09139909615626753,-0.11171077760384035,-0.11472319380908648,0.05450038501539084,0.30860151760281324,0.11038147877379528,-0.568367171379397,0.43840814852868093,-0.39992252763260566,-0.04077441954949087,0.09644143257129056,0.11038147877379528,0.568367171379397,0.43840814852868093,0.39992252763260566,0.3605276174321742,0.56735052877726,25.0,3,0.3,0,11,0.5617080217274579,4.6054861474170306,0.02317947463746798,0.0,1.1046435422215364,25.0,0,0,0,0
0.53,0.0,0,0,0,1,0,0,0,0,0.4127911529571451,0.0,0.325700170581432,0.774820278304128,0.0,0.5946972698748665,0.13993743302548547,0.04192486709183756,0.3158475789286812,-0.03948367560177304,-0.05033277914804635,0.045672966827968974,0.35018478392109986,0.17784684689540403,0.11002836199489165,0.3219019325600755,-0.09746155663412633,0.1377922724758971,0.0006846307330679313,0.174270913062841,0.08318343964272402,-0.11615914851429987,-0.11638696236142362,0.050749372305553625,0.30586764747477607,0.11362233455953348,-0.6606155517811556,0.3544769725675345,-0.4729330506821189,-0.05668524504337051,0.10692350548236901,0.11362233455953348,0.6606155517811556,0.3544769725675345,0.4729330506821189,0.38238541562480255,0.602931255666705,25.0,3,0.3,0,11,0.5816589409398035,2.776930524442432,0.01400404493456447,0.0,1.3796929168431875,25.0,0,0,0,0
0.54,0.0,0,0,0,1,0,0,0,0,0.4205352816581571,0.0,0.3316342851951342,0.7744128701012043,0.0,0.593411461370219,0.14324393686163714,0.0429390332766664,0.3089885975526716,-0.03669130109766515,-0.05449785880124036,0.045391095031575436,0.3534048833726867,0.180925454957759,0.10531335622385864,0.3275403933939737,-0.0954173512248007,0.13143823576900454,0.006645777487191307,0.17455589594926804,0.07083070031853421,-0.12102741521543518,-0.11714990811210624,0.04495758255092272,0.29245395176996397,0.11291286740545019,-0.7337381573182247,0.21266258615882677,-0.37971556834404646,-0.03168526999663257,0.12808132988819315,0.11291286740545019,0.7337381573182247,0.21266258615882677,0.37971556834404646,0.3633195551917668,0.6043137524854101,25.0,3,0.3,0,11,0.6038798588086326,9.818940839414825,0.022452681210967874,0.0,1.6670438166329595,25.0,0,0,0,0
0.55,0.0,0,0,0,1,0,0,0,0,0.42827525984571624,0.0,0.3375553074551057,0.7739978187559116,0.0,0.5921022259971487,0.14650618445456887,0.04395284264624393,0.3013834163929492,-0.03530631483109037,-0.058061873704958966,0.04508443717774544,0.35669950766136516,0.1838284474468526,0.0973405348066699,0.3348143214409237,-0.09388210146927181,0.12276206719208321,0.010962917601701927,0.17378375348626296,0.055504796927072816,-0.1253572864007015,-0.11583774578385923,0.037340138046955906,0.27967099509020965,0.1160883943845476,-0.8166692091384977,0.01907262926072381,-0.29236408801048236,-0.05099886434098462,0.1486042647555066,0.1160883943845476,0.8166692091384977,0.01907262926072381,0.29236408801048236,0.3885541717960903,0.6532468309361446,25.0,3,0.3,0,11,0.6344375172226235,7.632863355596103,0.0205473390739385,0.0,1.8879565070585134,25.0,0,0,0,0
0.56,0.0,0,0,0,1,0,0,0,0,0.4360110111293624,0.0,0.34346300360952614,0.7735751283646175,0.0,0.5907696154420439,0.14967865788912416,0.04500045732798474,0.2930321523620283,-0.034799790474962074,-0.06065178286086659,0.044747689815161994,0.36227052736028265,0.18628641601471096,0.08516850810221234,0.34214739610412437,-0.09415686200333263,0.10911579457499954,0.013178393561415369,0.17197880263000126,0.03850209419147217,-0.1280158948546988,-0.11287584902608547,0.026737487901523194,0.2647857770632638,0.12397812005229639,-0.8761745138764145,0.21175195935851565,-0.24015165677253128,-0.022914209470724888,0.17122523406609863,0.12397812005229639,0.8761745138764145,0.21175195935851565,0.24015165677253128,0.366377213080251,0.6615805671986461,25.0,3,0.3,0,11,0.6651038839340525,35.145044970973345,0.03862871864025978,0.0,2.298680710185913,25.0,0,0,0,0
0.5700000000000001,0.0,0,0,0,1,0,0,0,1,0.44374245916035343,0.0,0.3493571404326669,0.7731448030991017,0.0,0.5894136823140772,0.1528158342049263,0.04611989669277023,0.2840727846665375,-0.02990562436862999,-0.06298855811522541,0.0447128726394434,0.3710192860780308,0.18834550027727137,0.06819386494814957,0.3484314910877895,-0.0963121766005316,0.09108635952526116,0.011592226591539162,0.1678757958782058,0.01796322276719313,-0.1320436126773409,-0.1101893400507255,0.01609872826024175,0.2621144475291233,0.12952771046624667,-0.9618455808764135,0.7495021954758884,-0.27265590014391616,-0.0065015760594557825,0.18162801163123016,0.12952771046624667,0.9618455808764135,0.7495021954758884,0.27265590014391616,0.3558587164921227,0.6670144385895995,20.0,3,0.3,0,11,0.6631624435690908,43.39922016002866,0.03703222005197592,56.211675751880954,2.1946234810723535,20.0,0.0,0.0,0.0,0.12999999999999998
0.58,0.0,0,0,0,1,0,0,1,1,0.45146952763241865,0.0,0.3552374852340987,0.7727068472065224,0.0,0.5880344801431792,0.15630613369607824,0.04740970584558214,0.27468950313189094,-0.029875087198012042,-0.061404291890567064,0.04504910429671357,0.3789724709065516,0.18788760713353375,0.05370940895505617,0.3501764453803481,-0.09877595929995991,0.0747569747668644,0.010906378683800538,0.16741652726260725,0.016009687017504548,-0.1319224086220726,-0.11005946330827904,0.016140906375260944,0.3432822933787826,0.14709016727747962,-0.9201796276997813,-0.8175094016156509,0.6718329743646806,0.08439825390469934,0.10818723425363608,0.14709016727747962,0.9201796276997813,0.8175094016156509,0.6718329743646806,0.27083923132939935,0.526116632860515,15.0,3,0.3,0,11,0.593704244309762,133.3071265032176,0.12513482640867948,262.14835706651274,0.6486231953829629,15.0,0.0,0.0,0.17,0.0
0.59,0.0,0,0,0,1,0,1,1,1,0.4591921402825117,0.0,0.3611038058678774,0.7722612650093053,0.0,0.5866320633778677,0.16053287848185382,0.048619913332450575,0.2661008870070915,-0.04204043826060282,-0.05047208513927015,0.04635507900167119,0.38064771488176863,0.18800449645858514,0.04172342748378072,0.34694873640021084,-0.09953354297290717,0.06596472816122567,0.010705443498849831,0.16748941940090076,0.016066518355576917,-0.13164103625570645,-0.11012221500262658,0.01617229147839294,0.40057144017056834,0.12328324193435108,-0.8239449652455693,-1.5333076786195454,1.4859424328599165,0.25992188473951994,0.05862070011194337,0.12328324193435108,0.8239449652455693,1.5333076786195454,1.4859424328599165,0.10118192112835744,0.2830858631746519,30.0,3,0.3,0,11,0.3736049818957728,199.2249369078582,0.13051019256273372,271.6170467592786,0.7612133053435581,30.0,0.0,0.13999999999999999,0.0,0.0
0.6,0.0,1,1,1,0,0,0,1,1,0.46691022089156364,0.0,0.3669558707417092,0.7718080609051936,0.0,0.585206487383183,0.16513942309380872,0.049762447699689495,0.2584067117399528,-0.055280842015687656,-0.03631368564200743,0.04855504661977657,0.37519706762920046,0.18742094740771212,0.03350580875804568,0.3469991638734057,-0.09887012833336478,0.0672899931564529,0.010634250161953851,0.16755100630164416,0.01611536206510307,-0.13071618080247593,-0.11428101525468154,0.01669237543552457,0.4663935457132162,0.12697801147670223,-0.742585342486366,-1.3379967846869565,1.2525163339851364,0.2854573211397351,0.0005166751783474699,0.12697801147670223,0.742585342486366,1.3379967846869565,1.2525163339851364,0.08149854960197411,0.20899323625702382,55.0,3,0.3,0,11,0.23005768983040903,288.30557071089805,0.1620729389311029,196.83504553348644,0.2910197047042864,55.0,0,0,0,0
0.61,0.0,1,1,1,0,0,1,1,0,0.4746236932852346,0.0,0.3727934488260932,0.7713472393670984,0.0,0.583757808438401,0.16996880544816534,0.05056653322414224,0.2517573310893681,-0.06763609710162181,-0.021430833249627357,0.05137127823257104,0.3614547084540225,0.18719986894933088,0.024323815646269717,0.34717296166012857,-0.09865532293795119,0.06729646190876501,0.01070495455725115,0.16757117327008691,0.016155709526478157,-0.1222807442881346,-0.11789995738719514,0.025462627679083083,0.4667106415212637,0.08825165364815517,-0.6087033724731543,-0.5685535923517887,1.7107095192276902,0.40686034486220934,0.007913051763970946,0.08825165364815517,0.6087033724731543,0.5685535923517887,1.7107095192276902,0.03406689603611612,0.13023160144824225,35.0,3,0.3,0,11,0.12793861285928515,466.07967428397296,0.20327494476686753,312.38688203786023,0.2750309244899629,35.0,0.0,0.01,0.0,0.0
0.62,0.0,1,1,1,0,0,1,1,0,0.4823324813346662,0.0,0.3786163096634422,0.7708788049431592,0.0,0.5822860837348953,0.17477471806661618,0.05132931978234763,0.24616237142758,-0.06956510849974602,-0.005378879072370113,0.053951950301223836,0.3486839084898581,0.18571620136845662,0.01831772467404416,0.3474200818013624,-0.09844233070393969,0.067304061463242,0.01088153679717102,0.16759567576877105,0.01618916170701773,-0.11091811836573051,-0.1190093415227666,0.037873089527256126,0.4889416957716894,0.07932769855818514,-0.5181826598143,-0.42290224429786116,1.48179534776425,0.34448540505141084,0.00660921443702317,0.07932769855818514,0.5181826598143,0.42290224429786116,1.48179534776425,0.03413090461203133,0.12006781760723964,25.0,3,0.3,0,11,0.11513819150956975,245.56558235404017,0.16054689856393442,242.29787605459688,0.2859051650999924,25.0,0,0,0,0
0.63,0.0,1,1,1,0,1,1,1,0,0.4900365089572325,0.0,0.38442422337718063,0.7704027622566278,0.0,0.5807913713738455,0.1797049633117148,0.05196205375319121,0.2414355482017332,-0.07268678582186001,0.00890358296463356,0.0563495845267864,0.3432714728564735,0.18525888393955584,0.018441799714049023,0.34775464395049716,-0.09824986504633854,0.06731535874663037,0.011121753775823112,0.1676118633544537,0.01622175403517652,-0.09435868719309368,-0.11708576589515748,0.05296084502444487,0.5064851098531723,0.06964800097756157,-0.4245103074097604,0.3170679774062184,1.2776887492707303,0.3275137373718372,0.016448600895939802,0.06964800097756157,0.4245103074097604,0.3170679774062184,1.2776887492707303,0.05691048600534343,0.1430070878788448,0.0,3,0.3,0,11,0.12227930265456358,187.50086321073954,0.1352202211219837,226.68815269382338,0.15184503408075178,0.0,0.22000000000000006,0.0,0.0,0.0
0.64,0.0,1,1,1,0,1,1,1,0,0.4977357001172911,0.0,0.3902169606808198,0.7699191160058627,0.0,0.5792737303639162,0.18476939090167233,0.052684564359243236,0.2374656542297153,-0.06802843628206728,0.020355145018795318,0.05841912889220378,0.33954505319207917,0.1842230772504379,0.018533421016060245,0.3481646555660184,-0.09805654506413826,0.06732846448675468,0.011416720338319891,0.1676394016972576,0.01625377463333484,-0.07741630090693237,-0.11281104953691866,0.06763178198723796,0.5205008791509627,0.0698415629117739,-0.33823614509384947,0.23873183153563388,1.0917235775810947,0.29855189644332797,0.022765179033671534,0.0698415629117739,0.33823614509384947,0.23873183153563388,1.0917235775810947,0.09166506423749182,0.18427180618293726,0.0,3,0.3,0,11,0.19654967125046074,150.41817991701865,0.13601888004631071,206.92230766491792,0.08694650543507798,0.0,0,0,0,0
0.65,0.0,1,1,1,0,1,1,1,0,0.5054299788269336,0.0,0.39599429288700977,0.769427870964251,0.0,0.5777332206189978,0.18996037229834056,0.053486136865916335,0.2343339749651855,-0.0651196167776059,0.03052990780307252,0.0611291863789491,0.33746414401857106,0.18337284765032785,0.018597945331128823,0.348657650775971,-0.09785890919038259,0.06734403973630515,0.011758525568131312,0.16766188701906284,0.016285363887379264,-0.05652160044695248,-0.10774512432356312,0.08167711326428151,0.5450427488306041,0.06661742962206413,-0.25915679530084884,0.42817214862211467,0.8369585691760131,0.3271553028219896,0.03961277000367047,0.06661742962206413,0.25915679530084884,0.42817214862211467,0.8369585691760131,0.06883899006502014,0.17506918969075475,0.0,3,0.3,0,11,0.15196706518685993,158.80298150878366,0.12555644095116836,210.70298051987794,0.16101342227334747,0.0,0,0,0,0
0.66,0.0,1,1,1,0,1,1,1,0,0.5131192691467354,0.0,0.4017559919165674,0.7689290319801811,0.0,0.5761699029557643,0.1954507493170639,0.05433915879813698,0.2319207978127812,-0.06164529950972145,0.03766423869936841,0.06376681768324671,0.3374341173445432,0.18335328588022382,0.01863508965631397,0.34922768709065577,-0.09767203816944794,0.06736764670971909,0.012146602977418625,0.16768946272706808,0.016318947230733905,-0.03545922246003422,-0.10388266268373819,0.09293240533265665,0.5759755331165273,0.06592736424672355,-0.1749595417103379,0.30860765853457617,0.5883042274966408,0.32345812064377877,0.06285626396979183,0.06592736424672355,0.1749595417103379,0.30860765853457617,0.5883042274966408,0.07829787127278864,0.20708149948930402,0.0,3,0.3,0,11,0.21058208111768492,153.5935965299923,0.13130510084139363,205.00606977971978,0.10369746559241344,0.0,0,0,0,0
0.67,0.0,1,1,1,0,1,1,1,0,0.5208034951865055,0.0,0.4075018303074806,0.7684226039770037,0.0,0.5745838390913194,0.20122475279222948,0.055293377107762894,0.23034730649771204,-0.05763147184033046,0.0425291972341344,0.06686848664185599,0.33789225660924455,0.18349007875824389,0.0186664753482034,0.3498646794179524,-0.09748929550437008,0.06739928089517153,0.012586098022627168,0.1677156118266221,0.016353527788362313,-0.014009861964438541,-0.10019444221548766,0.1016457432855859,0.599575046317725,0.06069892943991054,-0.08449677350788157,0.304741505731841,0.3484086290510935,0.33385390672688897,0.07877155113121947,0.06069892943991054,0.08449677350788157,0.304741505731841,0.3484086290510935,0.07364792358059163,0.21311840415172165,0.0,3,0.3,0,11,0.20347885591672116,184.0104838123699,0.13018152850705747,216.1620263920423,0.25892565533000456,0.0,0,0,0,0
0.68,0.0,1,1,1,0,1,1,1,0,0.5284825811060347,0.0,0.4132315812238882,0.767908591952926,0.0,0.5729750916407594,0.2072282084987905,0.05624797075761244,0.22966512376065207,-0.05421677967467502,0.04531718523406236,0.0702205247985453,0.3384130225325719,0.18362254190101737,0.01869862259365704,0.3505466276197516,-0.09732458835790041,0.06744082248780156,0.013074497315114064,0.16773585858786608,0.01638906560154639,0.008108728396847481,-0.09741964696539233,0.10919322180051227,0.6146624179223532,0.05387048432419907,0.008398490751447486,0.4372129190769774,0.17839510153296925,0.36396590418841224,0.08617983681631847,0.05387048432419907,0.008398490751447486,0.4372129190769774,0.17839510153296925,0.04926567703547596,0.18931599817599348,0.0,3,0.3,0,11,0.1975957255117878,193.4939914116193,0.12367830194509884,220.492455711581,0.26594475868172385,0.0,0,0,0,0
