time,trans_flag,des_cont_state_fl,des_cont_state_fr,des_cont_state_rl,des_cont_state_rr,cont_state_fl,cont_state_fr,cont_state_rl,cont_state_rr,vel_cmd_x,vel_cmd_y,vel_cmd_yaw,acc_cmd_x,acc_cmd_y,acc_cmd_yaw,base_pos_x,base_pos_y,base_pos_z,base_ang_roll,base_ang_pitch,base_ang_yaw,FL_foot_pos_x,FL_foot_pos_y,FL_foot_pos_z,FR_foot_pos_x,FR_foot_pos_y,FR_foot_pos_z,RL_foot_pos_x,RL_foot_pos_y,RL_foot_pos_z,RR_foot_pos_x,RR_foot_pos_y,RR_foot_pos_z,base_vel_x,base_vel_y,base_vel_z,base_vel_roll,base_vel_pitch,base_vel_yaw,x_vel_err,y_vel_err,z_vel_err,roll_vel_err,pitch_vel_err,yaw_vel_err,cmd_err,cont_err,terr_freq,terr_height,failed,gait_id,base,CoT,musculoskeletal,foot_force,MWE,stability,FL_stride_t,FR_stride_t,RL_stride_t,RR_stride_t
0.01,0.0,1,1,1,1,1,1,1,1,0.006283178692509316,0.0,0.005026527078818862,0.6283178692509316,0.0,0.5026527078818862,-6.456541102943765e-05,-1.5458650245718862e-05,0.3099051445552595,-0.0008201576458232317,0.000480460326728549,-9.829183868961937e-05,0.1829728423405922,0.13204694390772184,0.017331765758007656,0.1829574183926046,-0.13202772240194072,0.017392862138586096,-0.18301107451199794,0.13205033291207963,0.01733167175482453,-0.18300601864373262,-0.13204964823411056,0.01733167644468686,-0.014158309102961498,-0.0024631714406581507,-0.025379923459582173,-0.13122069072096634,0.09682135786954295,-0.018193013801327453,0.020441487795470815,0.0024631714406581507,0.025379923459582173,0.13122069072096634,0.09682135786954295,0.023219540880146314,0.04612420011627528,65.0,3,0.3,0,9,0.026939202200943896,8.250996134892471,0.030346683043894297,62.038775024680184,0.01804609335361937,65.0,0,0,0,0
0.02,0.0,1,1,1,1,1,1,1,1,0.014137091596022201,0.0,0.011309492449657768,0.7853912903512885,0.0,0.6282965370838907,-0.00023630491083657043,-5.1391331505087846e-06,0.3094752922646656,-0.0009904750206622306,0.001478486593464945,-0.00021044515348506574,0.18291604599836858,0.13204853733627275,0.017340104331741463,0.18287486441289597,-0.13199499494040304,0.01747302388581523,-0.18304285873344875,0.13205300502017323,0.017339742632680788,-0.1830411349343094,-0.13204692846095767,0.017339778875552964,-0.019786029050616195,0.008426659512834056,-0.05827013333763446,0.25000345077073394,0.10181912882311371,0.00859730473320396,0.0339231206466384,0.008426659512834056,0.05827013333763446,0.25000345077073394,0.10181912882311371,0.002712187716453809,0.04506196787592626,0.0,3,0.3,0,9,0.05009071316496848,8.49069357252961,0.044695631978657245,70.87511159093164,0.06719184399552486,0.0,0,0,0,0
0.03,0.0,1,1,1,1,1,1,1,1,0.02199086497214841,0.0,0.01759201134109972,0.7853773376126207,0.0,0.628251889144195,-0.0004516372271572722,3.070003231581016e-05,0.3087718476306948,-0.0014510872998176113,0.0023859706340010334,-0.00012423285976484924,0.18283214423645108,0.1320488929362881,0.01734886286266832,0.18269350344118693,-0.13183917870522296,0.01755817239585497,-0.1831047221089976,0.132051996944516,0.017348099052311466,-0.183088581883483,-0.13204774194696706,0.017347965183057812,-0.02004040542851859,-0.008790787815807975,-0.08068423465485276,-0.5630473770597583,0.07679847544289538,-0.0021566012219043627,0.042031270400666995,0.008790787815807975,0.08068423465485276,0.5630473770597583,0.07679847544289538,0.019748612563004083,0.07057067077947905,0.0,3,0.3,0,9,0.05492490210521709,10.063843695123008,0.04165470700279469,90.44555885091387,0.10242756766886334,0.0,0,0,0,0
0.04,0.0,1,1,1,1,1,1,1,1,0.02984442130731541,0.0,0.023873835730056265,0.7853556335166999,0.0,0.6281824388956546,-0.0006672155357265793,-9.919404452354612e-05,0.30790990969573273,-0.0060801982566186475,0.003275741124429299,8.105356205623447e-05,0.18273345005603905,0.13204386233931548,0.017357937628633274,0.18258529619038733,-0.13177836930755635,0.017706211401530614,-0.18317904280461686,0.1320403048518828,0.01735668727214265,-0.18314281949433542,-0.13205893350138892,0.017356238462259227,-0.024325171358965867,-0.00923072021250228,-0.09152664946092881,-0.07730222257779906,0.08537738428458906,0.04498610932148264,0.054169592666281276,0.00923072021250228,0.09152664946092881,0.07730222257779906,0.08537738428458906,0.021112273591426377,0.08451258647020994,15.0,3,0.3,0,9,0.07547448458255529,10.181842022774646,0.048887268272506036,98.21082801942796,0.10470714415268813,15.0,0,0,0,0
0.05,0.0,1,1,1,1,1,1,1,1,0.03769768309009279,0.0,0.030154717620856746,0.7853261782777381,0.0,0.628088189080048,-0.000930221915970537,-0.00014941177103577736,0.3069673307711134,-0.004849989567956139,0.004133971698337291,0.00036782222848589916,0.1826412413088387,0.13204384203711272,0.017366755804423872,0.18248586936635425,-0.13172949175279622,0.017854885800382553,-0.18324769847715056,0.13203414971371774,0.017365039758429707,-0.18321756222206612,-0.13206514214714682,0.017364755632533063,-0.027072876729517626,-0.005323883247127101,-0.09571222435178865,-0.020069502262035414,0.0888549834148549,0.020540918302342413,0.06477055981961041,0.005323883247127101,0.09571222435178865,0.020069502262035414,0.0888549834148549,0.009613799318514332,0.07970824238525184,0.0,3,0.3,0,9,0.07353059407845985,10.162821103636055,0.04988670271859143,104.57014455687552,0.11093709553777797,0.0,0,0,0,0
0.06,0.0,1,1,1,1,1,1,1,1,0.04555057281195724,0.0,0.036434409055038704,0.7852889721864452,0.0,0.6279691434181958,-0.0012128478599251922,-0.00023090388264493383,0.3060206393591558,-0.005695349820545722,0.005112168093107661,0.0008201468363125097,0.18254018863091698,0.1320450367574446,0.01737570656531154,0.1823896556403245,-0.131679859783607,0.018002506672188306,-0.18332108656917534,0.1320231314730548,0.017373459481147713,-0.18328647385875038,-0.13207615003212808,0.01737316178571255,-0.027940854331239152,-0.004615690888959314,-0.09455797852161932,0.11084152749303072,0.09263586208219343,0.058823028750242035,0.0734914271431964,0.004615690888959314,0.09455797852161932,0.11084152749303072,0.09263586208219343,0.02238861969520333,0.10049573772735904,0.0,3,0.3,0,9,0.09420904898821811,11.720160563319434,0.04690287922551297,105.62780360693436,0.10655297818875795,0.0,0,0,0,0
0.07,0.0,1,1,1,1,1,1,1,1,0.05340301296805755,0.0,0.04271266212113687,0.7852440156100309,0.0,0.6278253066098166,-0.0014983583038515134,-0.00023685175269923456,0.3050925742981472,-0.003237264695839159,0.006028667555205036,0.001124742779685039,0.1824510486474048,0.13204796748663847,0.017384390397699567,0.1822894211816637,-0.1316294608160302,0.018150146269458184,-0.1833856505441353,0.13201977027249087,0.01738167221926018,-0.18336175365966423,-0.13207951920840102,0.01738161590197035,-0.02818993550024515,-0.0007805557373196715,-0.08984794252709691,0.05385627812507284,0.09588744549321826,0.02196314428027043,0.0815929484683027,0.0007805557373196715,0.08984794252709691,0.05385627812507284,0.09588744549321826,0.02074951784086644,0.10312302204648881,0.0,3,0.3,0,9,0.09691830774407677,14.471576194689286,0.05124439528665371,114.89566134843224,0.09884448831829559,0.0,0,0,0,0
0.08,0.0,1,1,1,1,1,1,1,1,0.06125492605797953,0.0,0.048989228964470284,0.7851913089921981,0.0,0.6276566843333414,-0.0017884189810062187,-0.000266561921507346,0.30423623025932195,-0.003829405907916056,0.007102955055961591,0.0016764162735086344,0.18235139986617185,0.13205350490325862,0.01739318809677559,0.18219879506288517,-0.1315774093259024,0.01829629485475545,-0.1834535504996577,0.1320100744387965,0.017389945642065918,-0.18341953050182028,-0.1320892143198888,0.017389817620586917,-0.028174497194856117,-0.003193999498751568,-0.08328917282502978,-0.0785905313257999,0.11471984060949143,0.07299657678781148,0.08942942325283565,0.003193999498751568,0.08328917282502978,0.0785905313257999,0.11471984060949143,0.024007347823341192,0.1166307705749284,0.0,3,0.3,0,9,0.10747984957303298,15.094596735490526,0.04767706890116504,110.54972194056025,0.09195506479651253,0.0,0,0,0,0
0.09,0.0,1,1,1,1,1,1,1,1,0.06910623458651093,0.0,0.055263861796927174,0.7851308528531393,0.0,0.627463283245689,-0.002067808875027533,-0.0002895427290826861,0.30342999749030186,-0.0041966579618327145,0.008115117161564989,0.002254937983393546,0.18226025667429424,0.13205939479926776,0.017401818860102808,0.18211062523129717,-0.13152537501738332,0.018441824361809717,-0.18351664640325738,0.13200191717825055,0.017398122482964073,-0.1834764522552623,-0.13209741230338043,0.01739796419251391,-0.02638719201221876,-0.0005182887318132636,-0.07721772263864338,0.03657201248353168,0.09647508106896589,0.06503482171326848,0.09549342659872968,0.0005182887318132636,0.07721772263864338,0.03657201248353168,0.09647508106896589,0.009770959916341304,0.10578267524688426,0.0,3,0.3,0,9,0.1003838368219407,16.477644522883406,0.0492885933878981,116.62256920796358,0.08386227237658166,0.0,0,0,0,0
0.1,0.0,1,1,1,1,1,1,1,1,0.07695686106440629,0.0,0.06153631290674721,0.7850626477895362,0.0,0.6272451109820033,-0.002323307199684802,-0.00028908551800791576,0.3026894835807642,-0.0036774084676603363,0.008971809594281233,0.0029183959150956094,0.1821785362195927,0.13206786116135072,0.017410270609858447,0.18202705493062762,-0.1314718355987986,0.018586723897155266,-0.18357420824334167,0.1319945394004237,0.01740619172951921,-0.18353129001073584,-0.13210490220673368,0.017406064076206013,-0.02178487225887911,0.001969462089316501,-0.0740136115979397,0.09020923223111882,0.06736139393801152,0.05873661906622629,0.0987417333232854,0.001969462089316501,0.0740136115979397,0.09020923223111882,0.06736139393801152,0.0027996938405209157,0.10351088925312282,0.0,3,0.3,0,9,0.1071650395594711,17.50019903325356,0.04941339523265013,107.20311373314166,0.07840516321871716,0.0,0,0,0,0
0.11,0.0,1,1,1,1,1,1,1,1,0.08480672800915168,0.0,0.06780633466830074,0.784986694474539,0.0,0.6270021761553536,-0.0024970380171767154,-0.0002336219545508087,0.3019588830780994,-0.0016443350542755908,0.00946748625241245,0.0035666068889452828,0.18211138288125256,0.13208014193475395,0.017418558476027884,0.18194382664404657,-0.13141364798899505,0.018728250905766547,-0.18362759284294494,0.13199037218397985,0.01741417666735079,-0.18358810846590193,-0.1321091610242479,0.017414228948769872,-0.010075362059449802,0.0067640717815191705,-0.0753838589333679,0.19841145656197134,0.016757444109373475,0.06886664174194988,0.09488209006860147,0.0067640717815191705,0.0753838589333679,0.19841145656197134,0.016757444109373475,0.0010603070736491388,0.10270646892376978,0.0,3,0.3,0,9,0.10519838808736784,22.32106504654721,0.054949662040278256,110.81173545669601,0.08049939265819374,0.0,0,0,0,0
0.12,0.0,1,1,1,1,1,1,1,1,0.09265575794572947,0.0,0.0740736795518646,0.7849029936577795,0.0,0.6267344883563855,-0.0025495360829197004,-0.0002135951733593509,0.3011838233337222,-0.0024133168619642153,0.009434585708291365,0.004270703196915706,0.18204491603863462,0.13208944158850544,0.017426805497821524,0.18187261604254076,-0.13135746913897853,0.018868460857693697,-0.18369022124704068,0.13198231560252996,0.017422436040701594,-0.18363559378904143,-0.13211720495243828,0.017422448728600964,-0.0025375110857081802,0.0004279586388229237,-0.07450928489180084,-0.12585320730731456,0.009497604419079665,0.0692078922031407,0.09519326903143766,0.0004279586388229237,0.07450928489180084,0.12585320730731456,0.009497604419079665,0.004865787348723893,0.10048701501898447,0.0,3,0.3,0,9,0.09619035212536955,20.1323696138586,0.05278122311319192,108.33303669222619,0.08428750060243594,0.0,0,0,0,0
0.13,0.0,1,1,1,1,1,1,1,1,0.10050387340738298,0.0,0.08033810013339421,0.784811546165351,0.0,0.6264420581529608,-0.0025526107970507503,-0.00018819754104397362,0.3004654338678115,-0.002128451116183108,0.009605579609482051,0.004810892670520506,0.18199149664863135,0.13209772461914193,0.017434951758062256,0.1816764438444699,-0.1312747299148013,0.018959423550287707,-0.1837389265184083,0.13197760409350653,0.017430492158933303,-0.1836805170233863,-0.13212198969774366,0.017430590824856595,0.009520133500937972,0.0030783077896392188,-0.0766047913233495,0.025047530665047425,-0.02426128318597275,0.051503721465254594,0.09098373990644501,0.0030783077896392188,0.0766047913233495,0.025047530665047425,0.02426128318597275,0.028834378668139614,0.12289642636422385,0.0,3,0.3,0,9,0.12428795204197185,24.857529576979083,0.05650240028306354,111.6629782477526,0.08126243423679809,0.0,0,0,0,0
0.14,0.0,1,1,1,1,1,1,1,1,0.10835099693638103,0.0,0.08659934910429141,0.7847123528998051,0.0,0.6261248970897206,-0.0023810697348821074,-0.00016815408142060981,0.29963909096997077,-0.0018852228755953842,0.0091871003617372,0.005432736154095875,0.18194687819501168,0.13210662419742467,0.017443097341253766,0.18152887050078353,-0.131203593201754,0.019065482246928833,-0.1837900926711721,0.13197061513153674,0.017438754531949707,-0.183726117186973,-0.13212907656587963,0.017439024530171154,0.02239244872878929,0.0015935355601280053,-0.08333085353043501,0.05187410237014323,-0.0336364308136402,0.060085900914947185,0.08595854820759175,0.0015935355601280053,0.08333085353043501,0.05187410237014323,0.0336364308136402,0.02651344818934423,0.11406553195706398,0.0,3,0.3,0,9,0.10906149049733527,22.382327155234435,0.05294556366942897,103.64877962442922,0.09848610185835543,0.0,0,0,0,0
0.15,0.0,1,1,1,1,1,1,1,1,0.11619705108478236,0.0,0.09285717928116781,0.7846054148401324,0.0,0.6257830176876394,-0.002109525040751123,-0.00014466109377233894,0.29879847006655774,-0.0011377684829176238,0.008977172776748255,0.006136531206956158,0.18190581737538966,0.13211781566950057,0.017451304846651777,0.18129765511516252,-0.13112544882591154,0.01914719339139173,-0.18383242779385475,0.13196236352402002,0.017446947460379808,-0.18376347321375033,-0.13213746154197734,0.017447486745471003,0.03745546559769641,0.003139211600444473,-0.08911021978464835,0.07260635917446044,-0.03527782442329808,0.09412322859138914,0.07874158548708596,0.003139211600444473,0.08911021978464835,0.07260635917446044,0.03527782442329808,0.001266049310221326,0.08314684639775176,0.0,3,0.3,0,9,0.10320482534851205,25.189580219258993,0.05610076861453639,109.15666640879608,0.10356069407018889,0.0,0,0,0,0
0.16,0.0,1,1,1,1,1,1,1,1,0.12404195841520015,0.0,0.09911134361560314,0.7844907330417789,0.0,0.6254164334435333,-0.001681152068842288,-0.00011816312963013273,0.29787349482975384,-0.0008802565599084685,0.008767005279395335,0.0069955056828102605,0.18186611213764803,0.13212928791935258,0.017459684646185775,0.18121425252565107,-0.13106494604264454,0.01927520230460464,-0.1838718434521747,0.1319530515853632,0.017455319741840197,-0.18379251497420973,-0.1321468668927349,0.017456113566741094,0.04926008162169372,0.0010205204703380413,-0.0950623646356056,-0.08796880021449367,-0.010347306679742272,0.07350087677368565,0.07478187679350642,0.0010205204703380413,0.0950623646356056,0.08796880021449367,0.010347306679742272,0.025610466841917492,0.10141286410576196,0.0,3,0.3,0,9,0.09172411876935956,20.8761569234049,0.053592785686174704,103.32355412983148,0.11139492312546745,0.0,0,0,0,0
0.17,0.0,1,1,1,1,1,1,1,1,0.13188564150156615,0.0,0.10536159520389834,0.7843683086366001,0.0,0.6250251588295203,-0.001091652899993331,-8.126682403947255e-05,0.29683896376924346,0.000166735989310007,0.008337391102015701,0.007814922164884398,0.18183955512107944,0.13214245444770403,0.017468184296578287,0.18112587981967807,-0.13100234611680464,0.019400079273119097,-0.18390669565378842,0.13194468304396045,0.01746388069065863,-0.18382541615580014,-0.1321554251115702,0.017465208089881973,0.06988151980951411,0.005347597394227222,-0.10947745899778241,0.24050281447999486,-0.07144172591726554,0.08630051454811172,0.062004121692052036,0.005347597394227222,0.10947745899778241,0.24050281447999486,0.07144172591726554,0.019061080655786627,0.08641279974206588,0.0,3,0.3,0,9,0.09023487236183042,25.84634233076765,0.05582531726149498,102.02840126300634,0.14289713235465448,0.0,0,0,0,0
0.18,0.0,1,1,1,1,1,1,1,1,0.1397280229298949,0.0,0.11160768729682284,0.7842381428328743,0.0,0.6246092092924496,-0.00033416717335021495,-9.604962610626299e-06,0.29569449070345954,0.002474974148611004,0.00795500877186095,0.008633208883028768,0.1818160649162592,0.13215711454643314,0.01747696712435129,0.1810640070853365,-0.13093808325846526,0.01953292944436036,-0.1839329920559953,0.13193809582850655,0.017472595409814995,-0.18385091421202784,-0.13216219432960116,0.017474577119442225,0.08369039679158802,0.005836990763577289,-0.11770002225238603,0.1273798144828062,-0.0137198156683524,0.0841619682159988,0.05603762613830687,0.005836990763577289,0.11770002225238603,0.1273798144828062,0.0137198156683524,0.027445719080824035,0.0893203359827082,0.0,3,0.3,0,9,0.09236883128236087,22.11163084486812,0.05204058139507852,102.35526236340556,0.14443827346845664,0.0,0,0,0,0
0.19,0.0,1,1,1,1,1,1,1,1,0.1475690252990478,0.0,0.11784937330935583,0.7841002369152916,0.0,0.6241686012532984,0.0005711164808894196,4.542608576333648e-05,0.29448325175226675,0.0027639917829395764,0.007928811406656466,0.00949842748894627,0.18179029114082823,0.13217094033600657,0.017486141904797026,0.18100144421580414,-0.13087403495561503,0.019662562396672745,-0.18395375407261025,0.13192940966782993,0.01748162095587044,-0.18385912818409525,-0.13217101948053112,0.017483992984613145,0.09836269256094883,0.003768545841208444,-0.12131712618960867,-0.020766809487275002,0.016885393470387384,0.08174971572119238,0.049206332738098976,0.003768545841208444,0.12131712618960867,0.020766809487275002,0.016885393470387384,0.03609965758816344,0.08907453616747085,0.0,3,0.3,0,9,0.08464877648023163,24.96015114445806,0.055219113085634285,111.76744249929577,0.15006606118763205,0.0,0,0,0,0
0.2,0.0,1,1,1,1,1,1,1,1,0.15540857122149707,0.0,0.124086406830421,0.7839545922449259,0.0,0.623703352106518,0.0016249080618168637,8.343172024751497e-05,0.29325388737390307,0.0026041328189818917,0.008114336614822415,0.010256072575728421,0.18177497532412346,0.13218203470798282,0.017495546703314657,0.18089094267977368,-0.13079013801495462,0.019768198981900603,-0.18396207636360334,0.13192068724837167,0.017490817722202484,-0.18385530483805881,-0.1321798392942393,0.01749352087029607,0.11501957376183668,0.0008380359161565493,-0.12304719770837017,-0.02522661693031594,0.012919160424169683,0.07285939585145527,0.04038899745966039,0.0008380359161565493,0.12304719770837017,0.02522661693031594,0.012919160424169683,0.05122701097896573,0.09245404435478266,0.0,3,0.3,0,9,0.09311911876088344,26.61398393834844,0.057630795996863826,110.90261082504097,0.1536902932718685,0.0,0,0,0,0
0.21,0.0,1,1,1,1,1,1,1,1,0.16324658332408937,0.0,0.1303185416326145,0.7838012102592301,0.0,0.6232134802193492,0.002834278785894038,0.00010989089165762655,0.2920442863155975,0.002918793692418454,0.008428409559715133,0.011120814547363753,0.18177017944693932,0.13219498475765679,0.017505097063453767,0.1808592797053836,-0.13073410622136358,0.019904802063275356,-0.18395316770854037,0.1319091217434399,0.01749998382104792,-0.18383600367103972,-0.13219163164615194,0.01750322386068842,0.128092233165289,0.0014538723437377606,-0.11786849343146585,0.07247338963342252,0.06104014801502518,0.10460481687936585,0.03515435015880036,0.0014538723437377606,0.11786849343146585,0.07247338963342252,0.06104014801502518,0.02571372475324865,0.062321947255786776,0.0,3,0.3,0,9,0.07621878465493438,29.041458660619064,0.05495874810914473,121.54413618234757,0.141870628938784,0.0,0,0,0,0
0.22,0.0,1,1,1,1,1,1,1,1,0.17108298424880955,0.0,0.1365455316819254,0.7836400924720183,0.0,0.6226990049310904,0.0041913051238547045,0.00014026178908344917,0.2908205582689398,0.0036525054143795505,0.009105529191844708,0.012140144973383468,0.18177299946186512,0.13220919529171096,0.01751497089049367,0.18083365568424573,-0.13067741356425966,0.02004115367903314,-0.18393034651598897,0.131896435058397,0.017509244972378574,-0.18380268375167505,-0.1322045954469309,0.017513155001571884,0.14631915821741762,0.0014679858713953025,-0.12147865307103306,0.08135054230184782,0.06587462919685429,0.09942580683913749,0.024763826031391933,0.0014679858713953025,0.12147865307103306,0.08135054230184782,0.06587462919685429,0.037119724842787916,0.06335153674557514,0.0,3,0.3,0,9,0.0632550992102668,27.287659395179112,0.05672094176898529,107.67096290470411,0.1627657419233699,0.0,0,0,0,0
0.23,0.0,1,1,1,1,1,1,1,1,0.17891769665354415,0.0,0.1427671311474489,0.7834712404734601,0.0,0.6221599465523503,0.00573077509760578,0.00017305851412545106,0.28960295042056217,0.0043335537902275895,0.010006900584682121,0.013335366890570613,0.18178471262819373,0.1322255771747561,0.017525183698404667,0.18074012609909335,-0.1305856633233258,0.020141912543730822,-0.18389131518436663,0.13188013754953004,0.017518673621060576,-0.18374870638728305,-0.13222125437015142,0.017523395583668444,0.16427081540223354,-0.0019990135104365095,-0.11957903160863449,-0.02922187111398117,0.11289904166277907,0.12771061925174884,0.014646881251310612,0.0019990135104365095,0.11957903160863449,0.02922187111398117,0.11289904166277907,0.015056511895700064,0.03170240665744718,0.0,3,0.3,0,9,0.03853949660677597,30.439707631034004,0.05890528961143474,118.71404681689603,0.16097470427307742,0.0,0,0,0,0
0.24,0.0,1,1,1,1,1,1,1,1,0.18675064321284485,0.0,0.1489830944110912,0.7832946559300696,0.0,0.6215963263642293,0.0074450253118067055,0.0001805938336124253,0.2884239646883068,0.004572461272145065,0.011239033191002834,0.014404491158225475,0.18181425536837853,0.13223826971126926,0.017535706672785617,0.1807233763701562,-0.13052543655697493,0.020272841374610218,-0.18382979664737656,0.13186600502501933,0.017528329433365603,-0.1836765041893112,-0.13223568155545407,0.017533757507751074,0.1801601681031693,-0.0003270786050444403,-0.11107940114360683,0.17435640106774897,0.14157869957606026,0.09159177181041542,0.006590475109675559,0.0003270786050444403,0.11107940114360683,0.17435640106774897,0.14157869957606026,0.05739132260067578,0.06430887631539578,0.0,3,0.3,0,9,0.05506246880296809,30.668926946842113,0.06166896303805449,119.01222595461658,0.14387525143515276,0.0,0,0,0,0
0.25,0.0,0,0,0,0,1,1,1,1,0.19458174661869126,0.0,0.15519317607726604,0.7831103405846418,0.0,0.6210081666174844,0.009323972640292675,0.00022939950463435598,0.2873645077520427,0.006790960622530597,0.012800980525005112,0.015493058113000141,0.18186859161933505,0.1322553269704875,0.01754633479726908,0.18061701904457592,-0.13042265010322712,0.02038462646009792,-0.1837364059894718,0.13185180597215085,0.01753794884841947,-0.1835756401686954,-0.13225036956457698,0.017544294541772504,0.19874471694852142,0.0006835089178317605,-0.09566302324596983,0.15531758751758656,0.1574164813591461,0.12711521931262734,0.004162970329830151,0.0006835089178317605,0.09566302324596983,0.15531758751758656,0.1574164813591461,0.0280779567646387,0.03292443601230061,20.0,3,0.3,0,9,0.04562675868622477,38.960073090036246,0.06350034006152169,130.8483602654684,0.13516054042582953,20.0,0,0,0,0
0.26,0.0,0,0,0,0,1,0,1,1,0.2024109295812544,0.0,0.16139713098258265,0.782918296256313,0.0,0.6203954905316611,0.011675236011518531,0.00019634529971053244,0.28843374770394287,0.0046420571175971375,0.014280012491543648,0.01763084826981196,0.18210677296011007,0.13227858266647635,0.0175581563205289,0.17785673020164505,-0.1291546529729759,0.01988881043569593,-0.18345514281264771,0.13181892105765391,0.017551756735702473,-0.18325175474344388,-0.13228339059270602,0.017559863434669865,0.2764669811564241,-0.011353234313831322,0.32927918214912055,-0.2982879551465144,0.08507684773572913,0.303912230710061,0.0740560515751697,0.011353234313831322,0.32927918214912055,0.2982879551465144,0.08507684773572913,0.14251509972747836,0.22792438561647937,95.0,3,0.3,0,9,0.12139332907494016,1222.2038922874085,0.32273782137893414,551.4948556670404,0.7272941634068413,95.0,0,0,0,0
0.27,0.0,0,0,0,0,1,0,1,1,0.21023811482965918,0.0,0.16759471420552421,0.7827185248404783,0.0,0.6197583222941561,0.014919681183883416,0.00012470440225941884,0.29288106089121324,-0.006629651702797201,0.014064804904165618,0.02023093286865852,0.1825612642833093,0.13229824613564067,0.017580232356208758,0.17940507934693767,-0.12666825621738984,0.024571557570674363,-0.18738310992962606,0.1317794402950959,0.01918624373673647,-0.18270357476813995,-0.1323070374028973,0.017593177559992262,0.34970887278818363,-0.01388388060247073,0.5198931178213164,-1.8033534544989929,-0.19828809502084394,0.19257144880121324,0.13947075795852446,0.01388388060247073,0.5198931178213164,1.8033534544989929,0.19828809502084394,0.024976734595689026,0.1783313731566842,75.0,3,0.3,0,9,0.2151168654899686,967.9874558081332,0.2502159715000373,377.5326354777525,0.8819372684512605,75.0,0,0,0,0
0.28,0.0,0,0,0,0,1,0,0,1,0.21806322511274712,0.0,0.17378568107611705,0.7825110283087938,0.0,0.619096687059284,0.018390781731136285,0.00017365127585344323,0.29803084306881944,-0.015748877434503265,0.011393346553701944,0.022121322762332276,0.18317131770299513,0.13233692644559017,0.017628539466490317,0.1884640102177659,-0.12630475693126558,0.031045648345749494,-0.18969234379636157,0.1316629414521824,0.028108722732434338,-0.18124683841871025,-0.13357006393623466,0.018086493938708037,0.32359486958029626,-0.005593007362933776,0.4979859895466284,0.23513653069893148,-0.2785225004982084,0.21156609092840015,0.10553164446754915,0.005593007362933776,0.4979859895466284,0.23513653069893148,0.2785225004982084,0.03778040985228309,0.14890506168276602,50.0,3,0.3,0,9,0.14732090590251076,171.42848116879938,0.10188665964656692,110.22190737578421,0.9151313384257369,50.0,0,0,0,0
0.29,0.0,0,0,0,0,0,0,0,1,0.2258861831998389,0.0,0.17996978718558976,0.7822958087091797,0.0,0.6184106109472703,0.02165545774783674,0.00025764245273869244,0.3022717343623628,-0.012592100073148897,0.00974675017995641,0.024456225606792035,0.1862040409986064,0.13340597442465402,0.02419965427211354,0.19763881816314532,-0.12714615254559655,0.03692856242394432,-0.18779638825295383,0.1322509927561678,0.035019455940299954,-0.175960285728499,-0.13538826473130408,0.025002073229567295,0.3245573316088774,-0.006197021662623309,0.3558003710830986,0.2829565502934225,-0.08673540849508532,0.25160470691860265,0.09867114840903848,0.006197021662623309,0.3558003710830986,0.2829565502934225,0.08673540849508532,0.07163491973301289,0.1765030898046747,25.0,3,0.3,0,9,0.16236609040995145,30.40853354135877,0.0479038418300579,0.0,1.0943890695171985,25.0,0,0,0,0
0.3,0.0,0,0,0,0,0,0,0,0,0.23370691188149645,0.0,0.186146788396022,0.7820728681657535,0.0,0.6177001210432242,0.024987432599675327,0.0003298326450308969,0.30518988116683954,-0.00900575473532427,0.00910949054000354,0.026955427396085033,0.1928239229756992,0.1352249088754597,0.03822322983907642,0.2035677149766961,-0.12701531610559,0.0442503721892511,-0.1847103763761078,0.1311358546139339,0.04082494699360498,-0.1696350778742031,-0.1369006441489924,0.035381890975837105,0.3358363416901609,-0.003620722652384211,0.23274115525007638,0.43744386164188825,-0.09922905983542664,0.2641665773279115,0.10212942980866446,0.003620722652384211,0.23274115525007638,0.43744386164188825,0.09922905983542664,0.07801978893188949,0.18376994139293817,5.0,3,0.3,0,9,0.17219721245023728,39.1182655457304,0.03433484346656533,0.0,0.6430844594215621,5.0,0,0,0,0
0.31,0.0,0,0,0,0,0,0,0,0,0.241525333970285,0.0,0.19231644084998276,0.7818422088788551,0.0,0.6169652453960756,0.028363653532800966,0.0003983566119591329,0.3070148906109013,-0.004679261029601441,0.008166012219365859,0.02989542383649075,0.20055595749599267,0.1374168431800707,0.05112066500570875,0.2064678713882916,-0.1268702160747654,0.05133731800042729,-0.18021998232041483,0.1297977302990898,0.047529979038694325,-0.1631848400215135,-0.13796071160654283,0.0451921962249707,0.3355858522038657,-0.00423479116411685,0.1357950630593798,0.4370932956246864,-0.09842367750129455,0.2943193905264912,0.09406051823358072,0.00423479116411685,0.1357950630593798,0.4370932956246864,0.09842367750129455,0.10200294967650844,0.200298259074206,0.0,3,0.3,0,9,0.20826573235098572,8.35430218226455,0.017042299885344184,0.0,0.6474118468807626,0.0,0,0,0,0
0.32,0.0,0,0,0,0,0,0,0,0,0.249341372301535,0.0,0.1984785009801572,0.7816038331249997,0.0,0.6162060130174452,0.031703385377814475,0.00044589810280132054,0.3078269369114955,-0.0018899489619240996,0.007255298945522348,0.03275469222802247,0.20760567124347512,0.14031798603018653,0.061812102243566105,0.2102360275027859,-0.12620140447893413,0.05831447649161686,-0.1742337176953732,0.12924175787208278,0.05489253947476938,-0.15671594126744465,-0.1398766301435702,0.05383889237599093,0.3308384842725388,-0.007807420836836098,0.035795221541154956,0.14009887916053032,-0.08993358470725815,0.2872458973709899,0.08149711197100382,0.007807420836836098,0.035795221541154956,0.14009887916053032,0.08993358470725815,0.08876739639083267,0.1780719291986726,0.0,3,0.3,0,9,0.18188879510997347,8.41298196845082,0.0171773414423165,0.0,0.3720143361846078,0.0,0,0,0,0
0.33,0.0,0,0,0,0,0,0,0,0,0.2571549497341036,0.0,0.2046327255189626,0.781357743256858,0.0,0.6154224538805403,0.034996348752114013,0.0004770193092658237,0.30765537405945004,-0.0004936492279495073,0.006704788012904306,0.0355833237983013,0.21350712314997908,0.14364630835290493,0.07078059989317663,0.21529618966280223,-0.12599392266928577,0.06471995670735498,-0.16706775511979519,0.12903285313477453,0.062246568967702254,-0.14990440189956467,-0.1417228981377938,0.061921711767593646,0.3281535350215463,-0.0074702627188781715,-0.06988604593277815,0.19957747634643364,-0.03187075363886194,0.27507021686043237,0.07099858528744274,0.0074702627188781715,0.06988604593277815,0.19957747634643364,0.03187075363886194,0.07043749134146976,0.14890633934779068,0.0,3,0.3,0,9,0.1625124380240473,10.066749646398396,0.016725631951876197,0.0,0.10260456485427483,0.0,0,0,0,0
0.34,0.0,0,0,0,0,0,0,0,0,0.2649659891511359,0.0,0.21077887150815186,0.7811039417032317,0.0,0.614614598918925,0.03828681347551306,0.0005141038953358747,0.30644325903865577,0.0006708807093367467,0.006066702214982067,0.0383385456605222,0.21850166546966737,0.1466583140341961,0.07872450514667878,0.22032729273662524,-0.12543178870459387,0.07030499376814009,-0.15940483484864762,0.1292973869033714,0.06957343272844238,-0.14330501835476583,-0.14405630229293867,0.06890005747790112,0.33098823876883354,-0.009982913650003969,-0.16496407088124487,-0.0037189725376906395,-0.1122151634287814,0.274903380239108,0.06602224961769765,0.009982913650003969,0.16496407088124487,0.0037189725376906395,0.1122151634287814,0.06412450873095613,0.14012967199865772,0.0,3,0.3,0,9,0.14412036270215287,4.391308832185404,0.012895061420758447,0.0,0.09837774201881522,0.0,0,0,0,0
0.35000000000000003,0.0,0,0,0,0,0,0,0,0,0.2727744134608264,0.0,0.21691669630840524,0.7808424309690531,0.0,0.6137824800253378,0.041577947474777305,0.0005380209483399016,0.30432065878202413,2.4813470700108252e-06,0.005131484728305269,0.041067621285085794,0.22226067237916053,0.14945818756840362,0.08400210128980251,0.2260635956931562,-0.12451797638357405,0.07454424403127151,-0.15129672998506466,0.12932037212585,0.07665902931276856,-0.1373711525159016,-0.1457554486853192,0.0741456570979157,0.32929816779501275,-0.010933324989582986,-0.254119596343661,-0.060463452257031175,-0.07301927866027774,0.27562116205958437,0.05652375433418633,0.010933324989582986,0.254119596343661,0.060463452257031175,0.07301927866027774,0.05870446575117913,0.12616154507494845,0.0,3,0.3,0,9,0.12970497746192125,4.349013944435095,0.01311919943424466,0.0,0.3100936017773561,0.0,0,0,0,0
0.36,0.0,0,0,0,0,0,0,0,0,0.2805801455971796,0.0,0.2230459576089092,0.7805732136353161,0.0,0.6129261300503952,0.04486346902181818,0.0005634384638188908,0.3012877359872237,-0.0008338856625094419,0.004268732221955229,0.04383664025874408,0.2252188785039063,0.15152002809778858,0.08754702417364163,0.23244386548751464,-0.12352037837011115,0.07781302139953007,-0.14346977623145732,0.12943301521524275,0.08252873055965604,-0.1317812386369473,-0.14696038934262626,0.07795512447398996,0.3298968050538318,-0.011453083603011562,-0.3489613947141343,-0.0760058916494582,-0.07754209442072799,0.2770717845726293,0.0493166594566522,0.011453083603011562,0.3489613947141343,0.0760058916494582,0.07754209442072799,0.05402582696372013,0.11479557002338389,0.0,3,0.3,0,9,0.1201070937104894,2.2005806379094954,0.009084276079765212,0.0,0.5833052643993,0.0,0,0,0,0
0.37,0.0,0,0,0,0,0,0,0,0,0.2883831085207705,0.0,0.22916641343692262,0.7802962923590895,0.0,0.6120455828013432,0.04815475245443902,0.0005904299039368096,0.29730663635809085,-0.0014001730796770297,0.003597834473126671,0.04666248665802397,0.22829497640176835,0.15333257022439237,0.09040156585649348,0.23856282275457757,-0.12241976898014524,0.08034873034805251,-0.1360644973437926,0.12938163570967764,0.0867940268320696,-0.1265738898251455,-0.14797202443030205,0.08030495385976244,0.3313456126678023,-0.011279609115575111,-0.4457737397705154,0.013478102127913373,-0.06885819153155637,0.2843756674315804,0.042962504147031844,0.011279609115575111,0.4457737397705154,0.013478102127913373,0.06885819153155637,0.05520925399465776,0.10945136725726472,0.0,3,0.3,0,9,0.11357932966596429,3.2431732466716716,0.007803379005944963,0.0,0.8304691541910247,0.0,0,0,0,0
0.38,0.0,0,0,0,0,0,0,0,0,0.29618322521950524,0.0,0.23527782216732931,0.780011669873476,0.0,0.6111408730406692,0.0514552236396664,0.00062910463414125,0.292376013320093,-0.0009125480576034156,0.0030313896730644885,0.04949959876050752,0.23238638165543726,0.15474176793978772,0.09340154764898795,0.2439472466612792,-0.12089342488209481,0.08163044177462166,-0.1296166078758978,0.12902405624459312,0.08872958072944326,-0.12170502520701004,-0.1492699211798279,0.08101097882610483,0.33170988906245563,-0.01195469389675642,-0.5374272812082814,0.03824258673597745,-0.05534858057705089,0.28159609299910093,0.03552666384295039,0.01195469389675642,0.5374272812082814,0.03824258673597745,0.05534858057705089,0.04631827083177162,0.09379962857147843,0.0,3,0.3,0,9,0.10047513136044468,3.390201325709821,0.010188651829136358,0.0,1.036871649032966,0.0,0,0,0,0
0.39,0.0,0,0,0,0,0,0,0,0,0.3039804187093811,0.0,0.24137994253217698,0.7797193489875842,0.0,0.6102120364847669,0.05474449918185007,0.0006732245070155433,0.2865451895352761,-0.0001265129648731663,0.002772884043539481,0.052349517288380575,0.237466919398504,0.1560192222900796,0.09564105299427103,0.2488283969457929,-0.11936259818053185,0.08119833423943174,-0.1240471275353458,0.12856476087997876,0.08810606843200987,-0.11682102758159851,-0.15060593609741224,0.0794374114667143,0.3277407766284782,-0.012797637658599273,-0.6244802437396537,0.058299580939776004,0.026416574158343472,0.28834827687986825,0.02376035791909714,0.012797637658599273,0.6244802437396537,0.058299580939776004,0.026416574158343472,0.046968334347691265,0.08352632992538768,0.0,3,0.3,0,9,0.08794150288094019,1.727367612640737,0.009556878543339576,0.7941523570735514,1.2638020484263852,0.0,0,0,0,0
0.4,0.0,0,0,0,0,0,1,0,0,0.3117746120352462,0.0,0.2474725336302022,0.7794193325865117,0.0,0.6092591098025207,0.05794373818883545,0.0007183030923797965,0.28000281191754656,0.0005565167158729786,0.0032233594092812012,0.0552066850997123,0.24397223566121362,0.15740147595871187,0.09390980517646982,0.2517878330235963,-0.11770755112920045,0.08034553035680893,-0.11943813842151518,0.12822919450703063,0.08286749095030393,-0.11180267333910429,-0.15219691620804834,0.07387276619360444,0.31300954115689633,-0.012547547204122277,-0.6716998902452759,0.06538244493488106,0.03517676184165446,0.2752882359266179,0.0012349291216501301,0.012547547204122277,0.6716998902452759,0.06538244493488106,0.03517676184165446,0.027815702296415695,0.041598178622188106,15.0,3,0.3,0,9,0.06369379610506312,9.401697229588791,0.03252145078277541,32.079523975815945,1.2879559257008273,15.0,0.0,0.13999999999999999,0.0,0.0
0.41000000000000003,0.0,0,0,0,0,0,1,0,0,0.31956572827155894,0.0,0.2535553549363405,0.7791116236312734,0.0,0.6082821306138325,0.06095204142939694,0.0008022348577227844,0.27298801011372764,0.000508358310721671,0.003079225173127087,0.0577647317906661,0.25166515641204634,0.15760266749132,0.08894347699571771,0.25195139168057573,-0.11746262166571057,0.08028676195491587,-0.11547400942086972,0.12788683095990544,0.07359438600021488,-0.10597514226339114,-0.15419069971085303,0.06690783225260961,0.2921060630742373,-0.004736470345740443,-0.7362268316257077,-0.16195405649812153,-0.05591823268974831,0.23091680942936027,0.027459665197321625,0.004736470345740443,0.7362268316257077,0.16195405649812153,0.05591823268974831,0.022638545506980245,0.054834681050042314,25.0,3,0.3,0,9,0.03688064563275874,8.669592738806836,0.03769810898838722,53.325166817584204,1.3774718173509481,25.0,0,0,0,0
0.42,0.0,0,0,0,0,0,1,0,0,0.32735369052314756,0.0,0.2596281663112222,0.778796225158862,0.0,0.6072811374881693,0.06374407050320842,0.0009708667369224634,0.2652495948594461,-0.0022969149376140877,0.0021467759191104996,0.059734345506719716,0.25882108090352984,0.156569217626057,0.08529473659135094,0.25190839602679815,-0.11743292685929337,0.08032890114444446,-0.11080015601264592,0.1269919144041713,0.06336432907960049,-0.09816649365933733,-0.15595886913948454,0.06409627367841257,0.27325397719431554,0.006084524286940926,-0.8095517473925941,-0.46448673998038675,-0.16267872427864438,0.17655615066660676,0.05409971332883201,0.006084524286940926,0.8095517473925941,0.46448673998038675,0.16267872427864438,0.08307201564461544,0.14325625326038838,25.0,3,0.3,0,9,0.11297358399037467,9.549981742260737,0.03301254705017461,44.65584466194478,1.568247686764563,25.0,0,0,0,0
0.43,0.0,0,0,0,0,0,1,0,0,0.33513842192596877,0.0,0.2656907280106526,0.778473140282121,0.0,0.6062561699430369,0.06639428547611267,0.0012188619084849584,0.2567774207870001,-0.008199698719974209,-0.0005390846880319877,0.06129234288352487,0.26377174089795796,0.15453398238865276,0.08026653182621864,0.25187332496493237,-0.11739983114470366,0.0803687269070247,-0.1056244295368686,0.12625580010429083,0.051552351679712546,-0.09100554750472112,-0.15816104071211626,0.06248308346462372,0.2602483989392388,0.020903078596013567,-0.8809336562197188,-0.7086817714741978,-0.3742011384323416,0.1270468675508711,0.07489002298672998,0.020903078596013567,0.8809336562197188,0.7086817714741978,0.3742011384323416,0.13864386045978147,0.234436962042525,25.0,3,0.3,0,9,0.19483650912214542,7.3280495282669404,0.03536174214545245,45.792240259233026,1.6642890921388318,25.0,0,0,0,0
0.44,0.0,0,0,0,0,0,1,0,0,0.3429198456478665,0.0,0.2717428006950765,0.7781423721897718,0.0,0.6052072684423926,0.06894018222784713,0.0015533285978159427,0.24774738858505554,-0.017469546238858963,-0.00584210080172487,0.06248286278367464,0.26565240023981174,0.15231617888607346,0.07000149353116407,0.25186622632178707,-0.11735648038012589,0.08040034374677266,-0.10183853678564461,0.1255116254442406,0.03319254440280152,-0.0865437987011029,-0.1608183961772033,0.059528930273777425,0.24650570818371748,0.03913305800286078,-0.9202123028292801,-1.1492271592690453,-0.7226319504107392,0.10164215250651613,0.09641413746414901,0.03913305800286078,0.9202123028292801,1.1492271592690453,0.7226319504107392,0.17010064818856035,0.30564784365557013,25.0,3,0.3,0,9,0.2782007195858004,22.18868159322096,0.04857191157183312,62.10472776747646,1.7746510710604646,25.0,0,0,0,0
0.45,0.0,0,0,0,0,0,1,1,0,0.3506978848893299,0.0,0.2777841454390272,0.7778039241463419,0.0,0.6041344743950683,0.07135619907749069,0.0020494769868744465,0.23854746032687235,-0.031656776418960246,-0.014967706065467157,0.0636249878182979,0.26546061214306765,0.1494768886840926,0.0524413640403187,0.2519011341728056,-0.11727728840746615,0.08041112670751997,-0.10057804683356222,0.1242010263653616,0.015865126295973295,-0.08448296294152274,-0.16455008403689125,0.051680646566414024,0.21911852491851339,0.07686536190578379,-0.9220809474008065,-1.811175669545902,-1.1800254738011502,0.11697399274138079,0.13157935997081652,0.07686536190578379,0.9220809474008065,1.811175669545902,1.1800254738011502,0.1608101526976464,0.36925487457424666,30.0,3,0.3,0,9,0.35773060194977147,49.363403973526985,0.06628069498828924,167.4389196013298,2.1230679041877982,30.0,0.0,0.0,0.17,0.0
0.46,0.0,0,0,0,0,0,1,1,0,0.35847246288425194,0.0,0.28381452374055854,0.7774577994922038,0.0,0.6030378301531358,0.07343955884095045,0.0026108542228998736,0.23028979702875393,-0.04331695006144249,-0.022456135387884935,0.06702337016229011,0.26043217533436047,0.14630953996404628,0.028978939361675185,0.25196253604256025,-0.11713693553189017,0.08039525018651486,-0.10100453923488953,0.12413306098854009,0.01591804349639049,-0.08309200829434576,-0.16856114863376742,0.03996202802337179,0.1816977105432377,0.06196101489228048,-0.7500423328499881,-0.6805335789687952,-0.39039272472143,0.47652704455561873,0.17677475234101425,0.06196101489228048,0.7500423328499881,0.6805335789687952,0.39039272472143,0.19271252081506018,0.4314482880483549,50.0,3,0.3,0,9,0.3397097479198762,224.0682479402035,0.15554234048030818,329.4221148353254,0.776304749874317,50.0,0,0,0,0
0.47000000000000003,0.0,0,0,0,0,0,1,1,0,0.3662435029006865,0.0,0.28983369753066096,0.7771040016434583,0.0,0.6019173790102417,0.07534996772855555,0.002997986700413215,0.22344645274402164,-0.04815250581939714,-0.022914960208295643,0.07117413906834315,0.2525420241297617,0.14469152913589545,0.01541810833623368,0.25204050431712777,-0.11701191300492855,0.08038191015835934,-0.10126021150204295,0.12406719426151466,0.015949768782981613,-0.07620200002860084,-0.17389765358373188,0.030389571906528356,0.1775891982537679,0.05276880661189773,-0.6160711127902264,-0.4639882963134403,0.2203101270331855,0.33193652947369584,0.18865430464691862,0.05276880661189773,0.6160711127902264,0.4639882963134403,0.2203101270331855,0.04210283194303488,0.2835259432018512,50.0,3,0.3,0,9,0.3529488683225746,327.4565480719649,0.2057028619609651,325.8723099671656,0.686642227965732,50.0,0,0,0,0
0.48,0.0,0,0,0,0,1,1,1,0,0.3740109282416059,0.0,0.29584142918265965,0.7767425340919398,0.0,0.6007731651998693,0.07735078073442064,0.0032555060712455065,0.21814058669292308,-0.048452130995193333,-0.02161590879499431,0.07484168746122934,0.252156446391511,0.14478927156883922,0.015447326738291883,0.2521985522882899,-0.11689807523325431,0.08036062151704523,-0.10137775278873398,0.1239952284972252,0.015972399430692757,-0.07116973561712012,-0.17757076866095722,0.01761413600976071,0.20649869639579313,0.025781820331391283,-0.4511723343672079,0.4126630892002119,-0.0352782900981279,0.42399859733463924,0.1675122318458128,0.025781820331391283,0.4511723343672079,0.4126630892002119,0.0352782900981279,0.12815716815197958,0.32145122032918366,75.0,3,0.3,0,9,0.30130190165561666,292.2981904666742,0.17590824336046443,319.97855683557225,0.43905317879855965,75.0,0.19000000000000003,0.0,0.0,0.0
0.49,0.0,0,0,0,0,1,1,1,1,0.3817746622456579,0.0,0.3018374815215959,0.7763734004052003,0.0,0.5996052338936242,0.07948146385563828,0.0035341662142111454,0.2146984099096974,-0.04414496131407557,-0.021762787119421256,0.07853855313289396,0.2512314394407823,0.1451175875270526,0.015472035645969981,0.2524235386383249,-0.11678036898679837,0.08032596093630057,-0.10136843349842642,0.12394846317781164,0.01598980040592525,-0.07084371486120722,-0.17774394894721515,0.01615274161966737,0.2067351381740545,0.034200174013957155,-0.23248336549027454,0.2022776733068856,0.1204198661801696,0.3066844855578855,0.17503952407160342,0.034200174013957155,0.23248336549027454,0.2022776733068856,0.1204198661801696,0.004847004036289626,0.21408670212185021,90.0,3,0.3,0,9,0.2573479901742582,361.26943443236775,0.1910995061612932,432.2498219256883,0.704539559593769,90.0,0.0,0.0,0.0,0.19000000000000003
0.5,0.0,1,1,1,1,1,1,1,1,0.3895346282879222,0.0,0.3078216178335902,0.7759966042264255,0.0,0.5984136311994293,0.08167531832004948,0.003975152440516968,0.21346658735697396,-0.04435862059540055,-0.018815173251024886,0.08158893497959908,0.2509151496380082,0.14521718657365296,0.015492037297351033,0.2527088772887867,-0.11665388004633072,0.08027773219992689,-0.10120647300193433,0.1239327153695999,0.016005370611430772,-0.07062816778536835,-0.1777466518300643,0.016170795350268427,0.23677898819907,0.02733874073358346,-0.021358321845199695,-0.10816107295305978,0.42393012675796365,0.3442909789657169,0.15275564008885217,0.02733874073358346,0.021358321845199695,0.10816107295305978,0.42393012675796365,0.03646936113212673,0.21656374195456238,80.0,3,0.3,0,9,0.2111296736546982,406.9951016426265,0.17954256660851034,376.15737634838564,0.09636297731117927,80.0,0,0,0,0
0.51,0.0,1,1,1,1,1,1,1,1,0.3972907497806668,0.0,0.3137936018751874,0.7756121492744628,0.0,0.5971984041597211,0.08412014375492703,0.004349370171996644,0.21355728944879926,-0.048977836227006764,-0.0137143588698323,0.08554754667287597,0.2431493827916363,0.14450139046380556,0.015598243391457933,0.25305185113272144,-0.11651868270161658,0.08021989491581531,-0.10096595225235933,0.12389942965382565,0.01602216534792146,-0.0703566844970959,-0.17773300251771273,0.016190762340416373,0.25621489901105493,0.012466793994132416,0.03174883821021123,-0.38864559254702147,0.4954968363575802,0.45472817723097997,0.14107585076961188,0.012466793994132416,0.03174883821021123,0.38864559254702147,0.4954968363575802,0.14093457535579257,0.29447722011953686,0.0,3,0.3,0,9,0.2792939986093058,248.4289446997876,0.13338683164668474,217.82968110112915,0.29175508745441214,0.0,0,0,0,0
0.52,0.0,1,1,1,1,1,1,1,1,0.4050429501741038,0.0,0.31975319788268336,0.7752200393436992,0.0,0.595959600749596,0.08678755273698803,0.004717052939386724,0.21411928462359953,-0.050044068495293,-0.00948752664800856,0.08944227679750753,0.23160123621337836,0.14375371020757086,0.015806483883845077,0.2534259520113288,-0.11639324472736531,0.08016391943915081,-0.10068206346257558,0.12387657750162218,0.016039222335313963,-0.07057028769462029,-0.17703427036757438,0.01621483440310592,0.2797021725128061,0.010851308496677491,0.07384861673215043,0.07281320243138366,0.2976891008676842,0.36270630717945723,0.1253407776612977,0.010851308496677491,0.07384861673215043,0.07281320243138366,0.2976891008676842,0.04295310929677387,0.17914519545474905,0.0,3,0.3,0,9,0.22399521412078188,198.52115920888588,0.1307292337923163,188.73757033096837,0.11242425208596063,0.0,0,0,0,0
0.53,0.0,1,1,1,1,1,1,1,1,0.4127911529571451,0.0,0.325700170581432,0.774820278304128,0.0,0.5946972698748665,0.08960246146555095,0.0051392041414154545,0.21502397417552715,-0.050395636802988086,-0.0074642228256389664,0.09286917353057637,0.22142003577547154,0.14280185990091548,0.015988198309310503,0.25382009414049533,-0.11627236210013817,0.08010754244127316,-0.10039220691594916,0.12386278070493642,0.016056546491983695,-0.07164811234562254,-0.17554507023400914,0.01624696346561995,0.29312146866572836,0.012802397050511134,0.0995906325508234,-0.11150788516373454,0.054148519212918245,0.34228227991271587,0.11966968429141672,0.012802397050511134,0.0995906325508234,0.11150788516373454,0.054148519212918245,0.016582109331283845,0.1490541906732117,0.0,3,0.3,0,9,0.16262328403005338,117.13661928738375,0.10819771813023012,157.58059493637978,0.15184510127454776,0.0,0,0,0,0
0.54,0.0,1,1,1,1,1,1,1,1,0.4205352816581571,0.0,0.3316342851951342,0.7744128701012043,0.0,0.593411461370219,0.09260111520881321,0.005610378861102375,0.21612485422337815,-0.05066386103651696,-0.0078492095458631,0.09602292666854126,0.21278925975098475,0.1416391152868215,0.016138937104436313,0.25423460003183584,-0.11615698574448625,0.08005180362929389,-0.10009387713659154,0.12385724496487109,0.016074326171985495,-0.07352058144821882,-0.1736278361122996,0.01628978210229297,0.31260227794919593,0.015255855735383416,0.11682254237935329,0.07776249156923157,-0.14208453095176593,0.2885291359826717,0.1079330037089612,0.015255855735383416,0.11682254237935329,0.07776249156923157,0.14208453095176593,0.0431051492124625,0.1662940086568071,0.0,3,0.3,0,9,0.14877115162204346,121.88096677087205,0.10419172397862672,151.8986101620088,0.1256983943271116,0.0,0,0,0,0
0.55,0.0,1,1,1,1,1,1,1,1,0.42827525984571624,0.0,0.3375553074551057,0.7739978187559116,0.0,0.5921022259971487,0.09573415784089993,0.006144269656080207,0.2174311045014454,-0.050801320857024004,-0.009505380876452252,0.09913146999107694,0.2065326882461032,0.14044622154937322,0.016245244610830406,0.2546613219777889,-0.116039073991598,0.07999447319738287,-0.09978520498384583,0.12385594881258793,0.016092530106649044,-0.075230575175361,-0.17208589503710042,0.01633061752741645,0.3237721201369276,0.017054299691844237,0.1424061737140376,-0.013718073927087057,-0.20856111076999728,0.29683139983516316,0.10450313970878866,0.017054299691844237,0.1424061737140376,0.013718073927087057,0.20856111076999728,0.040723907619942545,0.16228134702057545,0.0,3,0.3,0,9,0.15451291246743604,109.97540397136802,0.10122043695246037,157.74719765437953,0.17759015490375873,0.0,0,0,0,0
0.56,0.0,1,1,1,1,1,1,1,1,0.4360110111293624,0.0,0.34346300360952614,0.7735751283646175,0.0,0.5907696154420439,0.09897706052050924,0.0067307118227958596,0.2190242210976596,-0.050729663911697004,-0.011618493203697122,0.10214878607745904,0.20296270149557466,0.13963996777857815,0.01630666348990978,0.2550966345952677,-0.1159209550965366,0.07993672329025955,-0.09945602163021613,0.12386023742401799,0.016111296753067925,-0.07640086049207487,-0.17096115635679954,0.01636589227155963,0.33526430353299813,0.01698626886997498,0.17384149680114613,-0.06317842388775011,-0.20845654466687397,0.32450149894971975,0.10074670759636428,0.01698626886997498,0.17384149680114613,0.06317842388775011,0.20845654466687397,0.018961504659806394,0.13669448112614566,0.0,3,0.3,0,9,0.16710646826253714,120.37075012604046,0.10410264858753951,166.20230968323074,0.14405323468417996,0.0,0,0,0,0
0.5700000000000001,0.0,1,1,1,1,1,1,1,1,0.44374245916035343,0.0,0.3493571404326669,0.7731448030991017,0.0,0.5894136823140772,0.10231440592770515,0.007349140499535887,0.2209525978723337,-0.05114749703394718,-0.013215235911775869,0.10570127940046159,0.20139488315373857,0.13921051266726558,0.01634393847092508,0.25554191972118656,-0.11579681914843346,0.07987661308079447,-0.09910370801612059,0.1238626474777326,0.01613064531315332,-0.07688928185787255,-0.17033030833400692,0.01639737750344472,0.3485844167338702,0.01830208319317012,0.2043348323607211,0.03649515893450173,-0.175101312300507,0.32959608566623566,0.09515804242648324,0.01830208319317012,0.2043348323607211,0.03649515893450173,0.175101312300507,0.019761054766431252,0.1332211803860846,0.0,3,0.3,0,9,0.12662753266958662,125.01670525022227,0.1047935958272003,168.09718796891406,0.14070489987441614,0.0,0,0,0,0
0.58,0.0,1,1,1,1,1,1,1,1,0.45146952763241865,0.0,0.3552374852340987,0.7727068472065224,0.0,0.5880344801431792,0.10578493018936562,0.008016579659760135,0.22320607720569283,-0.05132641361166482,-0.014457829837463798,0.10920875953316794,0.20097739158181427,0.13904047323751118,0.016370951553061563,0.25599644722603676,-0.11567205126048125,0.07981615224794208,-0.09872425273115754,0.12386958721644471,0.01615110236610065,-0.07655317231922501,-0.17023945459388473,0.016422938880834986,0.35970888177346766,0.016354997637396118,0.24267520728145683,-0.11037082622639147,-0.06898893044670612,0.3931576215871425,0.091760645858951,0.016354997637396118,0.24267520728145683,0.11037082622639147,0.06898893044670612,0.03792013635304381,0.14603577984939092,0.0,3,0.3,0,9,0.13393671700633045,136.1892168521574,0.11160239779876358,175.0794966739119,0.12701319241551556,0.0,0,0,0,0
0.59,0.0,1,1,1,1,1,1,1,1,0.4591921402825117,0.0,0.3611038058678774,0.7722612650093053,0.0,0.5866320633778677,0.10934109887259154,0.008726891892855894,0.22586916964826115,-0.051484851247106354,-0.014631937672183737,0.11300546875236862,0.20131504671385073,0.1391195035469235,0.016393030438921763,0.256456174611257,-0.1155465534468968,0.07975560665231143,-0.09831555236265163,0.12388398313883503,0.016172796648313892,-0.07616634245522402,-0.17012825567832054,0.016449641446325936,0.3723867607366012,0.0193708256937379,0.2792183658274917,0.059098133320091714,-0.04420619478265064,0.35259341692896323,0.0868053795459105,0.0193708256937379,0.2792183658274917,0.059098133320091714,0.04420619478265064,0.008510388938914148,0.11468659417856256,0.0,3,0.3,0,9,0.12644418126510593,143.521979402811,0.1139425773694672,173.47904121025135,0.1583506963915271,0.0,0,0,0,0
0.6,0.0,1,1,1,1,1,1,1,1,0.46691022089156364,0.0,0.3669558707417092,0.7718080609051936,0.0,0.585206487383183,0.11303667545796844,0.00948629581529462,0.22887608556609232,-0.051406058800003596,-0.014775043269750876,0.11660599113372351,0.20168432378537637,0.13920207201857282,0.01641627087460734,0.2569248647564187,-0.11542410870578598,0.0796962038561835,-0.09788274451007647,0.12390568686972872,0.01619591487553669,-0.07612107220225747,-0.1694739159833533,0.01648003689957045,0.38677960168133524,0.018399957423480228,0.3132631222071947,0.09355055124618364,-0.013366248561455487,0.36856864782569765,0.0801306192102284,0.018399957423480228,0.3132631222071947,0.09355055124618364,0.013366248561455487,0.001612777083988437,0.10014335371769707,0.0,3,0.3,0,9,0.10480954754860358,141.86126109673123,0.11011096026891347,168.2075931084326,0.17238377656804516,0.0,0,0,0,0
0.61,0.0,1,1,1,1,1,1,1,1,0.4746236932852346,0.0,0.3727934488260932,0.7713472393670984,0.0,0.583757808438401,0.11683305193501728,0.010288601550384913,0.23221856213745445,-0.051247286920021985,-0.014524527556116773,0.12048087119973479,0.20206383803652989,0.1392863531443306,0.016440404183355156,0.2574004265647897,-0.1153002882160046,0.07963650527650479,-0.09743152896719431,0.12392881109195818,0.016220384512021818,-0.076571723261106,-0.16809973270046807,0.016517184561213732,0.3977542380377565,0.017341888089852407,0.3448647246384749,-0.024764700850061914,-0.0009180934072532225,0.38983740300372727,0.07686945524747812,0.017341888089852407,0.3448647246384749,0.024764700850061914,0.0009180934072532225,0.017043954177634046,0.11125529751496457,0.0,3,0.3,0,9,0.1168162418703399,133.7312902920883,0.10148289522285854,163.8794643423505,0.21799575315999964,0.0,0,0,0,0
0.62,0.0,1,1,1,1,1,1,1,1,0.4823324813346662,0.0,0.3786163096634422,0.7708788049431592,0.0,0.5822860837348953,0.12076117671743138,0.011139615107385438,0.23583764351035244,-0.05104586894237229,-0.014566640777562423,0.12421287820169412,0.20246416181674026,0.1393711091555908,0.01646615738506038,0.25788372531545056,-0.11517997627932966,0.07957837948737259,-0.09696350782600544,0.12395996147837722,0.016246180939146898,-0.07707547919545019,-0.1669597144138826,0.01655602455321506,0.4124002526150391,0.01814863312320192,0.3711544751012706,-0.06425452419624081,-0.03178740220464457,0.382294554756812,0.06993222871962712,0.01814863312320192,0.3711544751012706,0.06425452419624081,0.03178740220464457,0.0036782450933698363,0.09175910693619888,0.0,3,0.3,0,9,0.098805138130826,136.14084604925623,0.10484425225404588,161.03350022938216,0.24008793285398045,0.0,0,0,0,0
0.63,0.0,1,1,1,1,1,1,1,1,0.4900365089572325,0.0,0.38442422337718063,0.7704027622566278,0.0,0.5807913713738455,0.12481313419369251,0.012045962194125494,0.2397882030601964,-0.051451387809961016,-0.014527365266765013,0.128446916278337,0.20287568717016174,0.13945947670568545,0.01649308661494389,0.25837873529862343,-0.11505473849570975,0.07951875879936202,-0.09647641875109775,0.12398887663956172,0.016273689908775008,-0.07738735585626441,-0.16627373504815082,0.016597682351581128,0.4236494469395194,0.017901512448339544,0.417453780499064,0.03031272808161803,0.009032420092626402,0.42544998523805133,0.0663870620177131,0.017901512448339544,0.417453780499064,0.03031272808161803,0.009032420092626402,0.0410257618608707,0.12531433632692335,0.0,3,0.3,0,9,0.13079093478841092,157.5851927851534,0.11306095487339159,185.11709178545422,0.1808975285815062,0.0,0,0,0,0
0.64,0.0,1,1,1,1,1,1,1,1,0.4977357001172911,0.0,0.3902169606808198,0.7699191160058627,0.0,0.5792737303639162,0.1289476414777986,0.012963442389731962,0.2444874907154648,-0.0517990457704963,-0.013399051049325372,0.13262245419982963,0.2033124674237699,0.13954452883830823,0.016522460120815652,0.25888426948280774,-0.11493699642671647,0.0794621806189938,-0.09593854183718337,0.12402942068991497,0.01630586909096504,-0.07678754377198552,-0.16627222758554713,0.016635765600987007,0.43921472666716865,0.01189557322821035,0.5185979022852023,0.07630624392641842,0.16761214720100853,0.4536842901816831,0.05852097345012247,0.01189557322821035,0.5185979022852023,0.07630624392641842,0.16761214720100853,0.06346732950086331,0.13388387617919612,0.0,3,0.3,0,9,0.11492264112453672,246.21237104059793,0.13655168627564515,239.99472087487075,0.12975521995801875,0.0,0,0,0,0
0.65,0.0,1,1,1,1,1,1,1,1,0.5054299788269336,0.0,0.39599429288700977,0.769427870964251,0.0,0.5777332206189978,0.13327949648312795,0.013989546843513815,0.2503932381626022,-0.049296285322814534,-0.0107808471317683,0.13734663797686422,0.20379468928172545,0.1396363585445122,0.016557337831066582,0.2594201736596714,-0.11481301382354814,0.0794043064245527,-0.09531950458188279,0.12408532389592937,0.016347139517275844,-0.07611303530237595,-0.1662663626826538,0.016682177945204324,0.4575336491135659,0.013452936291628623,0.6602863819443354,0.31240454591773553,0.3037650392073702,0.494882556111336,0.047896329713367713,0.013452936291628623,0.6602863819443354,0.31240454591773553,0.3037650392073702,0.09888826322432626,0.1602375292293226,0.0,3,0.3,0,9,0.15961274762717617,337.77226380661284,0.15226328361907882,283.378919565138,0.38835324802744164,0.0,0,0,0,0
0.66,0.0,1,1,1,1,1,1,1,1,0.5131192691467354,0.0,0.4017559919165674,0.7689290319801811,0.0,0.5761699029557643,0.1378058327198681,0.015090123783830749,0.2576981480528032,-0.047386770356841953,-0.00802289954272739,0.14227634615214335,0.204342691716057,0.13973146908513281,0.016600432314666236,0.25999779664933365,-0.11469199894111673,0.07934932730047892,-0.09463128425687709,0.1241544209272121,0.016399352410773477,-0.07536665743837177,-0.16625051348232525,0.01674053263305164,0.48506798789105887,0.009462025991687335,0.7912474025182903,0.13217500716987934,0.16893906395727373,0.521387073658512,0.028051281255676574,0.009462025991687335,0.7912474025182903,0.13217500716987934,0.16893906395727373,0.11963108174194459,0.1571443889893085,0.0,3,0.3,0,9,0.15638390967049895,363.74381085216714,0.1447589447025634,274.4048653415906,0.4063477162078333,0.0,0,0,0,0
0.67,0.0,1,1,1,1,1,1,1,1,0.5208034951865055,0.0,0.4075018303074806,0.7684226039770037,0.0,0.5745838390913194,0.14263939304832848,0.01629831542019127,0.2661485648489599,-0.04657898405141541,-0.006727464702351416,0.14762839167155084,0.204970039937608,0.1398369568174601,0.016655216143327017,0.260633304597341,-0.11456579077592244,0.07929625725497669,-0.09388565757811479,0.12423313777456443,0.016461995989484057,-0.07455370172503878,-0.16622324582363718,0.016811842483729467,0.5196848664748844,0.011705102603500848,0.8903124634104066,-0.011632974273387466,0.039273658711115725,0.5542868871500911,0.0011186287116210503,0.011705102603500848,0.8903124634104066,0.011632974273387466,0.039273658711115725,0.1467850568426105,0.1596087881577324,0.0,3,0.3,0,9,0.161657251531901,344.7030897762041,0.13011805622959044,239.58181357837708,0.21636097866761084,0.0,0,0,0,0
0.68,0.0,1,1,1,1,1,1,1,1,0.5284825811060347,0.0,0.4132315812238882,0.767908591952926,0.0,0.5729750916407594,0.14782582718936993,0.01765590017785968,0.2755085937150172,-0.048651710917168745,-0.0070946065048580476,0.1532990838020658,0.20568398189470047,0.13995695454755963,0.016724674328926326,0.261337655078151,-0.11443062457577603,0.07924611796942785,-0.09309302488503968,0.124321358856391,0.016534697614646432,-0.07414565815162455,-0.16619229866555582,0.016902685591721478,0.5598401813699436,0.011945914105185793,0.9769593486807214,-0.2989602746383046,-0.1958139352150526,0.5785074698118383,0.03135760026390888,0.011945914105185793,0.9769593486807214,0.2989602746383046,0.1958139352150526,0.16527588858795011,0.2085794029570448,0.0,3,0.3,0,9,0.1863458338317629,354.85635991720056,0.12629144330351966,230.86749411171704,0.1596493468002782,0.0,0,0,0,0
