time,trans_flag,des_cont_state_fl,des_cont_state_fr,des_cont_state_rl,des_cont_state_rr,cont_state_fl,cont_state_fr,cont_state_rl,cont_state_rr,vel_cmd_x,vel_cmd_y,vel_cmd_yaw,acc_cmd_x,acc_cmd_y,acc_cmd_yaw,base_pos_x,base_pos_y,base_pos_z,base_ang_roll,base_ang_pitch,base_ang_yaw,FL_foot_pos_x,FL_foot_pos_y,FL_foot_pos_z,FR_foot_pos_x,FR_foot_pos_y,FR_foot_pos_z,RL_foot_pos_x,RL_foot_pos_y,RL_foot_pos_z,RR_foot_pos_x,RR_foot_pos_y,RR_foot_pos_z,base_vel_x,base_vel_y,base_vel_z,base_vel_roll,base_vel_pitch,base_vel_yaw,x_vel_err,y_vel_err,z_vel_err,roll_vel_err,pitch_vel_err,yaw_vel_err,cmd_err,cont_err,terr_freq,terr_height,failed,gait_id,base,CoT,musculoskeletal,foot_force,MWE,stability,FL_stride_t,FR_stride_t,RL_stride_t,RR_stride_t
0.01,0.0,1,1,1,1,1,1,1,0,0.006283178692509316,0.0,0.005026527078818862,0.6283178692509316,0.0,0.5026527078818862,-4.848565680555361e-05,-2.4240437354465643e-05,0.30988999374029536,-0.0010031459358227318,0.00034609914565875144,5.894639821235402e-05,0.18297165673581214,0.13204859284146914,0.017331647272243483,0.18298094305184612,-0.13205132473016498,0.01733158435129495,-0.1830144303120364,0.13204666122772324,0.017331586386765935,-0.1830062597774986,-0.13205315529256278,0.017331558753477527,-0.011772772297447427,-0.0055702123466633505,-0.027288142133682212,-0.19757135968074757,0.08683843739677655,0.013905547062148794,0.018055950989956743,0.0055702123466633505,0.027288142133682212,0.19757135968074757,0.08683843739677655,0.008879019983329932,0.032505183319950025,85.0,3,0.3,0,9,0.016930965187300383,7.591454583362402,0.03327368722437773,34.70611869538444,0.019983723655045447,85.0,0,0,0,0
0.02,0.0,1,1,1,1,1,1,1,1,0.014137091596022201,0.0,0.011309492449657768,0.7853912903512885,0.0,0.6282965370838907,-0.00021165742443685266,-7.361338676758229e-05,0.3094547627483738,-0.001905964309893649,0.0013118569140104785,0.00010744435692939897,0.1829117724988948,0.13204580903354549,0.017339879836946626,0.18292416617174503,-0.13205406053499813,0.017339763129846808,-0.18304954889056288,0.13204313143989957,0.01733954268718918,-0.183038746718701,-0.13205655988520945,0.017339502742417384,-0.01950591420029962,-0.004708987558028657,-0.059054626148051056,-0.03960780789341406,0.09610401746489389,0.005703041126323374,0.03364300579632182,0.004708987558028657,0.059054626148051056,0.03960780789341406,0.09610401746489389,0.005606451323334394,0.043958444677684866,5.0,3,0.3,0,9,0.03813788318464973,6.636568562459338,0.03544885453889046,34.42171536446314,0.0669738082993935,5.0,0.0,0.0,0.0,0.01
0.03,0.0,1,1,1,1,1,1,1,1,0.02199086497214841,0.0,0.01759201134109972,0.7853773376126207,0.0,0.628251889144195,-0.00043988770518184594,-0.00012434913059166007,0.308746445274371,-0.002663935903390228,0.002266382699465108,0.00018220300637118987,0.1828293030918077,0.1320432932302754,0.017348425598125466,0.18284694070331928,-0.132056520589365,0.017348216264062966,-0.18310698853352894,0.1320385663506395,0.017347674465076096,-0.18309215117627883,-0.13206096286611216,0.017347592970644532,-0.02699307822568641,-0.0053363845972418745,-0.08057109131556049,-0.06926053635183176,0.10398960732804813,0.012801847870420806,0.04898394319783482,0.0053363845972418745,0.08057109131556049,0.06926053635183176,0.10398960732804813,0.004790163470678913,0.059110491265755606,0.0,3,0.3,0,9,0.05394838655619429,6.093587991574209,0.03855319258288741,60.27294381499107,0.10058852033157807,0.0,0,0,0,0
0.04,0.0,1,1,1,1,1,1,1,1,0.02984442130731541,0.0,0.023873835730056265,0.7853556335166999,0.0,0.6281824388956546,-0.0007511033969508654,-0.00018817431551039908,0.30786600125813235,-0.0029879866713180903,0.0033690846505192162,0.00025665108750948045,0.1827306250107356,0.13203991747330573,0.017357216609620252,0.18275003404579135,-0.13205982535584085,0.01735699063008575,-0.18317645800306928,0.1320330835830781,0.017355905224886586,-0.18316109101372172,-0.13206630379315817,0.017355827503776677,-0.0340295533643732,-0.006341622665634805,-0.09371982270961553,-0.04663593118869957,0.12082536755336742,0.013111512698511452,0.06387397467168861,0.006341622665634805,0.09371982270961553,0.04663593118869957,0.12082536755336742,0.010762323031544813,0.08097792036886822,0.0,3,0.3,0,9,0.0780808910971001,5.849530308919456,0.03906014648177801,42.992491241685194,0.11670649387528592,0.0,0,0,0,0
0.05,0.0,1,1,1,1,1,1,1,1,0.03769768309009279,0.0,0.030154717620856746,0.7853261782777381,0.0,0.628088189080048,-0.0011196941680947554,-0.00026606646455656436,0.30688993203824816,-0.0035955641652563757,0.004558882698198596,0.0005383822163728234,0.18262029718171113,0.13203787910506354,0.017366190143948107,0.18264676552606535,-0.13206178662291068,0.017365857340215674,-0.1832563241838687,0.13202439144590816,0.017364243392517797,-0.18323781161728983,-0.13207485280549405,0.01736414421481111,-0.037876431636301104,-0.008243390202811434,-0.1019617428455876,-0.02134188267816764,0.09902538062720892,0.023109891581908938,0.07557411472639389,0.008243390202811434,0.1019617428455876,0.02134188267816764,0.09902538062720892,0.007044826038947807,0.09086233096815313,0.0,3,0.3,0,9,0.08379550578191668,7.744398309654683,0.04492359558372094,68.41719044198229,0.12144068278297074,0.0,0,0,0,0
0.06,0.0,1,1,1,1,1,1,1,1,0.04555057281195724,0.0,0.036434409055038704,0.7852889721864452,0.0,0.6279691434181958,-0.0015098847923137304,-0.00034433007221122333,0.305864534112882,-0.003489567323807207,0.0055764198907974905,0.0006551686415922451,0.18251175707460918,0.1320343873642842,0.017375079789039988,0.18253784114127314,-0.13206519397846625,0.017374812455144495,-0.18333810767675915,0.1320172923641025,0.017372580920697017,-0.18332211143356703,-0.13208183231664086,0.01737255132318738,-0.039417595704989136,-0.0075686154782581535,-0.10274352572327654,0.016686127054106405,0.10931432303872428,0.02811553538412498,0.08496816851694639,0.0075686154782581535,0.10274352572327654,0.016686127054106405,0.10931432303872428,0.008318873670913725,0.10085565766611826,0.0,3,0.3,0,9,0.10981352873834567,9.95168695839972,0.04687010425654471,49.63253972277035,0.11828000603290532,0.0,0,0,0,0
0.07,0.0,1,1,1,1,1,1,1,1,0.05340301296805755,0.0,0.04271266212113687,0.7852440156100309,0.0,0.6278253066098166,-0.001915825435745928,-0.0004375546764753034,0.3048524505959173,-0.0034858617827413065,0.006642204812939756,0.0010748795796874703,0.1824001563273367,0.13203320771197458,0.01738396427860514,0.1824322175118171,-0.132066299562332,0.017383664309067598,-0.18342049322660106,0.13200609591896625,0.017380887848627236,-0.18340443343346619,-0.13209292426426422,0.017380911593508214,-0.04034671605634439,-0.008352799094021262,-0.10027141438443274,0.047205263708264146,0.10821416849206311,0.03591074722629374,0.09374972902440194,0.008352799094021262,0.10027141438443274,0.047205263708264146,0.10821416849206311,0.006801914894843129,0.10890444301326632,0.0,3,0.3,0,9,0.10499068532891247,11.664289255187267,0.04854607572285169,77.46502550166831,0.11256904829773354,0.0,0,0,0,0
0.08,0.0,1,1,1,1,1,1,1,1,0.06125492605797953,0.0,0.048989228964470284,0.7851913089921981,0.0,0.6276566843333414,-0.002324981967720965,-0.0005097263014951443,0.3038605867203417,-0.0024585765944162828,0.00768454296776544,0.0013627526814147968,0.18229489147090383,0.13203239026839816,0.017392682437986418,0.18232436386173315,-0.1320670350933492,0.017392542297631763,-0.18349808558345837,0.13199764378153866,0.01738907423894609,-0.1834891836101197,-0.13210127982189482,0.017389264265431664,-0.03995071499290224,-0.006070701686551976,-0.09766724860299707,0.16591144514328196,0.10359783810788809,0.03894979286675083,0.10120564105088177,0.006070701686551976,0.09766724860299707,0.16591144514328196,0.10359783810788809,0.010039436097719456,0.1173157788351532,0.0,3,0.3,0,9,0.12198953079451062,12.442894497180422,0.04833802949129164,50.084623921904075,0.10933576662088415,0.0,0,0,0,0
0.09,0.0,1,1,1,1,1,1,1,1,0.06910623458651093,0.0,0.055263861796927174,0.7851308528531393,0.0,0.627463283245689,-0.0027137040416501624,-0.000577344400848246,0.3028980049896091,-0.0014916964348864559,0.008557286514141449,0.0018660714871316833,0.18219196656328887,0.13203406536252296,0.017401311150004345,0.18222724350301778,-0.13206527298501605,0.017401202413876105,-0.18357734663077793,0.13198665183408434,0.017397258860892884,-0.1835701232694239,-0.1321122176763346,0.017397568438871802,-0.03626804840211061,-0.007033891812840045,-0.09545258761257379,0.018512242960427628,0.07317284176142833,0.05043444827181028,0.10537428298862153,0.007033891812840045,0.09545258761257379,0.018512242960427628,0.07317284176142833,0.004829413525116892,0.11723758832657846,0.0,3,0.3,0,9,0.11244457347135098,14.915096532944059,0.0500587386536309,75.51754722911753,0.10388614459318614,0.0,0,0,0,0
0.1,0.0,1,1,1,1,1,1,1,1,0.07695686106440629,0.0,0.06153631290674721,0.7850626477895362,0.0,0.6272451109820033,-0.0030770410347126767,-0.0006561525093323479,0.3019921647176269,-0.0014616948888285415,0.009320013818834072,0.0024949415734268248,0.18209170352080292,0.13203698297795088,0.01740984139029364,0.18214052335847786,-0.13206226396981247,0.01740962227661763,-0.1836535928962004,0.13197292938774885,0.017405409190179633,-0.1836426345116675,-0.1321258864609013,0.017405754407943202,-0.03446569040319145,-0.008153275923383259,-0.08714564318058644,0.022065293499385172,0.08353604862530518,0.07839370757146788,0.11142255146759775,0.008153275923383259,0.08714564318058644,0.022065293499385172,0.08353604862530518,0.016857394664720672,0.1364332220557017,0.0,3,0.3,0,9,0.12589271950683964,16.987578890104892,0.05213605831854571,52.47800793764979,0.0941612812978326,0.0,0,0,0,0
0.11,0.0,1,1,1,1,1,1,1,1,0.08480672800915168,0.0,0.06780633466830074,0.784986694474539,0.0,0.6270021761553536,-0.003399778768799543,-0.0007342143452669907,0.3011590145709966,-0.0011134845617497991,0.01000840504820344,0.0031722442984760115,0.18200316699453048,0.13203986419865632,0.01741816855129627,0.18206258572253245,-0.13205929665440858,0.01741790503902127,-0.18372242733217753,0.13196019070146103,0.01741343842455828,-0.18371005101594642,-0.13213862761999967,0.017413852569910876,-0.027397598261599106,-0.0060084098169306144,-0.08027257933736807,0.06866736303931209,0.05169367605545089,0.05579747084669536,0.11220432627075078,0.0060084098169306144,0.08027257933736807,0.06866736303931209,0.05169367605545089,0.012008863821605383,0.13022159990928678,0.0,3,0.3,0,9,0.12865353897857976,20.826058524264017,0.0550796301211063,78.86238854436462,0.0834438098963119,0.0,0,0,0,0
0.12,0.0,1,1,1,1,1,1,1,1,0.09265575794572947,0.0,0.0740736795518646,0.7849029936577795,0.0,0.6267344883563855,-0.003631689150026828,-0.0008004802799773925,0.3003784130053164,-0.0010349497784874206,0.010428622787182373,0.003791022306743614,0.18192526252646143,0.1320430798625646,0.017426328380261036,0.18199862881927562,-0.13205599104391952,0.017425991035364963,-0.18378672622082773,0.13194735370235436,0.017421428669347733,-0.1837697245328246,-0.13215143896025083,0.017421898373151584,-0.018245793719438703,-0.008040761570814054,-0.07691191417441888,-0.04878599008461906,0.030107145355359556,0.07104205538683964,0.11090155166516817,0.008040761570814054,0.07691191417441888,0.04878599008461906,0.030107145355359556,0.0030316241650249626,0.12197393740100719,0.0,3,0.3,0,9,0.12580936366038065,22.573046578854385,0.05647817032045134,51.4154998371162,0.08250678976251621,0.0,0,0,0,0
0.13,0.0,1,1,1,1,1,1,1,1,0.10050387340738298,0.0,0.08033810013339421,0.784811546165351,0.0,0.6264420581529608,-0.003785675479839813,-0.0008892251096433653,0.2996252009576799,-0.001186047898167067,0.010738251490252537,0.0045042070162717805,0.18185584866250348,0.13204550362871892,0.01743438490897367,0.1819433337956582,-0.13205347551626137,0.017433999125298333,-0.18384533246515328,0.13193266424104994,0.017429374881999443,-0.183824047753428,-0.1321661555749513,0.017429923386178714,-0.007780096024070685,-0.009181525167864565,-0.07643827903914682,-0.006210812512607761,0.013018939316493604,0.06387424178563472,0.10828396943145367,0.009181525167864565,0.07643827903914682,0.006210812512607761,0.013018939316493604,0.016463858347759486,0.13392935294707772,0.0,3,0.3,0,9,0.12699635149405902,22.899412628076263,0.05445451642641567,75.91189070386437,0.08201264759438556,0.0,0,0,0,0
0.14,0.0,1,1,1,1,1,1,1,1,0.10835099693638103,0.0,0.08659934910429141,0.7847123528998051,0.0,0.6261248970897206,-0.003802267720600723,-0.0009700971429190022,0.2988543869035728,-0.0002876656613611674,0.010736527725360157,0.005034592452563347,0.18180277591659988,0.1320465345022267,0.017442317688715847,0.18189449784233844,-0.13205234939789515,0.01744203826064411,-0.1838957857362916,0.13192044019808552,0.017437274459315977,-0.1838777959493423,-0.132178465991291,0.017438041183217567,0.004866863018071276,-0.008497955992240321,-0.07851496216855841,0.04278618209039474,-0.0014967065991866946,0.05738545627571117,0.10348413391830975,0.008497955992240321,0.07851496216855841,0.04278618209039474,0.0014967065991866946,0.029213892828580244,0.1411959827391303,0.0,3,0.3,0,9,0.14447351449374213,24.334955581562134,0.05574446941251534,47.92328320682635,0.08666046866151766,0.0,0,0,0,0
0.15,0.0,1,1,1,1,1,1,1,1,0.11619705108478236,0.0,0.09285717928116781,0.7846054148401324,0.0,0.6257830176876394,-0.003693770522834063,-0.0010418092404284852,0.29803838294335666,0.0005887908469985344,0.010696724693030513,0.0056610893485706006,0.18175457955226346,0.13204928300969587,0.017450284215706796,0.18185358489883482,-0.13204951119921696,0.017450125063078192,-0.18394244624269734,0.1319076600780825,0.017445211818000322,-0.18392583715688302,-0.13219136116339467,0.017446242157558328,0.019630111120057584,-0.00656128863192483,-0.08404951932960433,0.10606202244737586,-0.017446825369299594,0.055747891674057894,0.09656693996472478,0.00656128863192483,0.08404951932960433,0.10606202244737586,0.017446825369299594,0.037109287607109916,0.14023751620375952,0.0,3,0.3,0,9,0.13481172471304692,24.240314083773104,0.05544407546595943,72.02547321493893,0.09678698826983753,0.0,0,0,0,0
0.16,0.0,1,1,1,1,1,1,1,1,0.12404195841520015,0.0,0.09911134361560314,0.7844907330417789,0.0,0.6254164334435333,-0.003428428668841424,-0.0011205735209320784,0.2971689498327509,0.001371217839296517,0.010469273834853077,0.006314722035943957,0.18171408059275224,0.13205234368233085,0.017458288082710216,0.18182283782773623,-0.1320463323080738,0.01745828165936744,-0.183984552581445,0.13189277856369108,0.017453247967659152,-0.18396800511536054,-0.13220640975145437,0.017454615285534603,0.033978500445962435,-0.008543674360527186,-0.08962677653689195,0.08422096615371394,-0.01915747408216545,0.0820406349129439,0.0900634579692377,0.008543674360527186,0.08962677653689195,0.08422096615371394,0.01915747408216545,0.01707070870265924,0.11567784103242414,0.0,3,0.3,0,9,0.12898042900137202,24.3593778095395,0.05618744759694001,46.66426708164028,0.10559330452898785,0.0,0,0,0,0
0.17,0.0,1,1,1,1,1,1,1,1,0.13188564150156615,0.0,0.10536159520389834,0.7843683086366001,0.0,0.6250251588295203,-0.003013201871228748,-0.0011877169012113966,0.2962183857422019,0.0030689013509295005,0.010183115463025194,0.007141342933894603,0.1816810687416094,0.13205777644068156,0.01746639330666311,0.18179829494655994,-0.1320407570887321,0.017466689205616004,-0.18402154666202522,0.1318770397541635,0.01746135759243639,-0.18400789944507479,-0.13222242055599162,0.017463282155538024,0.05207276933504514,-0.007787917916392429,-0.09989847910875443,0.12315452257107365,-0.050042245477641856,0.0830773101284665,0.079812872166521,0.007787917916392429,0.09989847910875443,0.12315452257107365,0.050042245477641856,0.022284285075431842,0.10988507515834527,0.0,3,0.3,0,9,0.11164150471309893,25.84555158057922,0.05886760816247474,67.64598166046298,0.12299986672824602,0.0,0,0,0,0
0.18,0.0,1,1,1,1,1,1,1,1,0.1397280229298949,0.0,0.11160768729682284,0.7842381428328743,0.0,0.6246092092924496,-0.0024087705031819204,-0.0012588249799428877,0.2951578095932568,0.00395743830072969,0.009659619893195082,0.008062106513587415,0.18165241531298834,0.1320640702070137,0.017474693650033957,0.1817861148087693,-0.13203431399970333,0.017475267902200525,-0.18405752365701505,0.1318592432133418,0.017469809473993736,-0.18403980757395666,-0.1322404985106246,0.01747231448068068,0.06994369309031653,-0.008352111299899725,-0.10891519051911729,0.03723483322938628,-0.0469406400703114,0.09310601348573042,0.06978432983957836,0.008352111299899725,0.10891519051911729,0.03723483322938628,0.0469406400703114,0.018501673811092426,0.09663811495057051,0.0,3,0.3,0,9,0.09721966472488146,26.501739212422923,0.05605106580244892,45.890115508411654,0.13752859481295898,0.0,0,0,0,0
0.19,0.0,1,1,1,1,1,1,1,1,0.1475690252990478,0.0,0.11784937330935583,0.7841002369152916,0.0,0.6241686012532984,-0.0016433070630631618,-0.0013270892451327,0.2940458423750116,0.004686799050153452,0.009360588027411243,0.009016311509784285,0.18162873071787589,0.13207122795373213,0.017483228046823063,0.18178063125644525,-0.1320270115968862,0.017484114338549656,-0.1840815840508758,0.13184077268359123,0.01747834833529502,-0.18405875961144844,-0.13225925955924522,0.01748147743596193,0.08487709170517355,-0.007651774978684634,-0.11054981684669486,0.09023642239398424,-0.01192008104682988,0.10649792418342989,0.06269193359387426,0.007651774978684634,0.11054981684669486,0.09023642239398424,0.01192008104682988,0.011351449125925936,0.08169515769848483,0.0,3,0.3,0,9,0.09176227110035659,25.916680289783805,0.05776700247174105,74.85260422577728,0.13526660021620662,0.0,0,0,0,0
0.2,0.0,1,1,1,1,1,1,1,1,0.15540857122149707,0.0,0.124086406830421,0.7839545922449259,0.0,0.623703352106518,-0.0007162156826833249,-0.0013926289861807058,0.29293983725113265,0.005641331906734425,0.009187035511841524,0.010140379863816459,0.18161664352448986,0.13207952374719284,0.01749189342553803,0.18178929102131403,-0.13201856337764206,0.01749318664017316,-0.1840922458649326,0.1318203943731898,0.01748694182578328,-0.18406309101773666,-0.13228006536983217,0.017490817206695625,0.10289381978009766,-0.009156130858749159,-0.10776842489669744,0.07630688498893065,-0.020772450085585044,0.10230736502364295,0.0525147514413994,0.009156130858749159,0.10776842489669744,0.07630688498893065,0.020772450085585044,0.02177904180677806,0.08344992410692662,0.0,3,0.3,0,9,0.07449149664642918,33.03214802838126,0.0637472414861052,51.299600459419615,0.13418502984355526,0.0,0,0,0,0
0.21,0.0,1,1,1,1,1,1,1,1,0.16324658332408937,0.0,0.1303185416326145,0.7838012102592301,0.0,0.6232134802193492,0.00037971113758660956,-0.001459682857955168,0.2918973600557661,0.007138902305242942,0.009252143113883893,0.011113733828054074,0.18162074973056783,0.13208675670629264,0.017500693393296185,0.18180754579323669,-0.13201111912800076,0.01750249289501371,-0.18407837798517415,0.1318017405686381,0.017495486371984004,-0.18404810199632976,-0.13229916185303897,0.01750012095739012,0.11727198500551497,-0.00748889411273522,-0.09653736536794723,0.20865660305670738,0.047753267378809895,0.10680078172905456,0.045974598318574394,0.00748889411273522,0.09653736536794723,0.20865660305670738,0.047753267378809895,0.023517759903559934,0.07698125233486955,0.0,3,0.3,0,9,0.0866549278425455,35.663014445875966,0.06282786613664026,82.56036130971117,0.11744945556037915,0.0,0,0,0,0
0.22,0.0,1,1,1,1,1,1,1,1,0.17108298424880955,0.0,0.1365455316819254,0.7836400924720183,0.0,0.6226990049310904,0.0016257204025940523,-0.0015144438313448073,0.2909987959399439,0.008244073689383206,0.009905356611640936,0.012265576344964564,0.18163714616498236,0.13209674365540777,0.017509628308323255,0.181846219814362,-0.13200090601659642,0.017511912424438975,-0.18404082273541128,0.13178215418174238,0.017503979128127817,-0.18400345356341066,-0.13231919636204958,0.017509325811705084,0.13496138011362252,-0.0063781133775785565,-0.08073698051144809,0.1067483461225397,0.06690447198357953,0.11147473628477299,0.03612160413518703,0.0063781133775785565,0.08073698051144809,0.1067483461225397,0.06690447198357953,0.025070795397152415,0.067570512909918,0.0,3,0.3,0,9,0.06722678024118826,44.286463107009446,0.06632088181398237,56.149559369020224,0.10497085133128542,0.0,0,0,0,0
0.23,0.0,1,1,1,1,1,1,1,1,0.17891769665354415,0.0,0.1427671311474489,0.7834712404734601,0.0,0.6221599465523503,0.0030650883466855653,-0.00153859952852131,0.2903089486222594,0.009595664159292527,0.010482973443968202,0.013358335303922858,0.1816840583647632,0.1321080156157209,0.017518561696382023,0.18191397203160126,-0.13198936225014976,0.01752139702618255,-0.18397531760877242,0.13176489610673905,0.017512565201162567,-0.1839315185631545,-0.1323369075601428,0.017518614143880368,0.15294923209522923,-0.005440892952087019,-0.052479093667427326,0.10831893013071722,0.06494687600494281,0.11792650530907717,0.02596846455831492,0.005440892952087019,0.052479093667427326,0.10831893013071722,0.06494687600494281,0.024840625838371738,0.05624998334877367,0.0,3,0.3,0,9,0.06504692899429572,55.049351961423554,0.07312776036588506,94.5814921466991,0.0806515566246894,0.0,0,0,0,0
0.24,0.0,1,1,1,1,1,1,1,1,0.18675064321284485,0.0,0.1489830944110912,0.7832946559300696,0.0,0.6215963263642293,0.004662464439086599,-0.0016027952704731965,0.28988923626162116,0.009810134763018981,0.011168889981875818,0.014551218518310918,0.18175310089552899,0.1321166792762916,0.01752748400475093,0.18201112709504993,-0.13198050360339508,0.017530881480138788,-0.18388407302964063,0.13174339382433375,0.01752132575029708,-0.18382745969612282,-0.13235886560677956,0.017528035050851265,0.16670761973114004,-0.011766401273934884,-0.027218947431835464,-0.010950453006296811,0.07838100538736083,0.11922807994970314,0.020043023481704808,0.011766401273934884,0.027218947431835464,0.010950453006296811,0.07838100538736083,0.029755014461388063,0.061564439217027755,0.0,3,0.3,0,9,0.05961228498840643,50.746144762227885,0.06821288886854504,62.357992860632635,0.05652915476832279,0.0,0,0,0,0
0.25,0.0,0,0,0,0,1,1,1,1,0.19458174661869126,0.0,0.15519317607726604,0.7831103405846418,0.0,0.6210081666174844,0.006400749055246253,-0.0016894894308080157,0.28978367992217174,0.010149177972276248,0.011932469465010032,0.015848224783404197,0.18185709970422598,0.13212550884318203,0.017536464118045075,0.1820728396871729,-0.1319506375028219,0.017540704058265855,-0.18375763455451674,0.1317193233914655,0.017530316213976938,-0.1836880900473714,-0.13238354695852309,0.017537730026785436,0.18381926579220703,-0.014428246325754849,0.0076389716274181865,-0.04372591588663344,0.04784662490868505,0.12967842057158166,0.010762480826484233,0.014428246325754849,0.0076389716274181865,0.04372591588663344,0.04784662490868505,0.025514755505684383,0.05070548265792346,20.0,3,0.3,0,9,0.050354145372863715,65.65358808566977,0.07285426583330443,99.67284164459562,0.03843854128403704,20.0,0,0,0,0
0.26,0.0,0,0,0,0,1,1,1,1,0.2024109295812544,0.0,0.16139713098258265,0.782918296256313,0.0,0.6203954905316611,0.008624449879527405,-0.001902723630359888,0.2916279553605446,0.008094032054844425,0.012431521293154058,0.017971364706766982,0.18213990247425632,0.1321380232118761,0.01754928433279007,0.18059088398226134,-0.13139654788796223,0.01756476553332864,-0.18357248754838956,0.13169672845209784,0.017545311022890475,-0.18335017639851878,-0.13242433324244185,0.017553718011765113,0.26420990342234385,-0.02604604202595169,0.37265415941223,-0.3179608730500007,-0.006087589212896264,0.2912596567903034,0.061798973841089455,0.02604604202595169,0.37265415941223,0.3179608730500007,0.006087589212896264,0.12986252580772076,0.21770754167476192,100.0,3,0.3,0,9,0.12205630915251227,1129.1098221959148,0.29921147578009066,230.41891471180898,0.8472304638190425,100.0,0,0,0,0
0.27,0.0,0,0,0,0,1,0,0,1,0.21023811482965918,0.0,0.16759471420552421,0.7827185248404783,0.0,0.6197583222941561,0.011785924175702813,-0.0020080692046796638,0.2962670152170441,0.0009705201617098302,0.0113222678817948,0.019875955535545137,0.18262993457683738,0.13215290990907821,0.017575037494593465,0.18087951173773711,-0.12867681845057136,0.022306548793233072,-0.18864073118233954,0.13139435042297654,0.019454725641061876,-0.1828218365149822,-0.13243678285692767,0.017584281609171276,0.3436719681382377,-0.007705373393720002,0.5240984561472329,-1.290780271139926,-0.21734130221336587,0.0954723517819309,0.13343385330857852,0.007705373393720002,0.5240984561472329,1.290780271139926,0.21734130221336587,0.07212236242359331,0.21326158912589183,85.0,3,0.3,0,9,0.17960423542770662,863.8333443068384,0.2212658023575491,208.0023453380565,0.7351377812836402,85.0,0,0,0,0
0.28,0.0,0,0,0,0,1,0,0,1,0.21806322511274712,0.0,0.17378568107611705,0.7825110283087938,0.0,0.619096687059284,0.015192163204585059,-0.002024163740357916,0.30127002353336063,-0.008098402406137788,0.008269295962380463,0.02138853553400421,0.18337768986265848,0.1320991689644321,0.01776922595026495,0.18725988802835863,-0.12720743322962583,0.02997623968381591,-0.19034944212308988,0.131319849599751,0.028530748608675743,-0.18312885978618856,-0.13285485985213277,0.0185449844318884,0.32120106427881734,-0.008768337591432404,0.47265533404715593,-0.03978350243674418,-0.2706198926465159,0.21291639876168972,0.10313783916607022,0.008768337591432404,0.47265533404715593,0.03978350243674418,0.2706198926465159,0.039130717685572664,0.15103689444307528,50.0,3,0.3,0,9,0.1651119726669708,110.99764857854821,0.08507684260264807,26.295700095644822,1.0366132636177139,50.0,0,0,0,0
0.29,0.0,0,0,0,0,0,0,0,0,0.2258861831998389,0.0,0.17996978718558976,0.7822958087091797,0.0,0.6184106109472703,0.018449361738903127,-0.0019850590483811072,0.3051547684216649,-0.006285626855622793,0.006407439360457401,0.023321478058079936,0.1867105860823413,0.13248852598566413,0.026692413598598447,0.19465903966736367,-0.12707968861128036,0.038463640955133466,-0.18928514702125349,0.13215279776196992,0.035434747917320264,-0.17989737568625688,-0.13520782688589061,0.026168659298744096,0.3250590190119738,-0.006459287883250838,0.31313108800348477,0.17857062621368144,-0.08828593652293253,0.20605444450018237,0.0991728358121349,0.006459287883250838,0.31313108800348477,0.17857062621368144,0.08828593652293253,0.026084657314592613,0.13171678100997836,10.0,3,0.3,0,9,0.12036734921373915,53.9752721927181,0.054915474732637026,0.0,0.8897630167321964,10.0,0,0,0,0
0.3,0.0,0,0,0,0,0,0,0,0,0.23370691188149645,0.0,0.186146788396022,0.7820728681657535,0.0,0.6177001210432242,0.021743925275701667,-0.0019467092745195556,0.3076989410616776,-0.0038714709661862895,0.006243202675957127,0.025699732539102245,0.1932535915672637,0.13412917966333512,0.042884633855225784,0.19862673529597655,-0.1281618172143643,0.04657969871856471,-0.1866679322576614,0.1317759148312622,0.04029434156982428,-0.17510804070839853,-0.13643539227171353,0.037233250155228936,0.33183300444126995,-0.0036789941212889707,0.20152689534197027,0.4238341318731157,-0.04126520134113935,0.23624865053181066,0.0981260925597735,0.0036789941212889707,0.20152689534197027,0.4238341318731157,0.04126520134113935,0.050101862135788655,0.15190694881685113,0.0,3,0.3,0,9,0.16035679587219875,37.51538768413896,0.03445106155955315,0.0,0.634974182856324,0.0,0,0,0,0
0.31,0.0,0,0,0,0,0,0,0,0,0.241525333970285,0.0,0.19231644084998276,0.7818422088788551,0.0,0.6169652453960756,0.02506231654684582,-0.001890767446827938,0.3091869392221204,0.00011211897311160184,0.005542953702318165,0.027983131371162887,0.19982916087685912,0.13625864544293567,0.05629143708762965,0.20024153043270748,-0.1285638791522484,0.05454988395807281,-0.1825404942406902,0.13082867399963302,0.04751016953190043,-0.16952802996642735,-0.13855512360170996,0.04667823186593387,0.3280279445887252,-0.005451349481997139,0.10134563376988548,0.23557814379722886,-0.060001354269197414,0.23110247683478646,0.0865026106184402,0.005451349481997139,0.10134563376988548,0.23557814379722886,0.060001354269197414,0.03878603598480371,0.13073999608524106,0.0,3,0.3,0,9,0.13384540341517837,12.524029126153138,0.01875061339401254,0.0,0.5967793986611987,0.0,0,0,0,0
0.32,0.0,0,0,0,0,0,0,0,0,0.249341372301535,0.0,0.1984785009801572,0.7816038331249997,0.0,0.6162060130174452,0.028303409539865983,-0.0018757541107577776,0.30975026437419934,0.001209786537524484,0.005390729966275654,0.03026847881532094,0.20576143295047047,0.13921763899760323,0.06647656252776743,0.20285954956314386,-0.12842126966668685,0.061494034387746865,-0.17665178909388637,0.13013537883279402,0.05455702808994911,-0.16356961979059767,-0.14046659969768643,0.054936609810460474,0.32072498895093166,-0.009319484172801833,0.013192599588147419,0.014663961098322699,0.011743985764750319,0.21933639488174053,0.07138361664939666,0.009319484172801833,0.013192599588147419,0.014663961098322699,0.011743985764750319,0.020857893901583324,0.10156099472378181,0.0,3,0.3,0,9,0.11639372864175453,4.3048456155077215,0.012690306655446307,0.0,0.3803748903955353,0.0,0,0,0,0
0.33,0.0,0,0,0,0,0,0,0,0,0.2571549497341036,0.0,0.2046327255189626,0.781357743256858,0.0,0.6154224538805403,0.03150756604954218,-0.0018653520298508375,0.3093500493038236,0.0015792982769583588,0.005406350735752241,0.032513252119299306,0.2107976680746546,0.1414477427486657,0.0751326375231269,0.20658653969141128,-0.12795177025345644,0.06816430712691571,-0.16963520340630314,0.12977472260755218,0.06207663808996511,-0.15757163075252442,-0.14238347140880844,0.062161796622900584,0.3195901358496012,-0.008818276431302535,-0.08712655588488635,0.0893125666548078,-0.00879249301258547,0.2291234140534068,0.06243518611549764,0.008818276431302535,0.08712655588488635,0.0893125666548078,0.00879249301258547,0.024490688534444194,0.09574415108124437,0.0,3,0.3,0,9,0.09865719499872208,8.222553209240122,0.012686937913088878,0.0,0.05887930219944293,0.0,0,0,0,0
0.34,0.0,0,0,0,0,0,0,0,0,0.2649659891511359,0.0,0.21077887150815186,0.7811039417032317,0.0,0.614614598918925,0.03469506753607335,-0.0018513326106675018,0.30796986368881807,0.002071789850932564,0.005116784479488601,0.03471421839975624,0.2150241451298493,0.14375463114004658,0.08176077256138098,0.21047343775950578,-0.12747631247784505,0.07291786813193735,-0.16228972146652595,0.12974355270562227,0.06923197394289707,-0.15140225085854858,-0.14469281380929278,0.06886941712519093,0.3188501587699162,-0.010271436984807262,-0.18492440046481576,-0.0025998008150883906,-0.05057761739592632,0.21460366759824243,0.05388416961878029,0.010271436984807262,0.18492440046481576,0.0025998008150883906,0.05057761739592632,0.0038247960900905653,0.06798040269367811,0.0,3,0.3,0,9,0.07753197572287646,4.38530731200453,0.009244937158975591,0.0,0.166301374257251,0.0,0,0,0,0
0.35000000000000003,0.0,0,0,0,0,0,0,0,0,0.2727744134608264,0.0,0.21691669630840524,0.7808424309690531,0.0,0.6137824800253378,0.037851405254972124,-0.0018392233894100087,0.30566311679735186,0.0017148667813420566,0.005077066365209326,0.036815390263049315,0.21833869909544815,0.146115302973895,0.08617950521439233,0.21582058604311902,-0.12733886576450543,0.07643711455514685,-0.15447205101529632,0.12925582273153882,0.07605665976304524,-0.14538227054039002,-0.14630044139802698,0.07413765044718097,0.3150371224322266,-0.010432817290619565,-0.27410307672153145,-0.014792187049790774,0.04385020435199264,0.20948275512042921,0.042262708971400165,0.010432817290619565,0.27410307672153145,0.014792187049790774,0.04385020435199264,0.007433941187976023,0.060129467449995755,0.0,3,0.3,0,9,0.06196655478044213,4.121081361923563,0.012905375949816323,0.0,0.3737073191147786,0.0,0,0,0,0
0.36,0.0,0,0,0,0,0,0,0,0,0.2805801455971796,0.0,0.2230459576089092,0.7805732136353161,0.0,0.6129261300503952,0.040983375912234186,-0.0018332745897038647,0.30241277953887996,0.0005379809400764548,0.0056475052339242104,0.03885880492733557,0.22139927705756238,0.14832942822226752,0.08986004041056721,0.22210395748478104,-0.1269620682523077,0.07962704986411213,-0.14683845316152053,0.128775644540369,0.08176882935827001,-0.13930718087999416,-0.14749433364574052,0.07853067650594292,0.31530167308117046,-0.012756142437222803,-0.3733139830152408,-0.18480546808663786,0.052325113224259305,0.21144703051867475,0.03472152748399088,0.012756142437222803,0.3733139830152408,0.18480546808663786,0.052325113224259305,0.01159892709023444,0.05907659701144812,0.0,3,0.3,0,9,0.06532902801164149,4.7827968895294815,0.008280580319481277,0.0,0.6760735400626017,0.0,0,0,0,0
0.37,0.0,0,0,0,0,0,0,0,0,0.2883831085207705,0.0,0.22916641343692262,0.7802962923590895,0.0,0.6120455828013432,0.04411959092179729,-0.0018286226568107586,0.2981856851699204,-0.0005455685384188605,0.006200720753796629,0.04106372468244311,0.22472873962226617,0.14980776244100977,0.09281856488593676,0.2282863841291787,-0.12646238328350617,0.08237266617178451,-0.1395614905301108,0.1285567359018186,0.08631534583011469,-0.13369873025145818,-0.148449902781978,0.08148124802367204,0.31645645537725664,-0.011464732031827282,-0.46620812014375757,-0.06340523646424888,0.06308520650798834,0.22310272172052997,0.02807334685648616,0.011464732031827282,0.46620812014375757,0.06340523646424888,0.06308520650798834,0.00606369171639265,0.04560177060470609,0.0,3,0.3,0,9,0.04768595885546244,1.8969461144379616,0.009497582010178342,0.0,0.8479350127947345,0.0,0,0,0,0
0.38,0.0,0,0,0,0,0,0,0,0,0.29618322521950524,0.0,0.23527782216732931,0.780011669873476,0.0,0.6111408730406692,0.04726162033477267,-0.0018158023449834485,0.29301657517626156,-0.0008911626812936136,0.006890482522899255,0.04326379908503605,0.22874279989028012,0.15123732395929942,0.09536840645331308,0.23396341591469585,-0.12584729038986395,0.08379037482316234,-0.13343609954424393,0.12816219087385133,0.08846442683619801,-0.1284034375049761,-0.14968161079684786,0.08276803665460564,0.317954277618478,-0.011094319865373002,-0.5613597297494171,0.009882964193400283,0.07345778122330786,0.21549792781799515,0.021771052398972757,0.011094319865373002,0.5613597297494171,0.009882964193400283,0.07345778122330786,0.019779894349334165,0.05264526661367992,0.0,3,0.3,0,9,0.049517142201107346,3.5976193564572645,0.01114083601212713,0.0,1.0978219974164882,0.0,0,0,0,0
0.39,0.0,0,0,0,0,0,0,0,0,0.3039804187093811,0.0,0.24137994253217698,0.7797193489875842,0.0,0.6102120364847669,0.05039396470450531,-0.0018044584604386285,0.2870034123399434,-0.0010731510829859196,0.007655294216765363,0.0455197109761488,0.23423869291685445,0.15210578907439734,0.09655609068177266,0.23887607375449638,-0.12435581631380556,0.08269229683453398,-0.1281905612553748,0.12753661290625493,0.08760772462282009,-0.12373081024236082,-0.15087085241555018,0.0813710357399756,0.3150685957337196,-0.012922137172393705,-0.6341144896490939,0.010740688897359128,0.10467885995459532,0.23643703134485827,0.011088177024338508,0.012922137172393705,0.6341144896490939,0.010740688897359128,0.10467885995459532,0.00494291118731871,0.028953225384050922,0.0,3,0.3,0,9,0.03973270601472985,2.5295730359988493,0.02019164676345318,0.0,1.2851625623516352,0.0,0,0,0,0
0.4,0.0,0,0,0,0,0,0,0,0,0.3117746120352462,0.0,0.2474725336302022,0.7794193325865117,0.0,0.6092591098025207,0.05346469363588358,-0.0017962462595909944,0.2801971312422243,-0.000562700502006067,0.009275285548744794,0.04787807130013356,0.24148248660970062,0.15311991897283297,0.0966915757318039,0.24346419981977185,-0.1227224538026924,0.07911317355101205,-0.12304720632031327,0.12658572042617103,0.0841013183993299,-0.11868835287013751,-0.15215409019320628,0.07789196140547079,0.3094416328738178,-0.013040646010788899,-0.7224625185203126,0.09043211591240329,0.215941736873268,0.22972430725724188,0.0023329791614283835,0.013040646010788899,0.7224625185203126,0.09043211591240329,0.215941736873268,0.017748226372960307,0.03312185154517759,0.0,3,0.3,0,9,0.026847282774186586,4.88667387414469,0.011883262635024306,0.0,1.6169956490875208,0.0,0,0,0,0
0.41000000000000003,0.0,0,0,0,0,0,0,0,0,0.31956572827155894,0.0,0.2535553549363405,0.7791116236312734,0.0,0.6082821306138325,0.0564557079074164,-0.0017962691235154597,0.27256647957431956,3.7478838175927738e-06,0.011676320334005563,0.05019910690571454,0.24939694217215172,0.15367294461693345,0.09454289384787841,0.24772110313106693,-0.12073468809153165,0.07264691438504879,-0.11772629374921698,0.12582178052726115,0.07867781862115134,-0.11166628297595685,-0.15310553503951713,0.073696975133641,0.3040483002914456,-0.015141263932909951,-0.7984891718523501,0.061391146676065364,0.26914434517722763,0.2369766207867604,0.015517427980113352,0.015141263932909951,0.7984891718523501,0.061391146676065364,0.26914434517722763,0.01657873414958011,0.047237426062603415,0.0,3,0.3,0,9,0.043191693766791786,7.809155933757834,0.01955037065324008,0.0,1.8679564442535095,0.0,0,0,0,0
0.42,0.0,0,0,0,0,0,0,0,0,0.32735369052314756,0.0,0.2596281663112222,0.778796225158862,0.0,0.6072811374881693,0.05935348659035409,-0.0018012664383556898,0.26410319158306084,0.0007518204801785471,0.014986337570423336,0.052610041245541035,0.2566454089911115,0.15331049889192747,0.09000613695243728,0.2528204010258016,-0.11892543137740347,0.06496951121915116,-0.11071772852198677,0.1256305102511627,0.07300204193146008,-0.10264613540331075,-0.15353486259265198,0.06902341144465104,0.2986616302545671,-0.015026456706106122,-0.8890487875270531,0.20205553755294914,0.39647811630193325,0.2340750723552166,0.028692060268580455,0.015026456706106122,0.8890487875270531,0.20205553755294914,0.39647811630193325,0.025553093956005607,0.06927161093069219,0.0,3,0.3,0,9,0.05629860636942778,12.648491589749776,0.01932772644543153,0.0,2.1474806691075727,0.0,0,0,0,0
0.43,0.0,0,0,0,0,0,0,0,0,0.33513842192596877,0.0,0.2656907280106526,0.778473140282121,0.0,0.6062561699430369,0.062221500133436594,-0.0017993252670286811,0.2546931850764554,0.002447342482842783,0.01872074299252735,0.054926270540766785,0.26205294660846157,0.15246545103327813,0.08245303698742301,0.258036941868966,-0.11732244834175007,0.05643199788382276,-0.10357442127918098,0.12593406399849735,0.06624702039564373,-0.09269021270740288,-0.15374710823262439,0.06344753341392358,0.30807489098421104,-0.01915061647625041,-0.9807961060344015,0.075375121130096,0.2901069314867273,0.23094250720168114,0.02706353094175773,0.01915061647625041,0.9807961060344015,0.075375121130096,0.2901069314867273,0.03474822080897144,0.08096236822697958,0.0,3,0.3,0,9,0.07861197836784854,4.414699695454376,0.017830367493583063,0.0,2.2841537643547625,0.0,0,0,0,0
0.44,0.0,0,0,0,0,0,0,0,0,0.3429198456478665,0.0,0.2717428006950765,0.7781423721897718,0.0,0.6052072684423926,0.065133379476898,-0.0017917215380928797,0.24435227575406604,0.003977113540444586,0.021455210360908916,0.05724530834772813,0.26625741501485284,0.15133711577816397,0.07261067249674888,0.26189203090864516,-0.1157223515509689,0.04540680537161963,-0.09631032298455816,0.1268489219961491,0.057567801029272406,-0.0834852481956575,-0.1548704550160923,0.0546165804140913,0.31375012648965056,-0.019875184266026483,-1.0770516055074049,0.140458077107266,0.3063225706518221,0.2341992743239014,0.029169719158215923,0.019875184266026483,1.0770516055074049,0.140458077107266,0.3063225706518221,0.03754352637117511,0.08658842979541752,0.0,3,0.3,0,9,0.0845769224063768,3.119633009455725,0.015323509836786523,0.0,2.5509574995501554,0.0,0,0,0,0
0.45,0.0,0,0,0,0,0,0,0,0,0.3506978848893299,0.0,0.2777841454390272,0.7778039241463419,0.0,0.6041344743950683,0.06805829906953484,-0.0017695655289252873,0.23302663918225822,0.0063248193136672196,0.024720454971464134,0.05961173354181469,0.26931465180515834,0.1507948707352619,0.06100016042699919,0.26471873725217,-0.11534194416585603,0.032932003419511746,-0.08939814035534999,0.12778399416180736,0.04593776255789876,-0.0743102602924666,-0.15578114764934853,0.04327540863412896,0.3251109825355121,-0.022809848166004128,-1.1720918934186901,0.29764752365653513,0.3036282548291204,0.23434880118254622,0.025586902353817775,0.022809848166004128,1.1720918934186901,0.29764752365653513,0.3036282548291204,0.04343534425648096,0.09183209477630286,0.0,3,0.3,0,9,0.08961088669747364,4.370489390227065,0.017886680747820342,0.0,2.7863423144579897,0.0,0,0,0,0
0.46,0.0,0,0,0,0,0,0,0,0,0.35847246288425194,0.0,0.28381452374055854,0.7774577994922038,0.0,0.6030378301531358,0.07113629986038941,-0.0017244423903480985,0.22076514371087516,0.011057795632459596,0.02706575825829849,0.06191387113415559,0.27008944858446393,0.15024817595975473,0.04711853832850142,0.26427121470271586,-0.11507654237816542,0.01877199227404766,-0.08450450437419563,0.12732004018113158,0.029027447116122415,-0.0675727066381766,-0.15642453758557617,0.027426136418062866,0.35544870830704545,-0.02670571626513146,-1.2646853940214324,0.6242562313740789,0.14939919777567268,0.23267882726868533,0.0030237545772064944,0.02670571626513146,1.2646853940214324,0.6242562313740789,0.14939919777567268,0.051135696471873215,0.08086516731421117,0.0,3,0.3,0,9,0.09125359105017918,28.420887089450844,0.04182100354151287,0.0,3.0896302239018194,0.0,0,0,0,0
0.47000000000000003,0.0,0,0,0,0,0,1,0,1,0.3662435029006865,0.0,0.28983369753066096,0.7771040016434583,0.0,0.6019173790102417,0.07444119504901459,-0.0016089197968416316,0.207697267699734,0.015596694496775011,0.02584274627205363,0.06430523000560562,0.26735870887648305,0.14889638109232428,0.028336306795674115,0.2637842530783105,-0.11510072341550436,0.017262396422228737,-0.08327745864990191,0.12615543977926427,0.014185657592472783,-0.06572179173670514,-0.1562958741463233,0.017950341863555846,0.3592317312167538,-0.01600828447993545,-1.2962253086052933,-0.15688295900018712,-0.4986014702424951,0.23862188158908793,0.007011771683932744,0.01600828447993545,1.2962253086052933,0.15688295900018712,0.4986014702424951,0.051211815941573036,0.07423187210544123,25.0,3,0.3,0,9,0.07774943363575293,61.92202705770777,0.07076121224539036,113.94302242022482,2.229377591166527,25.0,0.0,0.20000000000000004,0.0,0.18000000000000002
0.48,0.0,0,0,0,0,0,1,1,1,0.3740109282416059,0.0,0.29584142918265965,0.7767425340919398,0.0,0.6007731651998693,0.0774942032025996,-0.001208606695889746,0.19572199393501255,0.01042413053958376,0.023873648238486922,0.06713783376768355,0.26444895253977685,0.14772752979048334,0.015094401995513596,0.2636992617631876,-0.1150654936964147,0.017317604404993026,-0.0838243749286145,0.1260495520400435,0.014259289067950709,-0.0661388221075776,-0.156257507265606,0.018014022403325017,0.3244656454619856,0.015444381721903192,-1.078822973230623,-0.8859519282187981,0.0790930309801172,0.294367796119344,0.04954528277962034,0.015444381721903192,1.078822973230623,0.8859519282187981,0.0790930309801172,0.0014736330633156602,0.0664632975648392,70.0,3,0.3,0,9,0.05758156138039423,86.90974915022362,0.15978746090916424,234.2531034806604,2.1950447779159736,70.0,0.0,0.0,0.21000000000000005,0.0
0.49,0.0,0,0,0,0,1,1,1,1,0.3817746622456579,0.0,0.3018374815215959,0.7763734004052003,0.0,0.5996052338936242,0.08056550582349607,-0.0007572863892154874,0.18612228961918956,0.005579856818950448,0.024573970881605067,0.06946675421945624,0.26423351948549895,0.1477685366623537,0.015146280073453089,0.2637563828548307,-0.11502215791837532,0.01735930213248142,-0.08413413435808997,0.12597845355968834,0.014312211243778308,-0.06634811708403959,-0.15621145293378402,0.018057410167998375,0.3440846934284056,0.020649532899461403,-0.8219954641426581,-0.24875434193605142,0.01523197137324,0.2154348861967991,0.03768996881725234,0.020649532899461403,0.8219954641426581,0.24875434193605142,0.01523197137324,0.0864025953247968,0.14474209704151053,100.0,3,0.3,0,9,0.13636411530728498,227.22877352232481,0.19133229775706947,175.20674071790057,1.6349760682012064,100.0,0.20000000000000004,0.0,0.0,0.0
0.5,0.0,1,1,1,1,1,1,1,1,0.3895346282879222,0.0,0.3078216178335902,0.7759966042264255,0.0,0.5984136311994293,0.08389132952143658,-0.0002749504705033906,0.17915249456096569,0.0028060025037882465,0.024383631584927068,0.07208373069486093,0.26421241507133786,0.1478392431878766,0.015185079399341564,0.26399031980581317,-0.11494709032784198,0.01739134953019024,-0.08423608325050835,0.12591904359936726,0.014353024351473426,-0.06634790436926452,-0.15618154069802598,0.018091467542637185,0.3577925696938734,0.01818577677911279,-0.559946381883555,-0.3758177634925587,-0.008532258746873227,0.24899621710465458,0.03174205859404877,0.01818577677911279,0.559946381883555,0.3758177634925587,0.008532258746873227,0.058825400728935606,0.10875323610209717,80.0,3,0.3,0,9,0.09459451711363556,298.27978731139126,0.18790001245422644,263.32544941850426,1.1815623183521997,80.0,0,0,0,0
0.51,0.0,1,1,1,1,1,1,1,1,0.3972907497806668,0.0,0.3137936018751874,0.7756121492744628,0.0,0.5971984041597211,0.08723256353456978,3.411382318030317e-05,0.17444930452840388,-0.0015804858030512604,0.026563754041904142,0.07454342625303045,0.26368557721218444,0.1479358895769307,0.015221393537222377,0.26429542687824403,-0.11488676267114084,0.01741750114773627,-0.0841564800066553,0.12586464561515448,0.01438539619585305,-0.06618098754787946,-0.1561800457524666,0.018116840403467255,0.3437472324897452,0.0038012867605319803,-0.3736000723132994,-0.24742719505783925,0.3134701547585817,0.252090069351142,0.053543517290921605,0.0038012867605319803,0.3736000723132994,0.24742719505783925,0.3134701547585817,0.061703532524045424,0.11904833657549901,0.0,3,0.3,0,9,0.1181702247329103,221.89769405141675,0.15360927154288936,147.46078261924345,0.4747987931711881,0.0,0,0,0,0
0.52,0.0,1,1,1,1,1,1,1,1,0.4050429501741038,0.0,0.31975319788268336,0.7752200393436992,0.0,0.595959600749596,0.09065644674998338,0.00035701506083839907,0.17135482578578584,-0.001269184341734891,0.02880708444219504,0.0769870513670109,0.26194576527280455,0.14806155835686424,0.0152686456181476,0.2646779616721785,-0.1148125993244814,0.017442277153357444,-0.08395782033856722,0.12582804850295842,0.01441440502696427,-0.06592099310317859,-0.15618038909957052,0.018139764834636113,0.35621990905470824,0.00596892549877589,-0.22980429678361783,0.13047301108205353,0.18690178186899567,0.2534761245312527,0.04882304111939556,0.00596892549877589,0.22980429678361783,0.13047301108205353,0.18690178186899567,0.06627707335143068,0.12106903996960214,0.0,3,0.3,0,9,0.1279864895779163,232.26502852955326,0.153013115723034,189.2817854587989,0.08394876423079345,0.0,0,0,0,0
0.53,0.0,1,1,1,1,1,1,1,1,0.4127911529571451,0.0,0.325700170581432,0.774820278304128,0.0,0.5946972698748665,0.09414570586949422,0.000627079194317042,0.1695559982597322,-0.0007309308851826047,0.03055074123781587,0.07956333034318552,0.25988348774912917,0.1481454018421274,0.015319871446934794,0.2651160517154477,-0.11473612298107098,0.017466197108111606,-0.08368188403044438,0.125791203133708,0.014441967307162379,-0.06558515238305607,-0.15619568852276913,0.018161518664909962,0.3605670671770244,-0.0018023404263639037,-0.11344152054739684,0.11996189558192676,0.08862301305791946,0.26332127228281704,0.052224085780120666,0.0018023404263639037,0.11344152054739684,0.11996189558192676,0.08862301305791946,0.06237889829861498,0.11640532450509955,0.0,3,0.3,0,9,0.12034996291039364,194.81989617344198,0.1404994154878925,109.47693454755672,0.059491996866422814,0.0,0,0,0,0
0.54,0.0,1,1,1,1,1,1,1,1,0.4205352816581571,0.0,0.3316342851951342,0.7744128701012043,0.0,0.593411461370219,0.09777136854041844,0.0009207591752458343,0.16882376356570417,0.0006323009901493343,0.03074370762001921,0.08213317702033773,0.25814226385573713,0.14816737498165,0.0153685497023449,0.2656012685804252,-0.11465241326294953,0.01749078712815437,-0.08334613003414626,0.1257656464094784,0.014469391304633317,-0.06519218344989913,-0.15621043167158202,0.01818326182612731,0.3646912637768688,-0.0010958585804661134,-0.012355756418209263,0.06249977976501144,0.02564937647745722,0.24657763814866693,0.055844017881288344,0.0010958585804661134,0.012355756418209263,0.06249977976501144,0.02564937647745722,0.08505664704646729,0.14199652350822173,0.0,3,0.3,0,9,0.12590693304801404,183.77520797762037,0.1339213711035187,153.10660088673347,0.046822220150221305,0.0,0,0,0,0
0.55,0.0,1,1,1,1,1,1,1,1,0.42827525984571624,0.0,0.3375553074551057,0.7739978187559116,0.0,0.5921022259971487,0.10141898083105375,0.00120196744076199,0.16904956017589481,0.0011196579335171636,0.03105449579856212,0.08465030488093737,0.25691500393405875,0.14815293755811107,0.01541093154717138,0.2661066169307991,-0.11456831550678831,0.017515412606028444,-0.08295926383227875,0.12574602906651963,0.0144965963661009,-0.06474640097284629,-0.15623140913146966,0.018204536036756938,0.36857439352117727,-0.003569932981233519,0.07844317212488325,0.0037115181944028554,0.013073689633806585,0.2666690447003477,0.05970086632453897,0.003569932981233519,0.07844317212488325,0.0037115181944028554,0.013073689633806585,0.07088626275475801,0.13415706206053052,0.0,3,0.3,0,9,0.1440134751356136,176.87022508874364,0.12907887378206467,95.86486641080187,0.018542909795230766,0.0,0,0,0,0
0.56,0.0,1,1,1,1,1,1,1,1,0.4360110111293624,0.0,0.34346300360952614,0.7735751283646175,0.0,0.5907696154420439,0.10517001294783779,0.0014610643693439608,0.17011815668147165,0.001309242880242175,0.031067101710295253,0.08731165439579204,0.25640898540310963,0.14814200779702544,0.01544613276964811,0.2666359344062918,-0.11448420977846459,0.017541264227485323,-0.08252661886136078,0.1257293887183918,0.0145243293574836,-0.06425562105720276,-0.15625870376855205,0.018226564104634538,0.37839451647899003,-0.006949686003788278,0.15604268227017468,0.07408538381993895,-0.022677606664319512,0.26846256106020716,0.057616494650372385,0.006949686003788278,0.15604268227017468,0.07408538381993895,0.022677606664319512,0.07500044254931898,0.13956662320347962,0.0,3,0.3,0,9,0.14101855540972918,173.40502516664895,0.12438228924366235,134.4056285993791,0.014264265789452613,0.0,0,0,0,0
0.5700000000000001,0.0,1,1,1,1,1,1,1,1,0.44374245916035343,0.0,0.3493571404326669,0.7731448030991017,0.0,0.5894136823140772,0.10908813604261298,0.0017417682010142238,0.17191555255360366,0.002174294832618264,0.030543297150881443,0.09003084783622368,0.25632844671595206,0.14815040196912532,0.015479183318760595,0.26718980799365744,-0.11439705556002956,0.017569070171704892,-0.08205246350384995,0.12571948766864643,0.014553189609609607,-0.06372365342509265,-0.15628628725115296,0.018249980728949594,0.3935931088360547,-0.008323678290526796,0.22648086311683474,0.011358943841541787,-0.054067601779544644,0.27384617721715915,0.050149350324298736,0.008323678290526796,0.22648086311683474,0.011358943841541787,0.054067601779544644,0.07551096321550776,0.1339839918303333,0.0,3,0.3,0,9,0.1332033484437597,177.0353053040782,0.11969271056166046,85.76400811043825,0.031149167818735446,0.0,0,0,0,0
0.58,0.0,1,1,1,1,1,1,1,1,0.45146952763241865,0.0,0.3552374852340987,0.7727068472065224,0.0,0.5880344801431792,0.11314931157151525,0.002025851377988644,0.1743811586852443,0.002538385500295392,0.029984238637183802,0.09284379229814145,0.2568115296913765,0.14823115259615227,0.015508084446564513,0.2677590816252552,-0.11430862646455733,0.017598486908651734,-0.0815438508045716,0.125714666293248,0.014583351601723263,-0.06315599962000942,-0.156315415432896,0.01827494104154649,0.4067023123613407,-0.006667586528056799,0.28956213235683687,0.07471177994479575,-0.07463006916475998,0.29018249521963174,0.044767215271077965,0.006667586528056799,0.28956213235683687,0.07471177994479575,0.07463006916475998,0.06505499001446696,0.11648979181360172,0.0,3,0.3,0,9,0.1256993136024029,170.51289231819467,0.1177845497151617,122.08335292833776,0.05335435103978958,0.0,0,0,0,0
0.59,0.0,1,1,1,1,1,1,1,1,0.4591921402825117,0.0,0.3611038058678774,0.7722612650093053,0.0,0.5866320633778677,0.11735266633586197,0.002336275014376985,0.177437423081201,0.0030168090560280876,0.029380722734844822,0.09579966337723003,0.2573236606359134,0.14831452323249916,0.01553805019146301,0.26834025588903304,-0.11421945297695651,0.017629522267199937,-0.0810073599236622,0.12571366959263483,0.014614968427152264,-0.06255864407331266,-0.1563460275506968,0.018301671936514968,0.41661843158481143,-0.011482743860279967,0.3456279795432209,-0.048477860593500725,-0.045394466728389996,0.30393299629529996,0.042573708697700274,0.011482743860279967,0.3456279795432209,0.048477860593500725,0.045394466728389996,0.05717080957257742,0.11122726213055767,0.0,3,0.3,0,9,0.11296225104924049,161.84490777406162,0.11029441122643475,77.60546638013174,0.11723683984554678,0.0,0,0,0,0
0.6,0.0,1,1,1,1,1,1,1,1,0.46691022089156364,0.0,0.3669558707417092,0.7718080609051936,0.0,0.585206487383183,0.12168187223627822,0.0026488326729057895,0.18102188683769604,0.00366456142466969,0.02868079117566369,0.09904458000975637,0.2578485745585821,0.1484018221532887,0.015569288037838802,0.2689339901136998,-0.11412635481888114,0.01766244390636762,-0.08044989350012838,0.1257129874760521,0.014647886671212793,-0.061938565100995824,-0.15638024068419326,0.018330262050939544,0.43038465394418074,-0.0077517677987514735,0.39579626321656725,0.1992976134303233,-0.09342274675590269,0.34488323079753036,0.036525566947382904,0.0077517677987514735,0.39579626321656725,0.1992976134303233,0.09342274675590269,0.02207263994417885,0.06634997469031323,0.0,3,0.3,0,9,0.08456495561958896,163.3280916774345,0.10678791270449697,111.58753128144069,0.13941966737701939,0.0,0,0,0,0
0.61,0.0,1,1,1,1,1,1,1,1,0.4746236932852346,0.0,0.3727934488260932,0.7713472393670984,0.0,0.583757808438401,0.1261184702692413,0.0029821297955372472,0.18511161162869955,0.004494455883568354,0.027916378162539335,0.10226305636182335,0.2583868188728877,0.1484841894066476,0.01560188552816931,0.26952772297878475,-0.1140388209766551,0.017696147156329084,-0.07987377132825552,0.12572215780497628,0.014682496795285271,-0.06130511721194015,-0.15640807284761304,0.018360236608063296,0.43486828083899753,-0.01126125786642524,0.44607734278667877,-0.030896864947735303,-0.06559083158423361,0.29168727785345633,0.03975541244623709,0.01126125786642524,0.44607734278667877,0.030896864947735303,0.06559083158423361,0.08110617097263689,0.13212284128529922,0.0,3,0.3,0,9,0.10180540682307956,156.90671782022315,0.1066552764526302,73.90244422802422,0.23350098842959488,0.0,0,0,0,0
0.62,0.0,1,1,1,1,1,1,1,1,0.4823324813346662,0.0,0.3786163096634422,0.7708788049431592,0.0,0.5822860837348953,0.13064318469958533,0.0033464828559583958,0.18967850263392827,0.005229045713615175,0.026880902205399737,0.10538271515127087,0.2589361373506005,0.14856937342855114,0.015635989186229687,0.270127351767261,-0.11394866105048107,0.017731108851889082,-0.07928497844947621,0.1257379862005722,0.014718524340750522,-0.060660983478827424,-0.1564310964302823,0.01839158922221927,0.4455003559970408,-0.006162286224752433,0.49156060382249583,0.13778931065440272,-0.11545137145129263,0.335395269584099,0.03683212533762542,0.006162286224752433,0.49156060382249583,0.13778931065440272,0.11545137145129263,0.04322104007934319,0.08621545164172104,0.0,3,0.3,0,9,0.10457940899707403,161.91995565045002,0.10176302837998134,106.42172611981121,0.2328224523016118,0.0,0,0,0,0
0.63,0.0,1,1,1,1,1,1,1,1,0.4900365089572325,0.0,0.38442422337718063,0.7704027622566278,0.0,0.5807913713738455,0.13522014301701527,0.0037287401860550892,0.19472117155250515,0.00581780642211392,0.026112407712452157,0.10868240376594732,0.25948648658970686,0.14865259625073035,0.015670844747497914,0.2707266959867229,-0.11386060723494139,0.01776676914109898,-0.07868401532843394,0.12575760942234054,0.014756344243533781,-0.060005826285963265,-0.15645322612744542,0.01842468576322001,0.44635340902325804,-0.0099088446082838,0.5408822655405572,-0.01748088365135858,-0.0526840816002326,0.33136746164220954,0.043683099933974456,0.0099088446082838,0.5408822655405572,0.01748088365135858,0.0526840816002326,0.05305676173497109,0.10664870627722935,0.0,3,0.3,0,9,0.10174991528785671,158.8314917938518,0.09820084230390386,72.71328112333447,0.30394682014022667,0.0,0,0,0,0
0.64,0.0,1,1,1,1,1,1,1,1,0.4977357001172911,0.0,0.3902169606808198,0.7699191160058627,0.0,0.5792737303639162,0.13983682819889037,0.0041093467515629254,0.20024269894116542,0.005894489161385336,0.025538657894259797,0.11206876284026915,0.2600416741007911,0.14873512723780044,0.015706786042663318,0.2713287975003801,-0.11377340729609212,0.017803362378671223,-0.07807213105617497,0.12578166089436424,0.014796092519601775,-0.05934256538373939,-0.15647273527951694,0.018459527104692286,0.44983636946537664,-0.009079218976468604,0.5885786680225616,0.004049519053579394,-0.04169717603773057,0.3409436532432401,0.047899330651914485,0.009079218976468604,0.5885786680225616,0.004049519053579394,0.04169717603773057,0.04927330743757968,0.10625185706596277,0.0,3,0.3,0,9,0.103410736036474,164.85482662453583,0.09908867980009656,106.2653289384928,0.3185750158342415,0.0,0,0,0,0
0.65,0.0,1,1,1,1,1,1,1,1,0.5054299788269336,0.0,0.39599429288700977,0.769427870964251,0.0,0.5777332206189978,0.14448545558568998,0.004523190612691697,0.2062689048866799,0.005701556722319738,0.02517953243254145,0.11535395773751236,0.2606070533269705,0.14881751393543197,0.01574434627965579,0.2719344904621743,-0.11368662377714164,0.017840956792309792,-0.07744679771446211,0.12581650679938916,0.01483821949930969,-0.05867162828511194,-0.1564825115364419,0.018496239833174,0.4554780477201324,-0.0074689360675076165,0.6393182950309662,-0.051559384854600404,-0.06020686438768696,0.3251426345738507,0.04995193110680124,0.0074689360675076165,0.6393182950309662,0.051559384854600404,0.06020686438768696,0.0708516583131591,0.12827252548746795,0.0,3,0.3,0,9,0.12520877044908396,178.84586704352458,0.10345980683975138,72.15901752058673,0.3144370341913074,0.0,0,0,0,0
0.66,0.0,1,1,1,1,1,1,1,1,0.5131192691467354,0.0,0.4017559919165674,0.7689290319801811,0.0,0.5761699029557643,0.14923444397426214,0.004979301051928015,0.2128041824137504,0.005092492262691839,0.024265463273513976,0.11877800262353196,0.2611892764710899,0.1489041791682428,0.015784430581549158,0.27255974306697706,-0.11359537355675567,0.017881519841418697,-0.07680887834365799,0.12585509862511737,0.01488285018619967,-0.057986203462906755,-0.1564880054380553,0.018535801748312486,0.4655539599581753,-0.004428873912421775,0.6919820955080958,-0.08397619247190588,-0.10903003281696806,0.3561884245885305,0.04756530918856017,0.004428873912421775,0.6919820955080958,0.08397619247190588,0.10903003281696806,0.045567567328036906,0.09756175042901885,0.0,3,0.3,0,9,0.10817941282474039,192.465044069655,0.10129362476694945,110.18221770651844,0.29090415746653875,0.0,0,0,0,0
0.67,0.0,1,1,1,1,1,1,1,1,0.5208034951865055,0.0,0.4075018303074806,0.7684226039770037,0.0,0.5745838390913194,0.15407704933221658,0.005503131130420786,0.21990090851312574,0.004165642912000622,0.023232502257258147,0.1224378574562424,0.26178795286666123,0.1489960843356925,0.015827335763861694,0.2732062504820439,-0.11349851488050425,0.017925549181654232,-0.07615053382412615,0.12590047281896272,0.014931172641675178,-0.05727949411095573,-0.15648705824043974,0.018579261775566375,0.47500237209849705,-0.003922181723401285,0.7520923322950893,-0.20685662241218722,-0.0611469730816028,0.3788946706733829,0.04580112308800843,0.003922181723401285,0.7520923322950893,0.20685662241218722,0.0611469730816028,0.028607159634097712,0.07833046444550743,0.0,3,0.3,0,9,0.08609259045905118,209.87832819959968,0.10496529108936843,76.6685242260219,0.26519707746040044,0.0,0,0,0,0
0.68,0.0,1,1,1,1,1,1,1,1,0.5284825811060347,0.0,0.4132315812238882,0.767908591952926,0.0,0.5729750916407594,0.1590389111861351,0.006065601555479803,0.22767055497866376,0.0016629857512301567,0.023443092694936052,0.1263067289634618,0.2624053388011098,0.14909216425958938,0.01587336082737409,0.2738786344589178,-0.11339691911187678,0.01797361894846239,-0.07545253166799945,0.12595699787567333,0.0149864158228393,-0.05653399541776882,-0.15647631757563688,0.01862961823660067,0.4896809541546816,-1.4139802183665666e-06,0.8267858312463973,-0.18420757538651447,0.07735158863831265,0.3923988831213044,0.03880162695135314,1.4139802183665666e-06,0.8267858312463973,0.18420757538651447,0.07735158863831265,0.020832698102583813,0.05963573903415532,0.0,3,0.3,0,9,0.06869123196675472,251.2653558773987,0.11133876625004328,123.84669911774965,0.13005900947959148,0.0,0,0,0,0
