time,trans_flag,des_cont_state_fl,des_cont_state_fr,des_cont_state_rl,des_cont_state_rr,cont_state_fl,cont_state_fr,cont_state_rl,cont_state_rr,vel_cmd_x,vel_cmd_y,vel_cmd_yaw,acc_cmd_x,acc_cmd_y,acc_cmd_yaw,base_pos_x,base_pos_y,base_pos_z,base_ang_roll,base_ang_pitch,base_ang_yaw,FL_foot_pos_x,FL_foot_pos_y,FL_foot_pos_z,FR_foot_pos_x,FR_foot_pos_y,FR_foot_pos_z,RL_foot_pos_x,RL_foot_pos_y,RL_foot_pos_z,RR_foot_pos_x,RR_foot_pos_y,RR_foot_pos_z,base_vel_x,base_vel_y,base_vel_z,base_vel_roll,base_vel_pitch,base_vel_yaw,x_vel_err,y_vel_err,z_vel_err,roll_vel_err,pitch_vel_err,yaw_vel_err,cmd_err,cont_err,terr_freq,terr_height,failed,gait_id,base,CoT,musculoskeletal,foot_force,MWE,stability,FL_stride_t,FR_stride_t,RL_stride_t,RR_stride_t
0.01,0.0,1,0,0,1,1,0,0,1,0.006283178692509316,0.0,0.005026527078818862,0.6283178692509316,0.0,0.5026527078818862,0.0001710272627867968,4.2724432908911135e-06,0.3093895636306115,-0.000182088109172371,-0.0015724969751242934,-0.00017365722979584072,0.18290992085256497,0.13205761796306661,0.017331944559477785,0.18741009562604327,-0.1302542594287606,0.030508771275718466,-0.17813384620021455,0.13053714386546406,0.03069048133204688,-0.18489461484369035,-0.1319692900804859,0.017336393888717355,0.03488433582989295,-0.0014039824313009555,-0.12630496495622223,0.010552548660728769,-0.32227267066553095,0.0057160600744524314,0.028601157137383634,0.0014039824313009555,0.12630496495622223,0.010552548660728769,0.32227267066553095,0.0006895329956335692,0.030694672564318157,30.0,3,0.3,0,4,0.037853083853003705,222.56104909556134,0.07488764528619661,35.46013285471373,0.8925592044021665,30.0,0,0,0,0
0.02,0.0,1,0,0,1,1,0,0,1,0.014137091596022201,0.0,0.011309492449657768,0.7853912903512885,0.0,0.6282965370838907,0.0004764911482593318,-4.348428023763359e-05,0.30802010774842054,-0.000495633452381366,-0.004569537379684574,-0.000243738204299232,0.1828685488435645,0.13205177506238552,0.01734061255656344,0.1941465521113971,-0.12988055701745413,0.050446539660866874,-0.17372928982827943,0.12960401062491667,0.047042163084041175,-0.18544340009588095,-0.13190700929101437,0.017348956514497804,0.017686291067922605,-0.008631432192493398,-0.12675009417019684,-0.0942845992286226,-0.19033372877678012,-0.035091713561008535,0.0035491994719004036,0.008631432192493398,0.12675009417019684,0.0942845992286226,0.19033372877678012,0.0464012060106663,0.0585818376750601,0.0,3,0.3,0,4,0.0446105214892743,69.06690823916203,0.08088064358568217,137.7552233432218,0.17287589878394283,0.0,0,0,0,0
0.03,0.0,1,0,0,1,1,0,0,1,0.02199086497214841,0.0,0.01759201134109972,0.7853773376126207,0.0,0.628251889144195,0.0005795015962193926,-0.00015160573722976004,0.30683895460184174,-0.0019357409097578461,-0.005818885664873541,-0.0005118950208285126,0.18280716563135224,0.13204160151065855,0.017349412567444766,0.19693363102047579,-0.13115722034436067,0.0688765469010093,-0.17185870912637702,0.1298007803782025,0.060985708756083404,-0.1855263160946961,-0.13191185572961672,0.01735821951423147,0.003890914246234721,-0.011828077184219628,-0.11162939396767015,-0.13048475585120425,-0.05283812134509168,-0.016385507254416846,0.018099950725913687,0.011828077184219628,0.11162939396767015,0.13048475585120425,0.05283812134509168,0.033977518595516565,0.06390554650564988,0.0,3,0.3,0,4,0.06169129492011223,48.33931574400846,0.07358830695914681,137.00393693727165,0.2502031873779572,0.0,0,0,0,0
0.04,0.0,1,0,0,1,1,0,0,1,0.02984442130731541,0.0,0.023873835730056265,0.7853556335166999,0.0,0.6281824388956546,0.0005889613458076521,-0.0002845332246282008,0.3058047868191971,-0.0032895244589542473,-0.006073311564396944,-0.0005611632343081803,0.18274009685014156,0.13203291164088576,0.017358140442107234,0.19604815087214983,-0.13286612025868855,0.08214961386831064,-0.17163100446794022,0.12997720867270812,0.06927524459491961,-0.18559552529485565,-0.13192083417642408,0.01736696039475072,-0.003945623585930249,-0.012544042707926941,-0.09486453092944745,-0.009456862262393378,-0.012671937332520863,0.01115720293808789,0.033790044893245656,0.012544042707926941,0.09486453092944745,0.009456862262393378,0.012671937332520863,0.012716632791968375,0.059050720393140965,0.0,3,0.3,0,4,0.0638333901464239,38.63471151426974,0.06764561868620991,119.24242233542927,0.2569201446815907,0.0,0,0,0,0
0.05,0.0,1,0,0,1,1,0,0,1,0.03769768309009279,0.0,0.030154717620856746,0.7853261782777381,0.0,0.628088189080048,0.0005127068288030361,-0.00040896304857593086,0.30489311995375873,-0.002322695023196155,-0.006236937611220794,-0.0003278399642426702,0.18267749022713245,0.1320279478534731,0.017366573938977697,0.19285051200508993,-0.13365207172382237,0.08975876814105989,-0.17120767706142634,0.12970624197914876,0.07455695062513557,-0.1856680009094543,-0.13193208009272422,0.01737565810075764,-0.011512802207787273,-0.010855678685245031,-0.08928574116548493,0.18788827623631857,-0.0013643020981154062,0.025181036558059096,0.049210485297880066,0.010855678685245031,0.08928574116548493,0.18788827623631857,0.0013643020981154062,0.00497368106279765,0.06503984504592275,0.0,3,0.3,0,4,0.05845953147544016,30.484799452729163,0.05999672674451832,110.66744274557018,0.06162624798739305,0.0,0,0,0,0
0.06,0.0,1,0,0,1,1,0,0,1,0.04555057281195724,0.0,0.036434409055038704,0.7852889721864452,0.0,0.6279691434181958,0.0004057628770754264,-0.0005104708633059229,0.30400566061263473,-0.001020558096250857,-0.00628520453062964,1.3301137959107454e-05,0.18261295801723793,0.1320260672470498,0.017374983422669354,0.1893186012491496,-0.13407522674138203,0.09416832180227358,-0.17102375205687076,0.12940714512099874,0.07757718272471831,-0.18573842092084256,-0.13194319974082833,0.01738427172524329,-0.010309641335147472,-0.00803481358861303,-0.08788019606039439,0.1586298043574469,-0.012723383140690638,0.04203859630497647,0.055860214147104716,0.00803481358861303,0.08788019606039439,0.1586298043574469,0.012723383140690638,0.0056041872499377685,0.0694992149856555,0.0,3,0.3,0,4,0.06674647372001467,37.9496664963661,0.0627065385789129,111.79345186342104,0.019223080302538123,0.0,0,0,0,0
0.07,0.0,1,0,0,1,1,0,0,1,0.05340301296805755,0.0,0.04271266212113687,0.7852440156100309,0.0,0.6278253066098166,0.00032314918713176083,-0.0005759749151562868,0.3031449491624925,0.000496401466622829,-0.0065259707822096225,0.0005008673416666579,0.18255363866728525,0.1320283253556961,0.017383299803265834,0.18528125899183925,-0.13413882530376392,0.0957095287852912,-0.17097463372273272,0.12889794939468416,0.07868922863033793,-0.1858063631571148,-0.1319535090750879,0.017392866692697295,-0.006480679121245976,-0.004653074519412721,-0.08360088435346813,0.12674216392137236,-0.03929528930951604,0.05551390257403787,0.059883692089303525,0.004653074519412721,0.08360088435346813,0.12674216392137236,0.03929528930951604,0.012801240452901,0.07733800706161724,0.0,3,0.3,0,4,0.07477900621072799,42.46396804234424,0.06399272442349277,115.50772253547316,0.05537499166045223,0.0,0,0,0,0
0.08,0.0,1,0,0,1,1,0,0,1,0.06125492605797953,0.0,0.048989228964470284,0.7851913089921981,0.0,0.6276566843333414,0.0002855719659078658,-0.0005841448784556534,0.30231757742704607,0.0019245837407529168,-0.006990742583260934,0.0009631968762991301,0.18250099642882764,0.13203352416571482,0.0173915254790572,0.18067302660607448,-0.1343086929504129,0.09386889955313243,-0.17227137963781072,0.12858480043434972,0.07730296383270867,-0.18586952411997373,-0.13195912465480658,0.017401393264991044,-0.002903177845096864,0.0015066635820435532,-0.07949282726643082,0.10229899610332065,-0.053742859093947264,0.039958903266898674,0.0641581039030764,0.0015066635820435532,0.07949282726643082,0.10229899610332065,0.053742859093947264,0.00903032569757161,0.07469509318269157,0.0,3,0.3,0,4,0.0699282302689607,41.58030182238075,0.06191780596433919,117.39888847711038,0.09046326994615739,0.0,0,0,0,0
0.09,0.0,1,0,0,1,1,0,0,1,0.06910623458651093,0.0,0.055263861796927174,0.7851308528531393,0.0,0.627463283245689,0.00024384270319609657,-0.0005848029294527624,0.3016216851584242,0.001299955337706511,-0.007507666097087196,0.0014906165766534556,0.18244901628179372,0.13204014224345217,0.01739964200454161,0.17540095274574807,-0.13417198162047658,0.08829616062720404,-0.17395930214518623,0.12872169640535744,0.07260693740720708,-0.18591381405801524,-0.13196686802061752,0.01740961870703356,-0.008800692177181043,-0.0006212811421068117,-0.05340117009858321,-0.12605271210107635,-0.01686797274284324,0.06627272024991296,0.07790692676369197,0.0006212811421068117,0.05340117009858321,0.12605271210107635,0.01686797274284324,0.011008858452985784,0.08953706635878457,0.0,3,0.3,0,4,0.07789402646931189,55.984619986084034,0.07273320077945694,130.73144479553153,0.1358224328005544,0.0,0,0,0,0
0.1,0.0,1,0,0,1,1,0,0,1,0.07695686106440629,0.0,0.06153631290674721,0.7850626477895362,0.0,0.6272451109820033,0.00011237572486551446,-0.000583461883348555,0.3013083088978206,-0.0013150122739625804,-0.006833929599593391,0.0021708523882427153,0.18239296025402882,0.13204864306808894,0.017407672534029583,0.1722070279767562,-0.13402067295797068,0.08223464947807817,-0.17584444749959038,0.12814689061067913,0.06417275955404145,-0.18591427486752002,-0.13197426174941462,0.01741749920689717,-0.01946133510793701,0.002328562572153374,-0.011176372112030647,-0.35509800688229676,0.15740630877194353,0.060882716038756314,0.09641819617234329,0.002328562572153374,0.011176372112030647,0.35509800688229676,0.15740630877194353,0.0006535968679908938,0.09940035561248756,0.0,3,0.3,0,4,0.09802108153995757,81.09881477411236,0.08306576971279897,169.33885356870198,0.20487439867706292,0.0,0,0,0,0
0.11,0.0,1,0,0,1,1,1,0,1,0.08480672800915168,0.0,0.06780633466830074,0.784986694474539,0.0,0.6270021761553536,-0.00022229557892704659,-0.0005043566978922762,0.3015867686731469,-0.009172543572694722,-0.005861001685699696,0.0028659689860639137,0.18234902848613294,0.1320634282921652,0.01741546759491161,0.1720468697917793,-0.13381063426326817,0.08279511752330865,-0.17698002555270234,0.12677043841810434,0.05422034880624424,-0.1858717001310618,-0.13197493652264247,0.017426141935190875,-0.04691747646351222,0.014167910528549823,0.06732825928249303,-1.075791684454578,-0.008797253912531217,0.08300630068073422,0.1317242044726639,0.014167910528549823,0.06732825928249303,1.075791684454578,0.008797253912531217,0.01519996601243348,0.1610920810136472,25.0,3,0.3,0,4,0.13342967038509287,98.19968506512772,0.09299879349460587,176.72295956832056,0.08710069795877232,25.0,0.0,0.09999999999999999,0.0,0.0
0.12,0.0,1,0,0,1,1,1,0,1,0.09265575794572947,0.0,0.0740736795518646,0.7849029936577795,0.0,0.6267344883563855,-0.0008488070685203985,-0.000303733651174227,0.30262610980773275,-0.020442719446488716,-0.00801470629684764,0.004026772795151229,0.18236457499722278,0.13209262727213378,0.017424040871066804,0.17211552714124345,-0.1337817456890876,0.08280836658202073,-0.179060620483213,0.12466791849442126,0.04277511429074812,-0.1858307949120869,-0.13197437320015146,0.017435593509053382,-0.0749468837563976,0.024514716044715678,0.13670449460634826,-1.097072009536619,-0.45539283148912885,0.13772385997146513,0.16760264170212708,0.024514716044715678,0.13670449460634826,1.097072009536619,0.45539283148912885,0.06365018041960054,0.25576753816644326,25.0,3,0.3,0,4,0.2202299151805655,115.19769356687598,0.09424651492856508,204.36781950021606,0.08499893865425492,25.0,0,0,0,0
0.13,0.0,0,0,0,0,1,1,0,1,0.10050387340738298,0.0,0.08033810013339421,0.784811546165351,0.0,0.6264420581529608,-0.0014713896450181652,0.00013408775607943552,0.30397992256613626,-0.03237924225526276,-0.013907830461344695,0.005589402868784623,0.1824125264408271,0.12921711457090074,0.024364786788021064,0.17224085091054117,-0.133729723602702,0.08283318185785832,-0.1893355534839391,0.12127727770795561,0.024860243912301017,-0.1858119213192961,-0.13197893345879547,0.01744487430014266,-0.03936323182760277,0.058921022120199285,0.12366300649656019,-1.309857073523241,-0.7447630590480696,0.12011557145846201,0.13986710523498574,0.058921022120199285,0.12366300649656019,1.309857073523241,0.7447630590480696,0.0397774713250678,0.23856559868025284,75.0,3,0.3,0,4,0.25923048027158807,172.09464449124857,0.08943702449821364,118.77499216925871,0.44638727866313993,75.0,0,0,0,0
0.14,0.0,0,0,0,0,0,1,1,0,0.10835099693638103,0.0,0.08659934910429141,0.7847123528998051,0.0,0.6261248970897206,-0.001896927924341573,0.0008121596283797072,0.30493109695653375,-0.048385119169708835,-0.023791643934692353,0.007258407566064401,0.18293161301171224,0.12705724154317477,0.032842686765042456,0.17239835564187714,-0.13365973364082293,0.08286477993097681,-0.19693203666737288,0.11891673081277478,0.014567741987383587,-0.18517645904745048,-0.13361009951277195,0.021871954848405484,-0.040712201050798376,0.06990079593693126,0.08032270380921475,-1.4786099570298308,-1.0736917340021708,0.15047185870930027,0.1490631979871794,0.06990079593693126,0.08032270380921475,1.4786099570298308,1.0736917340021708,0.06387250960500886,0.2828365035291195,50.0,3,0.3,0,4,0.25663236537198,114.26447407793194,0.08182795682849323,151.4676088638467,0.6859341179749218,50.0,0.0,0.0,0.12999999999999998,0.0
0.15,0.0,0,1,1,0,0,1,1,0,0.11619705108478236,0.0,0.09285717928116781,0.7846054148401324,0.0,0.6257830176876394,-0.0022913632235957953,0.0015749043282332802,0.305908688706846,-0.054933105065328856,-0.03164869241064361,0.009114661644147109,0.1833273130980709,0.12921153092727153,0.04571884574989332,0.17251911790280813,-0.1335923089709145,0.08288334083173762,-0.1969985891864995,0.11894323212042734,0.014584959072244663,-0.18528287032762072,-0.13785186723991524,0.02826448112359667,-0.03187336972206098,0.06991678678855233,0.1348922197986011,-0.019093209514444806,-0.5791957034919779,0.12497891986758586,0.14807042080684335,0.06991678678855233,0.1348922197986011,0.019093209514444806,0.5791957034919779,0.03212174058641805,0.25010894818181373,40.0,3,0.3,0,4,0.27043621492716474,208.99955690888072,0.13106761028908087,196.05663690398768,0.2538665007095979,40.0,0,0,0,0
0.16,0.0,0,1,1,0,0,1,1,0,0.12404195841520015,0.0,0.09911134361560314,0.7844907330417789,0.0,0.6254164334435333,-0.002427008172379494,0.002176797985568956,0.30720496165618605,-0.05884893208469581,-0.03878666989267332,0.01058568880521533,0.1804529671050058,0.1310263111321333,0.06109058776931228,0.17266827232158724,-0.13354308605573637,0.08291582300820542,-0.19702192442064184,0.11896118575581918,0.014601454903398287,-0.18495036892218025,-0.13967111965366583,0.042742999714735774,0.005717892847730527,0.04298720245175189,0.1464890780944223,-0.3032029551727697,-0.6900133754167271,0.08021950479630639,0.11832406556746962,0.04298720245175189,0.1464890780944223,0.3032029551727697,0.6900133754167271,0.01889183881929675,0.18020310683851826,0.0,3,0.3,0,4,0.19207151740779735,307.80433980676247,0.13569466191198154,184.36117033668796,0.3427512775157622,0.0,0,0,0,0
0.17,0.0,0,1,1,0,0,1,1,0,0.13188564150156615,0.0,0.10536159520389834,0.7843683086366001,0.0,0.6250251588295203,-0.0024188409848587044,0.0026875219425641595,0.30878647332527254,-0.058558327481371845,-0.04447178117146944,0.011828885998198866,0.17686993097693432,0.13144473687114142,0.07887564626970994,0.17281195295555798,-0.1335011667828966,0.0829481427404534,-0.19698530590651914,0.11897661781553308,0.014617845894242448,-0.18270793791699327,-0.139911312000612,0.06128821263207962,0.007646905372348678,0.03788065476141503,0.17886827740273012,0.0041952635709088535,-0.4861993181946105,0.09871748685097409,0.12423873612921747,0.03788065476141503,0.17886827740273012,0.0041952635709088535,0.4861993181946105,0.006644108352924255,0.16876349924355674,0.0,3,0.3,0,4,0.17222133990454314,155.17377561919238,0.09338836068238118,161.6165287457075,0.3101086662170094,0.0,0,0,0,0
0.18,0.0,0,1,1,0,0,1,1,0,0.1397280229298949,0.0,0.11160768729682284,0.7842381428328743,0.0,0.6246092092924496,-0.002422301124304776,0.0031374683869019944,0.3106918319152607,-0.05910676718376201,-0.04867160102329926,0.01300777682125692,0.17408370731179768,0.13243755016070496,0.09481306045883753,0.17296150193618595,-0.13346442255678684,0.08298381009335384,-0.19691648701265843,0.11898805195269019,0.014634834841588784,-0.18137970062919354,-0.14089670839733476,0.0780971068587396,0.013445673769044377,0.032695632012081685,0.20244858426667828,0.0779857155380786,-0.38562634134386936,0.08826100081486639,0.12628234916085052,0.032695632012081685,0.20244858426667828,0.0779857155380786,0.38562634134386936,0.023346686481956452,0.18232466765488867,0.0,3,0.3,0,4,0.1774207751431958,127.32418377451236,0.09206320159066406,146.02087586765057,0.40582753158360707,0.0,0,0,0,0
0.19,0.0,0,1,1,0,0,1,1,0,0.1475690252990478,0.0,0.11784937330935583,0.7841002369152916,0.0,0.6241686012532984,-0.002351521765526018,0.003571997078062497,0.31283445530986953,-0.057408644330674045,-0.05206565872317381,0.014130391607088687,0.17230654328180883,0.13372955935338757,0.10771522407182586,0.17311788554667695,-0.13342953451863224,0.08302208208922182,-0.19681077111364714,0.11899759102295202,0.014652651978733278,-0.1808106562144124,-0.14163536849870217,0.09108381979722543,0.02255622436136482,0.0294755375294274,0.22911340566186789,0.26501399481323884,-0.29006529388112146,0.11384795153577174,0.125012800937683,0.0294755375294274,0.22911340566186789,0.26501399481323884,0.29006529388112146,0.004001421773584091,0.1584897602406945,0.0,3,0.3,0,4,0.17624114140005182,111.41312859323679,0.08719797312296707,129.49726886355148,0.6018957604163327,0.0,0,0,0,0
0.2,0.0,0,1,1,0,0,1,1,0,0.15540857122149707,0.0,0.124086406830421,0.7839545922449259,0.0,0.623703352106518,-0.0022110386118018776,0.003994036521846736,0.31519781497264565,-0.05523722732719173,-0.05460313289186991,0.015505836640208838,0.172964133462493,0.13587093827885022,0.11714401191802049,0.17327683954652223,-0.1333905229916917,0.08306024269228682,-0.19668045710955445,0.11900352788312837,0.014671308295255786,-0.1802371084972309,-0.1422169174047904,0.09921085652805095,0.033197240213186416,0.02692788963980744,0.24383105919132161,0.14343632241072996,-0.27518233878695625,0.10451179772739283,0.12221133100831065,0.02692788963980744,0.24383105919132161,0.14343632241072996,0.27518233878695625,0.019574609103028176,0.16871382975114624,0.0,3,0.3,0,4,0.16199385756548595,106.99678149657097,0.08770899211900227,116.31318996909818,0.5243026936909838,0.0,0,0,0,0
0.21,0.0,0,1,1,0,0,1,1,0,0.16324658332408937,0.0,0.1303185416326145,0.7838012102592301,0.0,0.6232134802193492,-0.001940113649768307,0.0043735247314171544,0.31768955358062384,-0.05441131244941138,-0.05779298321141413,0.016558583073181678,0.17434783000641424,0.13871066327239034,0.11832599847939432,0.17279145114108685,-0.1330232645296375,0.08281722580873052,-0.19654212265118995,0.11901028133213112,0.014689853038755696,-0.17942429538983082,-0.14275449920973363,0.10133366266563001,0.05006754900911674,0.021261225180455,0.2519622411767281,0.05652367016558779,-0.36540603763032387,0.07937648656615072,0.11317903431497263,0.021261225180455,0.2519622411767281,0.05652367016558779,0.36540603763032387,0.05094205506646378,0.18538231456189141,0.0,3,0.3,0,4,0.18298353037230272,97.53407396161344,0.08785618914204771,95.89155172111637,0.37225725580849833,0.0,0,0,0,0
0.22,0.0,0,1,1,0,0,1,1,0,0.17108298424880955,0.0,0.1365455316819254,0.7836400924720183,0.0,0.6226990049310904,-0.0015256166454476676,0.00471555928684912,0.3202188294786614,-0.05262496642720709,-0.06145246425736861,0.01757662804142222,0.17677461257143706,0.14117739385154765,0.11393448130663425,0.1720356649733092,-0.13261728174226609,0.08248712301726452,-0.19639159318218785,0.11901533666708991,0.014708448867701979,-0.17867092971630352,-0.14258949921845412,0.09845914552040018,0.06411512286115313,0.019151746995795194,0.24802261971011277,0.2718657604420165,-0.3694903827475433,0.08422109912292566,0.10696786138765642,0.019151746995795194,0.24802261971011277,0.2718657604420165,0.3694903827475433,0.05232443255899974,0.17844404094245134,0.0,3,0.3,0,4,0.18107721537351523,95.6553406506015,0.07259652388826457,96.81989350797348,0.2114041276901849,0.0,0,0,0,0
0.23,0.0,0,1,1,0,0,1,1,0,0.17891769665354415,0.0,0.1427671311474489,0.7834712404734601,0.0,0.6221599465523503,-0.0009701268420313767,0.005043647503363014,0.32265876233037555,-0.04995859426828962,-0.06523299133029581,0.018621655689225854,0.1802843177532234,0.14322640259316333,0.10856668303552709,0.1721761579636059,-0.1325726218974786,0.08252018421966026,-0.1962388209163273,0.11901990504756481,0.01472680509943533,-0.1766860930126145,-0.14131357028763242,0.09394978509676792,0.07933833167854783,0.020091155894473738,0.23554852865753997,0.2811756982800769,-0.42400832208488154,0.08416200766329418,0.09957936497499632,0.020091155894473738,0.23554852865753997,0.2811756982800769,0.42400832208488154,0.058605123484154725,0.17827564435362478,0.0,3,0.3,0,4,0.17785522239486554,90.67001356703675,0.07227126008811771,101.3753820855896,0.230103686875904,0.0,0,0,0,0
0.24,0.0,0,1,1,0,0,1,1,0,0.18675064321284485,0.0,0.1489830944110912,0.7832946559300696,0.0,0.6215963263642293,-0.0002482966410153471,0.005356015755167234,0.32498085067379273,-0.04860262743688745,-0.06993604017437982,0.01978904782894675,0.18332261936652555,0.14449823220267508,0.10250439144648535,0.172398647734064,-0.13254716641236275,0.08258318467398021,-0.19609769760429566,0.11902191036087681,0.014744427093953322,-0.17395589516335858,-0.13873433325203507,0.08882794650435492,0.09495931196123844,0.01874483099903569,0.2201400482283871,0.08868516828586355,-0.50886027952307,0.09603297667049766,0.0917913312516064,0.01874483099903569,0.2201400482283871,0.08868516828586355,0.50886027952307,0.052950117740593536,0.16348627999123563,0.0,3,0.3,0,4,0.1643851412060438,79.97524611913377,0.06384113508771455,103.56919000485888,0.22051162041750483,0.0,0,0,0,0
0.25,0.0,0,1,1,0,0,1,1,0,0.19458174661869126,0.0,0.15519317607726604,0.7831103405846418,0.0,0.6210081666174844,0.0006007140959555353,0.005675150889517315,0.3272178255254105,-0.048143156323426875,-0.07532860520026685,0.02111812232924766,0.1857310472908252,0.14542421575345799,0.09549214685192642,0.17263448394632944,-0.13252003622283123,0.08265033460884053,-0.19596243427335713,0.11902275583587027,0.014761667881640184,-0.17075335122861443,-0.1351355758968437,0.08278735156440568,0.10742060762640432,0.02028345001725903,0.21591009247134635,0.025920754562469714,-0.5798779080272043,0.11186887609230944,0.08716113899228695,0.02028345001725903,0.21591009247134635,0.025920754562469714,0.5798779080272043,0.0433242999849566,0.15076888899450258,0.0,3,0.3,0,4,0.1532540068245645,85.76279915601243,0.06427265463877206,112.42419290121606,0.1514022651691459,0.0,0,0,0,0
0.26,0.0,0,1,1,0,0,1,1,0,0.2024109295812544,0.0,0.16139713098258265,0.782918296256313,0.0,0.6203954905316611,0.001569226078543123,0.005998093110404483,0.32938236855637865,-0.04822146050275503,-0.08121702166441858,0.02258334475880237,0.18826879405746855,0.1464598503293184,0.0888473440505385,0.17287829935529844,-0.132492237308718,0.082720113352032,-0.19582887598282686,0.11902231844765881,0.014778712883112721,-0.16795876246202746,-0.13129962723088606,0.07557416434233563,0.12073160731636767,0.020126450875722735,0.20468195786189874,0.04082085447529667,-0.5702633412248063,0.12432892082153611,0.08167932226488672,0.020126450875722735,0.20468195786189874,0.04082085447529667,0.5702633412248063,0.03706821016104654,0.138873983301656,0.0,3,0.3,0,4,0.14404024507042432,84.79474023492985,0.07011873428803023,114.14636256245505,0.19479147136103625,0.0,0,0,0,0
0.27,0.0,0,0,0,0,0,1,1,0,0.21023811482965918,0.0,0.16759471420552421,0.7827185248404783,0.0,0.6197583222941561,0.0026443267710296106,0.006306284555058895,0.33149439279488546,-0.04837501090121864,-0.08637584788471342,0.024121803023659724,0.19131903409446613,0.14792777408245744,0.08277363250987493,0.17311776387783603,-0.13246552896782368,0.08278852906701353,-0.19568172790103314,0.11901922925823355,0.014796042001496756,-0.16533616543894014,-0.12750308171854965,0.06593648743049275,0.12729771882730923,0.01593593925653903,0.20320544165605411,-0.0718072594746759,-0.41597561799033084,0.1416299538912712,0.08294039600234995,0.01593593925653903,0.20320544165605411,0.0718072594746759,0.41597561799033084,0.025964760314253016,0.12484109557314199,10.0,3,0.3,0,4,0.13419341234851778,87.13387307002878,0.06688726470711734,118.123000759164,0.14117668407385442,10.0,0,0,0,0
0.28,0.0,0,0,0,0,0,1,1,0,0.21806322511274712,0.0,0.17378568107611705,0.7825110283087938,0.0,0.619096687059284,0.003695597417183591,0.006585626850482608,0.3333528386979918,-0.04815203169130753,-0.0890464592095952,0.025674962657774726,0.1932196107354471,0.15065105289968994,0.07562242363275021,0.17331167820699211,-0.1324399294917805,0.0828414541550222,-0.19553048185215025,0.11901465542249395,0.014813574305618166,-0.16126369009771765,-0.12431365872973212,0.05404699908474413,0.11902749573158086,0.017887387462311923,0.14435387846655612,0.23895324462948603,-0.1756809292813342,0.15187510032791066,0.09903572938116625,0.017887387462311923,0.14435387846655612,0.23895324462948603,0.1756809292813342,0.0219105807482064,0.13883369759168457,50.0,3,0.3,0,4,0.13973503152235986,28.795882221740932,0.029753853149127076,55.050351066644154,0.2121788622664158,50.0,0,0,0,0
0.29,0.0,0,0,0,0,0,1,1,0,0.2258861831998389,0.0,0.17996978718558976,0.7822958087091797,0.0,0.6184106109472703,0.004794634491536974,0.006837365164650374,0.33455045971664715,-0.04242512162258393,-0.08977725026629435,0.027498780792287337,0.19161845212014986,0.15490343747566118,0.06908730528017515,0.1734692276203888,-0.13241278523901534,0.08288685704398993,-0.19538051129792128,0.11900417660701267,0.014830640824643054,-0.15931558887471525,-0.12170185144979147,0.0436167435795653,0.12083705065652166,0.015795765587491746,0.07790722453251936,0.955932432226799,0.05929553512943744,0.2026147661881117,0.10504913254331726,0.015795765587491746,0.07790722453251936,0.955932432226799,0.05929553512943744,0.022644979002521937,0.14348987713333095,50.0,3,0.3,0,4,0.1296640398620946,29.6344090547303,0.04953539303411051,69.45623130709396,0.27220199386495114,50.0,0,0,0,0
0.3,0.0,1,0,0,1,0,0,1,0,0.23370691188149645,0.0,0.186146788396022,0.7820728681657535,0.0,0.6177001210432242,0.005920290870047,0.007024470639388342,0.33498647173469775,-0.032105096515200514,-0.08796635878469172,0.0296269444399457,0.18690252853453362,0.1604420999392791,0.06257809097261047,0.17469112353511088,-0.13127807023817897,0.08434723921201298,-0.19405479412474966,0.11914158845189801,0.016071713639682572,-0.16004557301128003,-0.11930143922549503,0.033559045467346504,0.11286826339041506,0.013199864289659451,-0.02275690796643106,0.9099212820257642,0.14947378966574504,0.2297707112746995,0.12083864849108139,0.013199864289659451,0.02275690796643106,0.9099212820257642,0.14947378966574504,0.0436239228786775,0.17766243565941833,50.0,3,0.3,0,4,0.1662384184179581,26.53673001810169,0.03581181179760366,20.58546541052869,0.045894889980729325,50.0,0,0,0,0
0.31,0.0,1,0,0,1,0,0,0,0,0.241525333970285,0.0,0.19231644084998276,0.7818422088788551,0.0,0.6169652453960756,0.007107549276045839,0.0072037254385168585,0.33411265575335636,-0.02502045162851605,-0.08781537034617437,0.03191726231604704,0.18286322398228846,0.16328635532766847,0.05992647571448012,0.17922307193236625,-0.12775065509298816,0.087213527549969,-0.18853932272868523,0.1197617302419145,0.025362688476695983,-0.1612574157436243,-0.11710285255149828,0.028478207142095313,0.10244125496951684,0.01867598660158483,-0.15305451732104255,0.7437101080496821,-0.053761398736682016,0.21315457593320145,0.13908407900076816,0.01867598660158483,0.15305451732104255,0.7437101080496821,0.053761398736682016,0.02083813508321869,0.1785982006855717,55.0,3,0.3,0,4,0.18292713791237986,38.6646583561482,0.045837858997808865,0.0,0.37385158557861986,55.0,0,0,0,0
0.32,0.0,1,0,0,1,0,0,0,0,0.249341372301535,0.0,0.1984785009801572,0.7816038331249997,0.0,0.6162060130174452,0.008237432945482107,0.007403557711792025,0.33215567606549623,-0.016341149557396083,-0.08833573278742235,0.03414602970843205,0.1783788218150673,0.16468581893212997,0.05529639457786026,0.18476474521253386,-0.12312695110433002,0.09075349314989273,-0.18002327891753245,0.12190476961988675,0.03744448545338311,-0.16232886893076653,-0.11669643307925474,0.022318263582018744,0.09112335071628525,0.02051663170827646,-0.25488111727501955,0.9517495908886524,-0.04409266547144781,0.24147698127638137,0.15821802158524975,0.02051663170827646,0.25488111727501955,0.9517495908886524,0.04409266547144781,0.04299848029622416,0.2217331335897504,50.0,3,0.3,0,4,0.19972749258988037,17.422552423875793,0.02885459696772664,0.0,0.5108519010745309,50.0,0,0,0,0
0.33,0.0,1,0,0,1,0,0,0,1,0.2571549497341036,0.0,0.2046327255189626,0.781357743256858,0.0,0.6154224538805403,0.009379953412260717,0.007594496962936151,0.32921672779914496,-0.008088977201178767,-0.08836245979141877,0.03669730275439112,0.17291188013445014,0.1657877650991121,0.04941320188462661,0.1906528332071131,-0.1195799047370464,0.09527137130687763,-0.17254225038845897,0.12503872575067693,0.04756916722196311,-0.1631795179437829,-0.11616390391218788,0.018335227720320757,0.08559781286038512,0.019283474129940265,-0.3421669202505111,0.6971060620831259,0.09388723901327255,0.25252448516138254,0.17155713687371846,0.019283474129940265,0.3421669202505111,0.6971060620831259,0.09388723901327255,0.04789175964241993,0.23873237064607866,45.0,3,0.3,0,4,0.23757004206182178,6.55784494782916,0.01898696100082193,36.92882443763842,0.4974337098857835,45.0,0.0,0.0,0.0,0.19000000000000003
0.34,0.0,1,0,0,1,0,0,0,1,0.2649659891511359,0.0,0.21077887150815186,0.7811039417032317,0.0,0.614614598918925,0.010583164720167853,0.00785362892048363,0.32562223363401277,-0.0025755718551641418,-0.08619988265459333,0.03931512162490817,0.16667921416842899,0.16570272575750003,0.041980915874262864,0.19516726414477312,-0.11725595897877744,0.10075046794356625,-0.1665077544271838,0.1276024806576391,0.055961313523882145,-0.16331454412163204,-0.11620107939755672,0.018351173217089123,0.09337383646486555,0.026867591281755594,-0.39066188104493443,0.3951527321559898,0.3610327787467994,0.2796313105068448,0.17159215268627034,0.026867591281755594,0.39066188104493443,0.3951527321559898,0.3610327787467994,0.06885243899869295,0.2673121829667189,25.0,3,0.3,0,4,0.2517898160406296,21.045314136349212,0.0504298866541286,62.09092755209163,0.5724464650108858,25.0,0,0,0,0
0.35000000000000003,0.0,1,0,0,1,0,0,0,1,0.2727744134608264,0.0,0.21691669630840524,0.7808424309690531,0.0,0.6137824800253378,0.011869201121401086,0.008212736554852445,0.3216251805136837,-0.0015028188927678572,-0.08099968321741136,0.04230585060548077,0.16187989189902263,0.16392049711586923,0.032246862922550745,0.19781354066653814,-0.11629219492484416,0.10672891550157589,-0.162839907174271,0.12879843388460008,0.06276918288730161,-0.1634134453943576,-0.11623325158646922,0.0183650229674365,0.09792972112238585,0.03796401077599539,-0.42526344178926834,0.017582102251198328,0.6860530366471007,0.3085920642806434,0.17484469233844058,0.03796401077599539,0.42526344178926834,0.017582102251198328,0.6860530366471007,0.09167536797223816,0.30448407108667414,25.0,3,0.3,0,4,0.2928811362873988,28.85620820745454,0.05664575350966698,69.39106156736064,0.7011809832450266,25.0,0,0,0,0
0.36,0.0,1,0,0,1,0,0,0,1,0.2805801455971796,0.0,0.2230459576089092,0.7805732136353161,0.0,0.6129261300503952,0.013183694002234217,0.008694093359425215,0.3173126729017244,-0.00421888990993431,-0.07246004224225411,0.045491324612837544,0.15908795133199904,0.15972028260513765,0.020731823466550225,0.19978921126380667,-0.11535282077783779,0.11209761534905885,-0.1604621660588775,0.12873133988919844,0.06770981842680535,-0.16347363633092027,-0.1162547014256117,0.018376681848527893,0.10154178710061783,0.0485489521388267,-0.4522234018715199,-0.5715474323059866,1.0213204204717672,0.32946590263097025,0.17903835849656174,0.0485489521388267,0.4522234018715199,0.5715474323059866,1.0213204204717672,0.10641994502206106,0.3340072556574495,25.0,3,0.3,0,4,0.3227361865723509,26.21395110493905,0.04382280424911218,67.44067161557494,0.807705521511936,25.0,0,0,0,0
0.37,0.0,1,0,0,1,1,0,0,1,0.2883831085207705,0.0,0.22916641343692262,0.7802962923590895,0.0,0.6120455828013432,0.0145136596370685,0.009277754571945802,0.3128002428384735,-0.011218402547988188,-0.06046678067530831,0.0485545095905417,0.15821442222601717,0.1581565782440611,0.01694224950250997,0.20203343617401498,-0.11462591830707494,0.11483726040066007,-0.158578493227339,0.12775831203320276,0.06948271486518354,-0.16349320214465576,-0.11626022987156691,0.018386255963526388,0.11237520234669796,0.06049291743071446,-0.44943151612019927,-0.3756757524393917,1.2641436933588208,0.29537876918241907,0.17600790617407253,0.06049291743071446,0.44943151612019927,0.3756757524393917,1.2641436933588208,0.06621235574549644,0.3027131793502834,15.0,3,0.3,0,4,0.32093817763201826,34.386502913258155,0.054920909369401236,153.14060335919189,0.5578291434636622,15.0,0.23000000000000007,0.0,0.0,0.0
0.38,0.0,1,0,0,1,1,0,0,1,0.29618322521950524,0.0,0.23527782216732931,0.780011669873476,0.0,0.6111408730406692,0.015972843346363345,0.009898055603562658,0.3086478341540008,-0.013515257635893074,-0.04893698198009955,0.05131158760541137,0.15789831257339842,0.15819197313435063,0.016990389248255244,0.2046927676186888,-0.11362657421038104,0.11571340328179712,-0.1543180587197593,0.1274078794462763,0.07061874367374663,-0.1634957597711806,-0.11626511921299454,0.01839550338158899,0.13954851972482704,0.05740049867552598,-0.3877794233043711,-0.08184712579655641,0.9961053385396766,0.28721478671177786,0.1566347054946782,0.05740049867552598,0.3877794233043711,0.08184712579655641,0.9961053385396766,0.051936964544448544,0.2659721687146527,0.0,3,0.3,0,4,0.28025220741873635,91.98164071180273,0.10206066281961748,188.91913376263534,0.13715169426629314,0.0,0,0,0,0
0.39,0.0,1,0,0,1,1,0,0,1,0.3039804187093811,0.0,0.24137994253217698,0.7797193489875842,0.0,0.6102120364847669,0.017684688381868697,0.010510303431050097,0.3051750496528626,-0.01330053247396611,-0.04084354161770687,0.05404382144735247,0.1577041164615721,0.1582356957837246,0.017022269751957614,0.20488939320190652,-0.11215677399322882,0.11003892063536888,-0.15173706494595643,0.12801631020392215,0.06654941808055845,-0.16347757280211184,-0.1162723068196515,0.018405538436331054,0.18065915458897885,0.05779863930717343,-0.3219777608900695,0.11135970403086584,0.6140465945728217,0.2804561934295875,0.12332126412040223,0.05779863930717343,0.3219777608900695,0.11135970403086584,0.6140465945728217,0.039076250897410514,0.22019615432498618,0.0,3,0.3,0,4,0.2395721059072522,114.80180564606185,0.10379219040053675,179.9451386069379,0.206093859969099,0.0,0,0,0,0
0.4,0.0,1,0,0,1,1,0,0,1,0.3117746120352462,0.0,0.2474725336302022,0.7794193325865117,0.0,0.6092591098025207,0.019790096402234055,0.011191312682681125,0.30231194654527405,-0.01233235166299855,-0.035736454029707376,0.05696755580011175,0.15760464942204472,0.15829149161438902,0.017045825150500266,0.20472496589071118,-0.11069746602966184,0.09796531469254205,-0.1480909864693039,0.12876450979306261,0.05522554490246606,-0.16341473148597047,-0.11627732046797748,0.0184165639429677,0.22107284093622925,0.06277168478252544,-0.26392577428389524,-0.018076570523387903,0.47234974803002017,0.30675784997680655,0.09070177109901695,0.06277168478252544,0.26392577428389524,0.018076570523387903,0.47234974803002017,0.05928531634660436,0.21275877222814674,0.0,3,0.3,0,4,0.21850007325968082,219.7325950114091,0.11842828189073507,168.72220409669933,0.6295822398924927,0.0,0,0,0,0
0.41000000000000003,0.0,1,0,0,1,1,0,0,1,0.31956572827155894,0.0,0.2535553549363405,0.7791116236312734,0.0,0.6082821306138325,0.022195371868640217,0.011971987756828619,0.3000586063369335,-0.014101676574569118,-0.030983790863823524,0.0598192138424546,0.1575635182610283,0.15835493599719191,0.017066489424845094,0.20938771734668904,-0.1102945929366626,0.08397710387359436,-0.14022371691403057,0.13007557491569555,0.04210469827961506,-0.16328483620876127,-0.11626742832132156,0.01842723488193157,0.25340873732047264,0.07078568686196093,-0.2009279529538813,-0.3915974181588809,0.45994909599900374,0.2809359826425873,0.06615699095108629,0.07078568686196093,0.2009279529538813,0.3915974181588809,0.45994909599900374,0.027380627706246774,0.164323305519294,0.0,3,0.3,0,4,0.18129345743469763,251.2660838671427,0.13182515925400456,192.42629916452674,0.5481676833484825,0.0,0,0,0,0
0.42,0.0,0,0,0,0,1,1,0,1,0.32735369052314756,0.0,0.2596281663112222,0.778796225158862,0.0,0.6072811374881693,0.024813762828651626,0.012883001611030193,0.29836079942073795,-0.018807264660785722,-0.02651613508247097,0.06236554174310957,0.1575990741259435,0.15824817544457054,0.017209510545732803,0.21156311613831216,-0.11012848140418154,0.0797310798529765,-0.13002147447314294,0.13085500303062303,0.029755982325816097,-0.16315199471553954,-0.11625554401794393,0.018438151919072693,0.2698836618525809,0.09199116945047614,-0.14641765923591527,-0.5739023231643273,0.28381566135652025,0.2308442690434289,0.057470028670566664,0.09199116945047614,0.14641765923591527,0.5739023231643273,0.28381566135652025,0.028783897267793318,0.17824509538883612,20.0,3,0.3,0,4,0.16489686422461242,181.70308027459356,0.1193123812657775,256.56695281863813,0.583518445964863,20.0,0.0,0.11999999999999998,0.0,0.0
0.43,0.0,0,0,0,0,0,1,0,1,0.33513842192596877,0.0,0.2656907280106526,0.778473140282121,0.0,0.6062561699430369,0.028008973744433355,0.014207214548662733,0.2968281557361045,-0.021773933867322903,-0.029420770180833555,0.06460007914762692,0.15749250549220908,0.1534042577013768,0.01887466120773662,0.2112858357943629,-0.10989268160118623,0.0795948011850484,-0.13135653618660853,0.12938342670298916,0.0149445310645437,-0.16380863306146556,-0.11650924718666567,0.01846017980748746,0.3733717478598291,0.13348517222514172,-0.16804041084514487,-0.3176688721312502,-0.8139468769502618,0.22912068064171262,0.03823332593386031,0.13348517222514172,0.16804041084514487,0.3176688721312502,0.8139468769502618,0.036570047368939956,0.208288545527942,70.0,3,0.3,0,4,0.1900248321323036,349.49816855694377,0.13013623038880978,133.15448317891656,0.7841239613419788,70.0,0,0,0,0
0.44,0.0,0,0,0,0,0,1,1,1,0.3429198456478665,0.0,0.2717428006950765,0.7781423721897718,0.0,0.6052072684423926,0.031661420859499946,0.015745257007080054,0.29555562732852275,-0.03124131064857531,-0.03526722714997854,0.0679150986621994,0.16127593949254623,0.14836792031054605,0.02287848987333735,0.2116052559244691,-0.10974027485170815,0.07964115808500594,-0.13133756448086373,0.1294343603306237,0.014977314706142303,-0.16380064018077092,-0.11692657847576118,0.018481434153734738,0.36617903147421077,0.12982074141376707,-0.09977011528605155,-1.195777467455233,-0.34136028342918834,0.35094631647643565,0.023259185826344286,0.12982074141376707,0.09977011528605155,1.195777467455233,0.34136028342918834,0.07920351578135915,0.2322834430214705,70.0,3,0.3,0,4,0.22347936613901953,154.22176770825286,0.12479217523141257,261.6878388049499,0.4504437399359016,70.0,0.0,0.0,0.12999999999999998,0.0
0.45,0.0,0,1,1,0,0,1,1,1,0.3506978848893299,0.0,0.2777841454390272,0.7778039241463419,0.0,0.6041344743950683,0.03525955079032257,0.017179277264262115,0.2948904585453587,-0.043304447051733114,-0.03757371690662081,0.07129034795877214,0.16836816787436226,0.14762154338186884,0.029468269297557748,0.21192797426781299,-0.10959966966787119,0.07969159956564092,-0.13124557757716387,0.12947824214487233,0.015004199659516729,-0.16406128299370898,-0.12274087455379812,0.020402190929290798,0.3654001887072885,0.10721307577516558,-0.05418013894944545,-1.3809146523242004,-0.17590780860315253,0.3414420398299538,0.014702303817958617,0.10721307577516558,0.05418013894944545,1.3809146523242004,0.17590780860315253,0.06365789439092662,0.18557327398405082,65.0,3,0.3,0,4,0.18954445715304263,227.19890195765038,0.1468671685425694,210.43225509363918,0.058738198859171975,65.0,0,0,0,0
0.46,0.0,0,1,1,0,0,1,1,0,0.35847246288425194,0.0,0.28381452374055854,0.7774577994922038,0.0,0.6030378301531358,0.03891189014314486,0.01828097896600393,0.2946970149816468,-0.054783656708810455,-0.03783001374037065,0.07492835489537664,0.17537329565253187,0.14792764447970316,0.045878527642683464,0.2122536695187218,-0.10948530827233648,0.07975237496978962,-0.13106836334503402,0.12950061645901156,0.015028534517851744,-0.15974978750312643,-0.13017591962363492,0.03794867722164888,0.37673374934595605,0.06984500331021164,0.008556037616945983,-0.6968085414174177,0.12709947432132562,0.3160072283947686,0.018261286461704107,0.06984500331021164,0.008556037616945983,0.6968085414174177,0.12709947432132562,0.032192704654210036,0.12029899442612578,0.0,3,0.3,0,4,0.17621255337764022,590.4086359498352,0.20683645011849916,282.88105140207256,0.8141271102126943,0.0,0,0,0,0
0.47000000000000003,0.0,0,1,1,0,0,1,1,0,0.3662435029006865,0.0,0.28983369753066096,0.7771040016434583,0.0,0.6019173790102417,0.0426760293050722,0.019255573836263307,0.29528125013402357,-0.05899885395279768,-0.03631276007311013,0.07778630165370742,0.1820245678765961,0.14936366183486616,0.06595408242675474,0.21259782625062962,-0.10938449435885925,0.07982364643225626,-0.13079337098136737,0.12952983896145961,0.015051788500459656,-0.15334647447427874,-0.1368010617520574,0.059300404021460834,0.3904749845914119,0.05940164718157774,0.08921583113851089,-0.3856743587329925,0.14408975468544127,0.3107053284123116,0.024231481690725365,0.05940164718157774,0.08921583113851089,0.3856743587329925,0.14408975468544127,0.020871630881650616,0.10450475975395372,0.0,3,0.3,0,4,0.09558669143120348,322.7076473956608,0.1407798153326683,220.49344404593472,0.09901187394218836,0.0,0,0,0,0
0.48,0.0,0,1,1,0,0,1,1,0,0.3740109282416059,0.0,0.29584142918265965,0.7767425340919398,0.0,0.6007731651998693,0.04650539096405268,0.020189018716842245,0.2967083323474002,-0.06250040678810748,-0.03370440720307566,0.08086445507496628,0.18972413918837785,0.15104532276948418,0.0870651624645718,0.21296937240194225,-0.10928603351511879,0.0799041212750859,-0.1304432436404555,0.12955746690315756,0.015076286097001929,-0.14614925122838954,-0.14021431849780178,0.08043535974525604,0.39995036652800675,0.054420145686805185,0.17174666702085206,-0.1183175435830683,0.29321555694688023,0.33554592146108003,0.02593943828640083,0.054420145686805185,0.17174666702085206,0.1183175435830683,0.29321555694688023,0.03970449227842038,0.12006407625162639,0.0,3,0.3,0,4,0.11018510523978939,294.478037606981,0.13455650960016094,208.17405915660024,0.1430576335187097,0.0,0,0,0,0
0.49,0.0,0,1,1,0,0,1,1,0,0.3817746622456579,0.0,0.3018374815215959,0.7763734004052003,0.0,0.5996052338936242,0.05046927592256382,0.021178930074724208,0.29891424057505017,-0.06302714964048582,-0.03035415207578307,0.08414504940733558,0.19909688635355727,0.15378450006282654,0.10729066297878787,0.21337512961543972,-0.10918485862795892,0.07999469310940965,-0.13002215553914254,0.12958926765802814,0.015103581739418642,-0.14083597619465396,-0.14098504567483616,0.09684727703232625,0.42103539426291187,0.0506151575157002,0.25089496454164617,0.008544117240200365,0.33022743768970203,0.3539461452152716,0.03926073201725394,0.0506151575157002,0.25089496454164617,0.008544117240200365,0.33022743768970203,0.05210866369367573,0.14198455322662987,0.0,3,0.3,0,4,0.13659769181210793,257.66057663111457,0.13299438908551373,182.05991867491133,0.5393512799966347,0.0,0,0,0,0
0.5,0.0,0,1,1,0,0,1,1,0,0.3895346282879222,0.0,0.3078216178335902,0.7759966042264255,0.0,0.5984136311994293,0.05464540777239132,0.02220916120629874,0.3018524266445762,-0.0615281580924624,-0.027099654277650265,0.08738385767289052,0.20916285125741826,0.15705826985609714,0.12111944886363896,0.21381854694524063,-0.10908455015013603,0.08009854181248646,-0.12953905037188737,0.12962710132235827,0.015134722931033795,-0.13811687629308106,-0.14007538119279242,0.10585161231760096,0.4444468510134319,0.046648339672790265,0.31925603373181777,0.23498770871995114,0.2894396581232672,0.3302233150331759,0.05491222272550972,0.046648339672790265,0.31925603373181777,0.23498770871995114,0.2894396581232672,0.022401697199585735,0.12396225959788572,0.0,3,0.3,0,4,0.13345912449682235,230.3131205487507,0.122598330917872,158.83403136756056,0.4705325053352185,0.0,0,0,0,0
0.51,0.0,0,1,1,0,0,1,1,0,0.3972907497806668,0.0,0.3137936018751874,0.7756121492744628,0.0,0.5971984041597211,0.05901803244371389,0.023259350470672038,0.3054259162887649,-0.0594425153686378,-0.02406890473389156,0.0904871952174722,0.2205102048020893,0.1612308934529039,0.12449030190788728,0.2142959338354119,-0.10898606962706184,0.08021516267386991,-0.12900810855769043,0.12966942913868143,0.015170015003391074,-0.13177247534521663,-0.13816441581203284,0.10982754987977654,0.462940446814202,0.04290053434587808,0.3777861021348961,0.17894932387537002,0.24422351036982975,0.3235870887516991,0.06564969703353518,0.04290053434587808,0.3777861021348961,0.17894932387537002,0.24422351036982975,0.009793486876511714,0.11834371825592498,0.0,3,0.3,0,4,0.12178461169072985,240.64084465365036,0.11086987188725406,140.86405304560742,0.16503443938844642,0.0,0,0,0,0
0.52,0.0,0,1,1,0,0,1,1,0,0.4050429501741038,0.0,0.31975319788268336,0.7752200393436992,0.0,0.595959600749596,0.06357031063226773,0.024326370596694843,0.3094815670675034,-0.05939421066202401,-0.022083901018551844,0.09333021773245243,0.23231393607203552,0.16537178449127474,0.1164837928910935,0.21480830460648584,-0.1088900664601362,0.08034559151096035,-0.12845943642882315,0.1297167270991425,0.015207807339244789,-0.12066162791809265,-0.13545109086118692,0.10862467288390532,0.48179173150260135,0.04030946363361504,0.4087656179961318,-0.20873256839748722,0.11503424196702075,0.2764704368806675,0.07674878132849755,0.04030946363361504,0.4087656179961318,0.20873256839748722,0.11503424196702075,0.043282761002015835,0.16034100596412842,0.0,3,0.3,0,4,0.13968106651869036,216.85026105238884,0.10139516100921224,115.38226561447405,0.17684600960500418,0.0,0,0,0,0
0.53,0.0,0,1,1,0,0,1,1,0,0.4127911529571451,0.0,0.325700170581432,0.774820278304128,0.0,0.5946972698748665,0.06832732502925709,0.025428304475885274,0.31364208447503766,-0.06302088157129478,-0.021650323868611876,0.09611671433618281,0.24319831313624282,0.16858868568811558,0.10569148479361122,0.21535014303206848,-0.10879211098720722,0.08048678633992223,-0.12792280247374208,0.12976318839577258,0.015245404258742351,-0.10798486299253646,-0.13147227462157132,0.10459159805254609,0.5039255554882652,0.03924016944072162,0.40509413328568994,-0.526623379720729,-0.06732454846308569,0.28104537068200536,0.09113440253112015,0.03924016944072162,0.40509413328568994,0.526623379720729,0.06732454846308569,0.04465479989942667,0.17502937187126844,0.0,3,0.3,0,4,0.16745386858225098,144.3767525021024,0.07811701395178838,114.04871601051806,0.28143103033173533,0.0,0,0,0,0
0.54,0.0,0,1,1,0,0,1,1,0,0.4205352816581571,0.0,0.3316342851951342,0.7744128701012043,0.0,0.593411461370219,0.07329931130656123,0.026576782298039628,0.3176424864259762,-0.0681389437416892,-0.023270284590638957,0.09893830995598452,0.2531501607022736,0.17091865037040435,0.09584664973844176,0.21584764347569757,-0.10863458235811851,0.0807910509519375,-0.12740927491743562,0.1298085919560598,0.015281522615799237,-0.09574094510079653,-0.12725492377344574,0.10023035624835927,0.5260215018396559,0.04019476144018738,0.3803863929265845,-0.5165162913444019,-0.2794863745442172,0.2740982674553215,0.10548622018149878,0.04019476144018738,0.3803863929265845,0.5165162913444019,0.2794863745442172,0.057536017739812706,0.20321699936149887,0.0,3,0.3,0,4,0.19914341901792873,112.16717328114649,0.07373835840800946,106.62562174411573,0.4734611955672854,0.0,0,0,0,0
0.55,0.0,0,1,1,0,0,1,1,0,0.42827525984571624,0.0,0.3375553074551057,0.7739978187559116,0.0,0.5921022259971487,0.07844692133960997,0.02779561786595835,0.32151049717909547,-0.07391427931229402,-0.0261846046275116,0.1020815920348116,0.2622744731960571,0.1727213622044111,0.08693187252651077,0.21583293103214124,-0.10798831160697565,0.08241951735990519,-0.12690416054977188,0.1298523110971184,0.015317281281401085,-0.08415604043434141,-0.12327536937342036,0.09429975933914131,0.541197397505603,0.04687952052164808,0.37268179418768416,-0.5193146265051466,-0.3385498315315484,0.2982583218355342,0.11292213765988679,0.04687952052164808,0.37268179418768416,0.5193146265051466,0.3385498315315484,0.03929698561957151,0.19909864380110637,0.0,3,0.3,0,4,0.1937614594283914,105.8786121916714,0.07222800726887102,124.71876285883366,0.33220102697311304,0.0,0,0,0,0
0.56,0.0,0,1,1,0,0,1,1,0,0.4360110111293624,0.0,0.34346300360952614,0.7735751283646175,0.0,0.5907696154420439,0.08371032630586418,0.029102640810381067,0.3252749982504131,-0.07939734467504252,-0.029085607412542736,0.10528817849369336,0.27137396518966145,0.17499184827810962,0.07959312575295796,0.21598488675134225,-0.10742141403156062,0.08380130461180474,-0.12639488754276507,0.12989926076521638,0.015353733776158979,-0.07254291849572184,-0.12016410430775641,0.08698302846291499,0.5518698474645635,0.046907445569011205,0.3606551242837612,-0.5992175335907044,-0.27378678580805227,0.3056467809233739,0.11585883633520105,0.046907445569011205,0.3606551242837612,0.5992175335907044,0.27378678580805227,0.03781622268615226,0.20058250459036453,0.0,3,0.3,0,4,0.20599239530967842,96.55829310717311,0.07051293259330858,114.41899040821022,0.3233358453894035,0.0,0,0,0,0
0.5700000000000001,0.0,0,0,0,0,0,1,1,0,0.44374245916035343,0.0,0.3493571404326669,0.7731448030991017,0.0,0.5894136823140772,0.08902651383001461,0.03043050863584729,0.3288931694718199,-0.08394674103850425,-0.03087853981510169,0.10853717378148267,0.2801217864763432,0.17724849197569162,0.07121264543041467,0.2155533923573259,-0.10730049427636189,0.08268457918718597,-0.12587299711112063,0.12994861070084032,0.015391348447297698,-0.059818757836396036,-0.1177289015501566,0.0782183949253906,0.5536288488166826,0.04651811484878865,0.335720982333124,-0.26222096064471734,-0.09211311127179293,0.3089654177599533,0.10988638965632919,0.04651811484878865,0.335720982333124,0.26222096064471734,0.09211311127179293,0.040391722672713626,0.19679622717783146,10.0,3,0.3,0,4,0.19727664120125668,78.04930845412406,0.052279520084974385,87.48102812953795,0.3229370132845699,10.0,0,0,0,0
0.58,0.0,0,0,0,0,0,1,1,0,0.45146952763241865,0.0,0.3552374852340987,0.7727068472065224,0.0,0.5880344801431792,0.0943372391101822,0.03172666721418682,0.3319506797870434,-0.08723421401198575,-0.031406529997842325,0.11167965793295309,0.28730895820190727,0.17998644749950837,0.05982627637999215,0.2171832430195389,-0.10664523727017682,0.08343905679677716,-0.12537861468434103,0.1299943475512595,0.015427281037431101,-0.04894128935007752,-0.11569440087787576,0.06669849273165007,0.5499201649654218,0.04671023327382916,0.2481252591117586,-0.28433146315359653,-0.06733616727467759,0.32004409723494925,0.09845063733300319,0.04671023327382916,0.2481252591117586,0.28433146315359653,0.06733616727467759,0.03519338799914945,0.1803542586059818,50.0,3,0.3,0,4,0.1915385839678813,27.94394041559182,0.021232977226843745,22.220458047974734,0.5974583497650001,50.0,0,0,0,0
0.59,0.0,0,0,0,0,0,0,1,0,0.4591921402825117,0.0,0.3611038058678774,0.7722612650093053,0.0,0.5866320633778677,0.0996604855759174,0.032998060821571314,0.33400457077030377,-0.08882396073182723,-0.03208497998729576,0.11509998509564932,0.29178044454316177,0.18194321039832573,0.04760106227478464,0.22211159191162932,-0.10557533324054205,0.08517889786497024,-0.12246994696447852,0.13048945259577194,0.016520246580701975,-0.04113644302144576,-0.11329207641971728,0.05705215535060404,0.5490093072981895,0.05360580285961804,0.13166511288761082,-0.01725594567320692,-0.14343620363738696,0.3282266241885009,0.08981716701567782,0.05360580285961804,0.13166511288761082,0.01725594567320692,0.14343620363738696,0.03287718167937648,0.17630015155467232,35.0,3,0.3,0,4,0.1666946151974284,24.170453766866224,0.03635909770898103,4.163207379298816,0.5806696172134576,35.0,0,0,0,0
0.6,0.0,1,0,0,1,0,0,0,0,0.46691022089156364,0.0,0.3669558707417092,0.7718080609051936,0.0,0.585206487383183,0.10499923544583034,0.034275916558196604,0.33487863131539286,-0.0879328465011848,-0.03312568236311053,0.11864339088519722,0.2931002893168013,0.18306829684170056,0.03492528039860407,0.23336048924533165,-0.10369687511861381,0.08900602459331111,-0.11175567174152308,0.13085624978616506,0.021599100333430488,-0.038339495391764206,-0.11045983882624892,0.04819817325677997,0.5445056943624961,0.0630473551423714,0.022151311338476445,0.31379982267709483,-0.12428664862508973,0.37656722440421514,0.07759547347093243,0.0630473551423714,0.022151311338476445,0.31379982267709483,0.12428664862508973,0.009611353662505928,0.15025418227580978,10.0,3,0.3,0,4,0.16270362486428913,38.517778524195805,0.04241344795805862,0.0,0.1246209104782543,10.0,0,0,0,0
0.61,0.0,1,0,0,1,0,0,0,0,0.4746236932852346,0.0,0.3727934488260932,0.7713472393670984,0.0,0.583757808438401,0.11026289285373683,0.03559332526887066,0.3346171350851272,-0.08356558697646758,-0.034714562638809676,0.12237171386674808,0.3010079809489911,0.1831565856615515,0.02645014968408313,0.2481544910419562,-0.09755190025676908,0.09184818256882774,-0.09734471227785044,0.12913008692299863,0.03204044868502123,-0.03613738160158228,-0.10840731026241403,0.045653349417422356,0.5291662053849944,0.07603857520578469,-0.09347894874749235,0.43687029085578233,-0.15940695259699705,0.31521356253125754,0.05454251209975974,0.07603857520578469,0.09347894874749235,0.43687029085578233,0.15940695259699705,0.05757988629483568,0.18816097360038012,50.0,3,0.3,0,4,0.15963133775665514,75.09569396673669,0.06918096623774572,0.0,0.28244875342811193,50.0,0,0,0,0
0.62,0.0,1,0,0,1,0,0,0,0,0.4823324813346662,0.0,0.3786163096634422,0.7708788049431592,0.0,0.5822860837348953,0.11547583951049205,0.03691486138401141,0.3332193002231718,-0.07991219624672705,-0.03597895510098792,0.1254945243769192,0.3091364484261616,0.1835678276690587,0.019203448127816575,0.2662120281221438,-0.09027896980423497,0.09689091682132472,-0.0822738688002859,0.12810808072551602,0.0442648476228025,-0.03473329285787888,-0.10807869539009954,0.04177356103592286,0.5286161047414831,0.08371567939831089,-0.2089185455337177,0.44229242430992816,-0.1657133181875944,0.3199910229394093,0.04628362340681691,0.08371567939831089,0.2089185455337177,0.44229242430992816,0.1657133181875944,0.05862528672403289,0.18862458952916067,50.0,3,0.3,0,4,0.20429625632504803,25.804178014790125,0.03245753882587303,0.0,0.4571502833182284,50.0,0,0,0,0
0.63,0.0,1,0,0,1,1,0,0,1,0.4900365089572325,0.0,0.38442422337718063,0.7704027622566278,0.0,0.5807913713738455,0.12068210908535253,0.03822637910327373,0.33098709862744435,-0.07400854004706414,-0.0376901997599981,0.12882113175602436,0.30997134035863594,0.18359808350590426,0.018458810405185655,0.28331090746466303,-0.08413676895379787,0.10269955188630203,-0.06842207445478038,0.1287665730242223,0.057565206103879774,-0.03449321467974184,-0.10806189215899464,0.041325951569784,0.5087096264575891,0.07577923293643661,-0.2349488549865885,0.7531678767711569,-0.18691507805405028,0.3220872925350581,0.018673117500356606,0.07577923293643661,0.2349488549865885,0.7531678767711569,0.18691507805405028,0.06233693084212255,0.15678928127891578,20.0,3,0.3,0,4,0.18098363217725325,22.710863042081307,0.05644727746520425,159.84841068306042,0.40891141430319866,20.0,0.20000000000000004,0.0,0.0,0.17
0.64,0.0,1,0,0,1,1,0,0,1,0.4977357001172911,0.0,0.3902169606808198,0.7699191160058627,0.0,0.5792737303639162,0.1255369294053873,0.03939100953544983,0.32894646631619423,-0.06483673058913755,-0.03867746390647464,0.13242968951879108,0.31008299214541424,0.18369036210821388,0.018482002919193108,0.29463112541036984,-0.07808810579808026,0.11010420073476032,-0.05758053699723675,0.13087370814661112,0.07259242716134615,-0.03430052941991518,-0.10808359126290211,0.04140272301671541,0.4716534872572194,0.06224617817581464,-0.20869387256606478,1.1257749741006617,-0.05466203279294356,0.37947143491605717,0.02608221286007173,0.06224617817581464,0.20869387256606478,1.1257749741006617,0.05466203279294356,0.01074552576476262,0.09907391680064899,0.0,3,0.3,0,4,0.10902648128875278,53.375951508375195,0.10048127970836873,183.26009980538598,0.2425365283203882,0.0,0,0,0,0
0.65,0.0,1,0,0,1,1,0,0,1,0.5054299788269336,0.0,0.39599429288700977,0.769427870964251,0.0,0.5777332206189978,0.13008118188739376,0.04046401693974089,0.32708874489878925,-0.05477297543013977,-0.03749635754680103,0.1362537945430717,0.31016343937719804,0.1837786848048123,0.018504340584755113,0.3036294594147075,-0.07336075202106376,0.11724372508399233,-0.050595315558848414,0.13402666375919972,0.08414683844281787,-0.03407940343990684,-0.1081068634057849,0.04148476518760641,0.44474033795859746,0.05246616307251352,-0.19102832823461327,0.755660658463309,0.2351197928592229,0.3955412984454033,0.06068964086833617,0.05246616307251352,0.19102832823461327,0.755660658463309,0.2351197928592229,0.00045299444160645796,0.11360879838245615,0.0,3,0.3,0,4,0.10822840701311813,17.733144741574385,0.07178289123938122,139.56741396335687,0.26205694274447056,0.0,0,0,0,0
0.66,0.0,1,0,0,1,1,0,0,1,0.5131192691467354,0.0,0.4017559919165674,0.7689290319801811,0.0,0.5761699029557643,0.1344261188259968,0.04149541826081022,0.32538024743158067,-0.04790346139415427,-0.03411541219115666,0.14006355446718777,0.3102170452154899,0.1838647087558394,0.01852673499629301,0.3110818489889682,-0.07026206372439671,0.12136864320552915,-0.04615019190424935,0.13750402055523483,0.09139419068595749,-0.03382906369577249,-0.10812545892814367,0.04157577351454017,0.43201926159838194,0.05057005557114613,-0.1763946482778972,0.5848890731355982,0.408287156777991,0.3996538534483467,0.0811000075483535,0.05057005557114613,0.1763946482778972,0.5848890731355982,0.408287156777991,0.0021021384682207156,0.13377220158772035,0.0,3,0.3,0,4,0.12671361386585095,24.14869617403125,0.06136486948689439,129.65786582795246,0.04572714594862881,0.0,0,0,0,0
0.67,0.0,1,0,0,1,1,0,0,1,0.5208034951865055,0.0,0.4075018303074806,0.7684226039770037,0.0,0.5745838390913194,0.1386455697379958,0.04252307672050964,0.3238378008715757,-0.042899660764452965,-0.029124782576531505,0.1438131218544133,0.31026047349204816,0.1839502322632996,0.01854887506448502,0.3184290693510311,-0.06753420225774451,0.1228812092011402,-0.04251248621039949,0.14031442135831845,0.09508040542713267,-0.03355354166881225,-0.10813850476130886,0.041675505417995945,0.42428647938170616,0.04817492907855983,-0.1558313735566355,0.4152576775039712,0.5123280027791922,0.4015099277740821,0.09651701580479932,0.04817492907855983,0.1558313735566355,0.4152576775039712,0.5123280027791922,0.0059919025333984854,0.15068384741675764,0.0,3,0.3,0,4,0.1488619423729703,29.863857662527273,0.058146975249809184,125.7376816441514,0.060354658948040596,0.0,0,0,0,0
0.68,0.0,1,0,0,1,1,0,0,1,0.5284825811060347,0.0,0.4132315812238882,0.767908591952926,0.0,0.5729750916407594,0.14281606868376664,0.04355827534610926,0.32248329477922616,-0.038662157784064344,-0.0236565578621708,0.1477753988161806,0.3103152177093248,0.18403976376157402,0.01856989357667377,0.3243784116490823,-0.06535358604843824,0.11937170576395444,-0.04002067302095333,0.14242936226434533,0.09331225693896653,-0.03325798611872266,-0.10815266683973834,0.04178137831922543,0.4233835688034461,0.04695843819858229,-0.13389175004681195,0.38096768398800906,0.5426489743061484,0.4217814319937678,0.10509901230258867,0.04695843819858229,0.13389175004681195,0.38096768398800906,0.5426489743061484,0.008549850769879574,0.16060730127105052,0.0,3,0.3,0,4,0.1583642220222302,36.88081426350068,0.06241699157090367,119.49389113590496,0.15212914969085745,0.0,0,0,0,0
