time,trans_flag,des_cont_state_fl,des_cont_state_fr,des_cont_state_rl,des_cont_state_rr,cont_state_fl,cont_state_fr,cont_state_rl,cont_state_rr,vel_cmd_x,vel_cmd_y,vel_cmd_yaw,acc_cmd_x,acc_cmd_y,acc_cmd_yaw,base_pos_x,base_pos_y,base_pos_z,base_ang_roll,base_ang_pitch,base_ang_yaw,FL_foot_pos_x,FL_foot_pos_y,FL_foot_pos_z,FR_foot_pos_x,FR_foot_pos_y,FR_foot_pos_z,RL_foot_pos_x,RL_foot_pos_y,RL_foot_pos_z,RR_foot_pos_x,RR_foot_pos_y,RR_foot_pos_z,base_vel_x,base_vel_y,base_vel_z,base_vel_roll,base_vel_pitch,base_vel_yaw,x_vel_err,y_vel_err,z_vel_err,roll_vel_err,pitch_vel_err,yaw_vel_err,cmd_err,cont_err,terr_freq,terr_height,failed,gait_id,base,CoT,musculoskeletal,foot_force,MWE,stability,FL_stride_t,FR_stride_t,RL_stride_t,RR_stride_t
0.01,0.0,1,0,0,1,0,0,1,1,0.006283178692509316,0.0,0.005026527078818862,0.6283178692509316,0.0,0.5026527078818862,0.00015313293028551079,-3.708831084330053e-05,0.30977000816706657,0.0013589327974891324,0.000904979401192163,6.38101642842514e-05,0.17910489327657939,0.13398585674203398,0.01872754928226067,0.18086328158552636,-0.13048578176940917,0.02161568188179938,-0.1829851208808999,0.13204473900855626,0.017331577659071423,-0.1834821942131792,-0.1320345988758796,0.017332097063121416,0.0349951690734104,-0.00790486597214903,-0.05619966418807215,0.33177815702661934,0.21220911552201804,0.016277188741898842,0.028711990380901088,0.00790486597214903,0.05619966418807215,0.33177815702661934,0.21220911552201804,0.01125066166307998,0.0478675180161301,55.0,3,0.3,0,3,0.025633898270132092,87.56727375446494,0.07653145526964597,35.15594549870737,0.2114075992452107,55.0,0,0,0,0
0.02,0.0,1,0,0,1,0,0,1,1,0.014137091596022201,0.0,0.011309492449657768,0.7853912903512885,0.0,0.6282965370838907,0.000691637477293351,-0.00018474579482822458,0.3089178304921037,0.007631150767964715,0.003830421086364222,0.0008593020337651876,0.16907966509034755,0.1392979599852529,0.01969009782263717,0.1789053887187692,-0.1274743446824938,0.03077515814465348,-0.18294922635928926,0.13171675775743255,0.01831789062090189,-0.18962881845805268,-0.13144137676426418,0.01737194916964288,0.06599557012483442,-0.015521835584987782,-0.11746143572971754,0.6606639326417808,0.2722814714613993,0.09409920797145375,0.05185847852881222,0.015521835584987782,0.11746143572971754,0.6606639326417808,0.2722814714613993,0.08278971552179598,0.150170029635596,50.0,3,0.3,0,3,0.1393631575307037,142.4996960934247,0.0949444022782233,31.91764675388154,0.38562855905463944,50.0,0,0,0,0
0.03,0.0,1,0,0,1,1,0,0,1,0.02199086497214841,0.0,0.01759201134109972,0.7853773376126207,0.0,0.628251889144195,0.0013860005818496174,-0.0002443044930705019,0.30733352176359147,0.012789695134259533,0.005243753489781344,0.0013310612933323186,0.1628251323824498,0.14154214088484768,0.01974158016094074,0.1819806916518209,-0.12479651239662368,0.04035374348221671,-0.1828235435916424,0.13045649016431968,0.029888877330720404,-0.19237734570386483,-0.1318089956188583,0.017393932133351525,0.07103062789952858,-0.005709813739808793,-0.18574554164106355,0.3253366517330023,0.03507661098595573,0.0450000619738688,0.049039762927380166,0.005709813739808793,0.18574554164106355,0.3253366517330023,0.03507661098595573,0.02740805063276908,0.08215762729995804,30.0,3,0.3,0,3,0.08439048855788209,81.33664964078903,0.0694661671543096,38.610949192504734,0.2076883364670472,30.0,0.02,0.0,0.0,0.0
0.04,0.0,1,0,0,1,1,0,0,1,0.02984442130731541,0.0,0.023873835730056265,0.7853556335166999,0.0,0.6281824388956546,0.002019874450646375,-0.00028246748213628614,0.3055794810744117,0.015562012078191655,0.0070732092914203015,0.001666642680504066,0.16274127557917215,0.1415376471351839,0.01974545125584881,0.1839726845659017,-0.12402668371974923,0.050600053785262444,-0.1832049190587788,0.13105074542013026,0.04380633139150969,-0.19242323723675428,-0.13181475783916988,0.017403560159822556,0.06013443480360062,-0.004517107096982867,-0.16333835087075527,0.27462849103815234,0.3723212123939413,-0.0028860344762056244,0.03029001349628521,0.004517107096982867,0.16333835087075527,0.27462849103815234,0.3723212123939413,0.026759870206261888,0.061566990799529965,0.0,3,0.3,0,3,0.06301071395673602,59.13856059992412,0.0859501652645293,67.25990431760904,0.12353979095709722,0.0,0,0,0,0
0.05,0.0,1,0,0,1,1,0,0,1,0.03769768309009279,0.0,0.030154717620856746,0.7853261782777381,0.0,0.628088189080048,0.002608798581791914,-0.0003242802437380967,0.3040870014851972,0.016315878739974258,0.011985065446189935,0.001753283574626873,0.1626379405485622,0.14152990929101766,0.01975026016957457,0.18345097533359778,-0.12492153301781625,0.06224460341706459,-0.1835143261968323,0.13160684069197132,0.05638636023098667,-0.19241242442788925,-0.1318210825683556,0.017411691809991386,0.060674032271457096,-0.012227151174600695,-0.13089809634888763,-0.20572917988935166,0.5485150481188629,0.030425094236049728,0.022976349181364306,0.012227151174600695,0.13089809634888763,0.20572917988935166,0.5485150481188629,0.0002703766151929826,0.03547387697115798,0.0,3,0.3,0,3,0.05709994606651173,76.23725694054268,0.09131006694965162,95.26651016370252,0.1419585405863497,0.0,0,0,0,0
0.06,0.0,1,0,0,1,1,0,0,1,0.04555057281195724,0.0,0.036434409055038704,0.7852889721864452,0.0,0.6279691434181958,0.0032276801156531395,-0.0004455876347192775,0.3028999915085315,0.014854437476479741,0.017543112269337025,0.002210707187625001,0.1625468622429776,0.14152113413847242,0.019754529337589644,0.18228786274848333,-0.12727425133670248,0.0724350709780778,-0.184870301349512,0.13175183945164637,0.0650606584730111,-0.19237213606660045,-0.13183441427738443,0.017419585069353455,0.06708012830113355,-0.013080512509558535,-0.10711637043497156,-0.022355753719986455,0.5693547056967008,0.028532469405386954,0.02152955548917631,0.013080512509558535,0.10711637043497156,0.022355753719986455,0.5693547056967008,0.00790193964965175,0.0425120076483866,0.0,3,0.3,0,3,0.04334973692915874,64.13289087762637,0.08210033576680388,56.59503951874291,0.06530949099531469,0.0,0,0,0,0
0.07,0.0,1,0,0,1,1,0,0,1,0.05340301296805755,0.0,0.04271266212113687,0.7852440156100309,0.0,0.6278253066098166,0.003891611604326348,-0.0005516508721071902,0.30197368092471394,0.014243608004648361,0.023824303332269592,0.002618061577780186,0.16246837946316292,0.1415140151241654,0.01975831537870809,0.1821461946596484,-0.12930614077106872,0.08128529817625602,-0.18468526671984647,0.1305921639194298,0.0725651444591003,-0.19230274359767624,-0.131846160528481,0.017427493697632135,0.07074700176241938,-0.01046906093705614,-0.0771177253031142,-0.03719100684495011,0.6677407832567968,0.03630837311225051,0.01734398879436183,0.01046906093705614,0.0771177253031142,0.03719100684495011,0.6677407832567968,0.0064042890088863574,0.03421733874030433,0.0,3,0.3,0,3,0.03799892551428323,76.56417868911983,0.08356039413272145,86.15127332684389,0.04746818387913565,0.0,0,0,0,0
0.08,0.0,1,0,0,1,1,0,0,1,0.06125492605797953,0.0,0.048989228964470284,0.7851913089921981,0.0,0.6276566843333414,0.0046385451453606575,-0.0006619610611466806,0.3012961352109765,0.013443550998970143,0.029963434764275876,0.00321856565434058,0.16241454450487514,0.14150877151111887,0.01976134852469577,0.18280980366893038,-0.13095319829670687,0.08822418788024272,-0.18296821267992716,0.12960413595565554,0.07850382084583037,-0.19221556311427862,-0.13186101394796781,0.01743557533456261,0.083313225556848,-0.013115857483423555,-0.0535859711386235,-0.16413644927471704,0.5430642983826989,0.05894653556107199,0.02205829949886847,0.013115857483423555,0.0535859711386235,0.16413644927471704,0.5430642983826989,0.009957306596601705,0.04513146357889373,0.0,3,0.3,0,3,0.03923234278145485,77.34039108126527,0.08116178596901631,55.942954724756945,0.05610786823599995,0.0,0,0,0,0
0.09,0.0,1,0,0,1,1,0,0,1,0.06910623458651093,0.0,0.055263861796927174,0.7851308528531393,0.0,0.627463283245689,0.005517252855139437,-0.0007682020396276945,0.3008632637923301,0.012306274644153677,0.035170464400058776,0.0038838735707521772,0.16239396108673315,0.14150581173912316,0.019763610929988684,0.18425175060445195,-0.13199663167292328,0.09285638624953908,-0.1797046108609758,0.1286940963813246,0.08324117866012172,-0.19211278715948446,-0.13187586502965443,0.017443872328870402,0.09525794659838545,-0.010686085182791741,-0.02430985016971903,-0.052673629330320715,0.4844116820729592,0.07072771461399262,0.026151712011874523,0.010686085182791741,0.02430985016971903,0.052673629330320715,0.4844116820729592,0.015463852817065443,0.052301650011731704,0.0,3,0.3,0,3,0.04384286153987925,87.34046967950259,0.08290097048423593,85.1043033755279,0.023310396768507935,0.0,0,0,0,0
0.1,0.0,1,0,0,1,1,0,0,1,0.07695686106440629,0.0,0.06153631290674721,0.7850626477895362,0.0,0.6272451109820033,0.006541304419042008,-0.0008695458197836187,0.3007066356808684,0.011994052082462679,0.03921542431478242,0.004666566718659093,0.16241459198297814,0.14150527228344617,0.01976524545041075,0.18588764108493175,-0.13235132489855728,0.0949674713912548,-0.17533036613830866,0.12792977236767752,0.08627366926288427,-0.19199987839128915,-0.13189192961423898,0.0174523652917892,0.11123786189568478,-0.010705737759064927,0.0001982756933671592,-0.06789281159089586,0.34337040761342413,0.07425037221321254,0.034281000831278496,0.010705737759064927,0.0001982756933671592,0.06789281159089586,0.34337040761342413,0.012714059306465332,0.05770079789680876,0.0,3,0.3,0,3,0.05598019546403923,88.98590397239587,0.07988043294061879,56.05780340559939,0.014006721895244392,0.0,0,0,0,0
0.11,0.0,1,0,0,1,1,0,0,1,0.08480672800915168,0.0,0.06780633466830074,0.784986694474539,0.0,0.6270021761553536,0.007749910075759423,-0.0009771372536355517,0.30073819267513324,0.011128525981357499,0.041830003733350773,0.005500325342845089,0.1624723186661765,0.1415054842660967,0.01976670855273177,0.18787949860829273,-0.1328207560817384,0.09520306093970923,-0.17084184533672228,0.1275203785209988,0.08735391785797443,-0.19187876520385366,-0.13190958093736313,0.017461141855113743,0.1293541605076527,-0.012224604798922368,0.017378534630543938,-0.12747019925979514,0.18150819637970805,0.08468486090070576,0.044547432498501016,0.012224604798922368,0.017378534630543938,0.12747019925979514,0.18150819637970805,0.016878526232405017,0.0736505635298284,0.0,3,0.3,0,3,0.06814385100260985,89.24193228965194,0.08365246221105191,80.99509036507358,0.013662965120171164,0.0,0,0,0,0
0.12,0.0,1,0,0,1,1,0,0,1,0.09265575794572947,0.0,0.0740736795518646,0.7849029936577795,0.0,0.6267344883563855,0.009134920602580695,-0.0010809356987767334,0.30094697930839576,0.010011937364275221,0.04311182361675758,0.006293629236236343,0.16256514153031132,0.14150657998311172,0.01976829690030213,0.19007415856572246,-0.13299674600851227,0.0928367401465163,-0.16665237749393283,0.12720346256384368,0.08602765148542013,-0.19174814185872632,-0.13192567348647974,0.017470177500816447,0.1447239569510424,-0.009175429242169818,0.03619474025713808,-0.12931262928410697,0.09934999183985237,0.07548731472185138,0.052068199005312926,0.009175429242169818,0.03619474025713808,0.12931262928410697,0.09934999183985237,0.001413635169986785,0.06265726341746952,0.0,3,0.3,0,3,0.0656045119533459,81.99341424338131,0.07403719333262333,52.267890713228326,0.04354242043653969,0.0,0,0,0,0
0.13,0.0,1,0,0,1,1,0,0,1,0.10050387340738298,0.0,0.08033810013339421,0.784811546165351,0.0,0.6264420581529608,0.010642828456429507,-0.0011818566669718417,0.3013232482220353,0.007002418346988468,0.04396938539170736,0.00703908443905334,0.1626727199643292,0.14150697529533887,0.019770028384628935,0.19356675321928088,-0.13314174116937158,0.08709587263478215,-0.162301158800694,0.12705938381276405,0.08105950992636744,-0.19159779135009256,-0.13194094681855204,0.017479623692097962,0.15189224258111964,-0.010594923461988027,0.05053634886912171,-0.3243825440649018,0.09017966782431272,0.06598739392922955,0.05138836917373665,0.010594923461988027,0.05053634886912171,0.3243825440649018,0.09017966782431272,0.014350706204164662,0.07633399883988934,0.0,3,0.3,0,3,0.06964276269480091,79.30380047498844,0.07100846145824784,71.33419334334373,0.134365306640414,0.0,0,0,0,0
0.14,0.0,1,0,0,1,1,0,0,1,0.10835099693638103,0.0,0.08659934910429141,0.7847123528998051,0.0,0.6261248970897206,0.012192997685468573,-0.0012773529875137724,0.301825227023334,0.004354577573464742,0.04496701567694639,0.007775676126905111,0.16278896951554586,0.14150882324327188,0.019771865041628395,0.19808041939112953,-0.13342902369139517,0.07731657683024631,-0.1568667165613057,0.12678286375207212,0.072849347457978,-0.1914381556244737,-0.13195634208868354,0.01748922733224803,0.153577953994855,-0.010038018384692444,0.061148843255701975,-0.1983780608550111,0.1000148946876054,0.08654524310829528,0.04522695705847396,0.010038018384692444,0.061148843255701975,0.1983780608550111,0.1000148946876054,5.410599599613153e-05,0.05531908143916253,0.0,3,0.3,0,3,0.06684287144939303,75.9931020229491,0.06675021199306984,44.76491417729646,0.23392162843215142,0.0,0,0,0,0
0.15,0.0,1,0,0,1,1,0,0,1,0.11619705108478236,0.0,0.09285717928116781,0.7846054148401324,0.0,0.6257830176876394,0.013760384097181281,-0.0013615568417819396,0.30238010005054416,0.003202766915608528,0.04605786269151224,0.008742727862577201,0.16290913394774603,0.14151339876672703,0.019773753883809336,0.20300248917357097,-0.13334035984948578,0.06497354305614149,-0.1514556905505709,0.12611505075842616,0.06304710343063227,-0.19127701805294464,-0.13197330889110997,0.017498837078185975,0.1548094187947802,-0.00889334416310137,0.06328279455515398,-0.07306229868493218,0.12388466206526784,0.08993105910270269,0.03861236770999783,0.00889334416310137,0.06328279455515398,0.07306229868493218,0.12388466206526784,0.002926120178465122,0.050431832051564325,0.0,3,0.3,0,3,0.05778234572375911,59.107429319469,0.06795109192139434,70.34279316583783,0.0725569758623772,0.0,0,0,0,0
0.16,0.0,1,0,0,1,1,0,0,1,0.12404195841520015,0.0,0.09911134361560314,0.7844907330417789,0.0,0.6254164334435333,0.015377783629331765,-0.0014388398818209788,0.3029146634930652,0.0031122536832398373,0.04729645442988906,0.00961265346686801,0.16303402914614742,0.14151777847641792,0.019775800590138337,0.20872131207243355,-0.13280745153263535,0.05403476925990988,-0.1473168276907199,0.12543316382687303,0.053656083305877525,-0.19111537577140697,-0.13198878001903197,0.017508417279274185,0.1633361523658324,-0.007288815470556999,0.05690261469215392,0.061571205605203294,0.14040180686134662,0.09293735425363514,0.03929419395063226,0.007288815470556999,0.05690261469215392,0.061571205605203294,0.14040180686134662,0.006173989361968002,0.05275699878315726,0.0,3,0.3,0,3,0.05759601030909904,63.8795405006756,0.0798769760740578,51.69906477510648,0.09836808707946665,0.0,0,0,0,0
0.17,0.0,1,0,0,1,1,0,0,1,0.13188564150156615,0.0,0.10536159520389834,0.7843683086366001,0.0,0.6250251588295203,0.017067707811133103,-0.0014975483463069395,0.30334940731031956,0.004062935386850456,0.048601643504984304,0.01065687535992413,0.16315983201577194,0.14152475104638476,0.01977795118539627,0.21386240511367247,-0.13210625154895422,0.04366722161868544,-0.14411694556647056,0.12573839417097057,0.04514543301060242,-0.19095734132580827,-0.1320063111010421,0.017517983274943888,0.17156729040125415,-0.0074767556027956214,0.04854237340216419,0.15396727978486133,0.1045443447306612,0.11041941135266635,0.039681648899688005,0.0074767556027956214,0.04854237340216419,0.15396727978486133,0.1045443447306612,0.0050578161487680046,0.05221622065125163,0.0,3,0.3,0,3,0.049787045625481474,55.3144567014903,0.07231369932855776,71.34543759305184,0.035516321316319766,0.0,0,0,0,0
0.18,0.0,1,0,0,1,1,0,0,1,0.1397280229298949,0.0,0.11160768729682284,0.7842381428328743,0.0,0.6246092092924496,0.018886507565772342,-0.001543937099164563,0.30368188564318616,0.006904449030420354,0.04941813531334538,0.011991836426011615,0.1632964993273241,0.1415351562687781,0.019780399123196873,0.21561494453244057,-0.13105439853015702,0.03279840841667024,-0.14314877232767792,0.12611567758991682,0.03608754159253322,-0.19080690000208844,-0.13202826707396384,0.0175276284264283,0.188103762443533,-0.007989454755492665,0.032711967992611765,0.2409951817895278,0.02785061702723089,0.14984512727805033,0.048375739513638105,0.007989454755492665,0.032711967992611765,0.2409951817895278,0.02785061702723089,0.038237439981227486,0.09460263425035825,0.0,3,0.3,0,3,0.07929124373279299,52.35911337947165,0.07320496233705587,44.769960027409766,0.05106600950066725,0.0,0,0,0,0
0.19,0.0,1,0,0,1,1,0,0,1,0.1475690252990478,0.0,0.11784937330935583,0.7841002369152916,0.0,0.6241686012532984,0.020876833523393937,-0.0015892835207330298,0.3037493292379412,0.010372563161985867,0.048628608378035176,0.013438491690355065,0.16328880145905597,0.14135437197552178,0.01981331654820906,0.21332470062365003,-0.12872003021880893,0.02027642502973609,-0.14526258765077318,0.12687778714954975,0.02617071223159506,-0.19068494713662815,-0.13205127721756013,0.01753776779269539,0.21317697802666097,-0.004555679791536805,-0.00956047634711525,0.4002290902561567,-0.16926917233495584,0.1427324269005515,0.06560795272761316,0.004555679791536805,0.00956047634711525,0.4002290902561567,0.16926917233495584,0.024883053591195664,0.09504668611034563,0.0,3,0.3,0,3,0.09220632198060923,45.746655767546194,0.05659089534910999,42.54296610461001,0.188663944795273,0.0,0,0,0,0
0.2,0.0,0,1,1,0,0,1,0,0,0.15540857122149707,0.0,0.124086406830421,0.7839545922449259,0.0,0.623703352106518,0.023126952878849222,-0.0015843827741160701,0.3030150364357159,0.014329738854832859,0.04524234089622947,0.014740088771056358,0.16213193803935422,0.1389702867521378,0.021288867693682184,0.21186348519566756,-0.1276750572564316,0.016358632554753172,-0.14858431073796724,0.1271158998260145,0.018599709375265144,-0.1905846874920043,-0.13242955737768825,0.019635475305698175,0.240727911498811,-0.002606384093673957,-0.10990462937626519,0.17823474182403318,-0.5794267032923787,0.1261309830211307,0.08531934027731394,0.002606384093673957,0.10990462937626519,0.17823474182403318,0.5794267032923787,0.0020445761907097043,0.08997030056169761,15.0,3,0.3,0,3,0.09314301095781521,38.90601181687579,0.04551707764278666,13.475508852869618,0.38163601634837047,15.0,0.0,0.19000000000000003,0.0,0.0
0.21,0.0,0,1,1,0,0,1,1,0,0.16324658332408937,0.0,0.1303185416326145,0.7838012102592301,0.0,0.6232134802193492,0.025318125818437353,-0.0015818511202574236,0.30169492215731836,0.01370886639117583,0.04096499825275246,0.016341534051332814,0.16510590720603854,0.13546106641633043,0.02827903198689008,0.21198959663587713,-0.12765669946638192,0.016373477810023046,-0.14860706353615546,0.1270934327473818,0.018609714063173494,-0.18841863650400142,-0.13351772731867192,0.02739221486544524,0.2054023368300222,-0.0037602885809159504,-0.12179974110265221,-0.19378128846981313,-0.326294575142319,0.16187416607122587,0.04215575350593284,0.0037602885809159504,0.12179974110265221,0.19378128846981313,0.326294575142319,0.031555624438611374,0.07747166652546017,10.0,3,0.3,0,3,0.10775224274279664,76.38557084480905,0.09154883938946773,83.91226295611094,0.19683798553473492,10.0,0.0,0.0,0.18000000000000002,0.0
0.22,0.0,0,1,1,0,0,1,1,0,0.17108298424880955,0.0,0.1365455316819254,0.7836400924720183,0.0,0.6226990049310904,0.027199735112210865,-0.0015569503436396255,0.30050518032444823,0.00982742319390481,0.038091880768824415,0.017369373758334597,0.1682963826902134,0.1330831708544826,0.040070198613542746,0.21209938272120787,-0.12764405193093709,0.016386901438086104,-0.14862373166988258,0.12708138628964746,0.018618557349346726,-0.18541149008671576,-0.13520952868876637,0.040246528992193664,0.1828253318466147,0.0001514621533785542,-0.09519308615719847,-0.45363823964338673,-0.2645828865486802,0.0887071974258605,0.011742347597805153,0.0001514621533785542,0.09519308615719847,0.45363823964338673,0.2645828865486802,0.0478383342560649,0.059732144007248605,0.0,3,0.3,0,3,0.06019220963468517,122.89901075160599,0.12216182136062854,74.6326191770897,0.21055833408490054,0.0,0,0,0,0
0.23,0.0,0,1,1,0,0,1,1,0,0.17891769665354415,0.0,0.1427671311474489,0.7834712404734601,0.0,0.6221599465523503,0.028918202869668105,-0.001524654517662652,0.2996867617333457,0.005666378509556075,0.03599903964617712,0.018415894459654285,0.17069188637910795,0.13142794544252706,0.05200086682811128,0.21221352851406378,-0.12762963631341528,0.016399757628306144,-0.14861051278006432,0.1270681532430364,0.018625629025288998,-0.183429407923561,-0.13804851748225436,0.052861384563507585,0.16833770815534846,-0.0011334555711094044,-0.06086256995733502,-0.32052006309627157,-0.16972252648035888,0.10562403015908196,0.010579988498195692,0.0011334555711094044,0.06086256995733502,0.32052006309627157,0.16972252648035888,0.03714310098836694,0.048856545057672035,0.0,3,0.3,0,3,0.038753426105701226,75.61220783777702,0.08542334833684517,98.10862741221969,0.11896135416544851,0.0,0,0,0,0
0.24,0.0,0,1,1,0,0,1,1,0,0.18675064321284485,0.0,0.1489830944110912,0.7832946559300696,0.0,0.6215963263642293,0.030540306938393862,-0.0014814058333132059,0.2991223073461413,0.004357887123082523,0.03452360909204799,0.019475800709908137,0.17528383587912869,0.1309056193414438,0.06399153491013151,0.21232227194898506,-0.12761371908337563,0.016412449468339863,-0.14856814922166295,0.12705696917148163,0.018631539164798455,-0.18115491079423418,-0.1422720058429666,0.06412709279471443,0.15996622709608233,0.0035782595695847334,-0.037223398549822845,0.0061549583353494395,-0.10986369696823613,0.11573443888918007,0.02678441611676252,0.0035782595695847334,0.037223398549822845,0.0061549583353494395,0.10986369696823613,0.03324865552191113,0.06361133120825838,0.0,3,0.3,0,3,0.06105269161177971,81.6643922514481,0.08834091597056139,57.77768672677962,0.10967064951566591,0.0,0,0,0,0
0.25,0.0,0,1,1,0,0,1,1,0,0.19458174661869126,0.0,0.15519317607726604,0.7831103405846418,0.0,0.6210081666174844,0.032112404179430835,-0.001427563185620926,0.2987992405109688,0.003972810935683714,0.03355326083686183,0.020696242507377706,0.18197462651219656,0.13139464455343355,0.07511108354347529,0.21243945774948528,-0.127596048142665,0.01642502170920826,-0.14850736232116798,0.12704400021133871,0.01863693225731347,-0.1781029663111271,-0.14550139549632596,0.07405017880656684,0.15816097564503354,0.000489561115327897,-0.020284488341113526,-0.062185203302077406,-0.09772628125120943,0.128069252068566,0.03642077097365773,0.000489561115327897,0.020284488341113526,0.062185203302077406,0.09772628125120943,0.027123924008700034,0.06403425609768566,0.0,3,0.3,0,3,0.06422627075350495,75.29454856860296,0.08204427228117106,79.82994022752143,0.08940221749296118,0.0,0,0,0,0
0.26,0.0,0,1,1,0,0,1,1,0,0.2024109295812544,0.0,0.16139713098258265,0.782918296256313,0.0,0.6203954905316611,0.033709503661281136,-0.0013694377048802792,0.2986235248101943,0.004391081375009984,0.0324598125248905,0.022021225486650725,0.18964358523755426,0.13251542880671777,0.08488137355948355,0.21256836230405593,-0.1275765078687115,0.01643770002245773,-0.14843309939727076,0.1270312907643701,0.018642167957117595,-0.17424972925348345,-0.1477583358437768,0.08210193471651026,0.1618680502715519,0.0038366643173823162,-0.005166303863451001,0.09251123032707168,-0.12835528166586888,0.12492813994932482,0.04054287930970249,0.0038366643173823162,0.005166303863451001,0.09251123032707168,0.12835528166586888,0.03646899103325783,0.08084853466034264,0.0,3,0.3,0,3,0.06766568167434892,71.8825442016657,0.08125431529445623,50.0222372156407,0.10857357496131342,0.0,0,0,0,0
0.27,0.0,0,1,1,0,0,1,1,0,0.21023811482965918,0.0,0.16759471420552421,0.7827185248404783,0.0,0.6197583222941561,0.03534021012746975,-0.0013047872187742166,0.29860879580681726,0.0046901578834414705,0.031211425153345518,0.02333085000775729,0.19765537085736165,0.13386135170724012,0.09262961128966594,0.21271107229835975,-0.12755644323609475,0.016450440958272777,-0.14834744702462122,0.1270180130913129,0.01864738869842017,-0.16912705263420885,-0.14851270312503778,0.08857475644495497,0.16497642922800163,0.002359773678440731,0.00906856051383534,0.07644544332396941,-0.1108054374856984,0.14594110100085564,0.04526168560165755,0.002359773678440731,0.00906856051383534,0.07644544332396941,0.1108054374856984,0.021653613204668576,0.06927507248476686,0.0,3,0.3,0,3,0.07784543974045086,69.28175173787227,0.07656602870149001,73.16667735613157,0.05404865487907107,0.0,0,0,0,0
0.28,0.0,0,1,1,0,0,1,1,0,0.21806322511274712,0.0,0.17378568107611705,0.7825110283087938,0.0,0.619096687059284,0.03701065190174396,-0.001240783418773179,0.2987200892165842,0.005687789038863071,0.03016770755714604,0.024864621343109287,0.20558317075238441,0.13547678188458281,0.09818995466326505,0.2128631606695172,-0.12753460986891962,0.016463353215003862,-0.1482486840749735,0.12700290722947544,0.018652561451085348,-0.16298243988945965,-0.14811082783310597,0.09319935993938827,0.16852375904932496,0.001887739509284791,0.020333229277779162,-0.02536782473142061,-0.10662492726254408,0.14404172773171642,0.04953946606342216,0.001887739509284791,0.020333229277779162,0.02536782473142061,0.10662492726254408,0.029743953344400637,0.08117115891710759,0.0,3,0.3,0,3,0.06790535459758204,63.033228769766744,0.0726943279355379,47.68913387950835,0.052917145930467646,0.0,0,0,0,0
0.29,0.0,0,1,1,0,0,1,1,0,0.2258861831998389,0.0,0.17996978718558976,0.7822958087091797,0.0,0.6184106109472703,0.03873715946751863,-0.0011903652781966572,0.2988465435088065,0.0057045873225942375,0.028847242835532416,0.026274174967285024,0.21300064006978278,0.1376681883946705,0.10178358077796759,0.21302404576612052,-0.12751517382275532,0.01647633859625877,-0.1481505400416079,0.126987366786376,0.018657897000179224,-0.15596266187877594,-0.14793563225891027,0.09637156685060641,0.17637733186711382,-0.001384045737635987,0.02002387989691308,0.00890718946586245,-0.14325223311593024,0.1476922347011788,0.04950885133272509,0.001384045737635987,0.02002387989691308,0.00890718946586245,0.14325223311593024,0.03227755248441097,0.08317044955477204,0.0,3,0.3,0,3,0.08615868188298771,61.62955891076981,0.07212435332091051,69.01097393843744,0.031120764707641246,0.0,0,0,0,0
0.3,0.0,0,1,1,0,0,1,1,0,0.23370691188149645,0.0,0.186146788396022,0.7820728681657535,0.0,0.6177001210432242,0.040540497925599335,-0.0011659368814614978,0.29903212338639246,0.00558377627777881,0.027201946101134578,0.027649259091554496,0.219000344653529,0.13954095032324626,0.10245499487471818,0.2131967600668115,-0.12749802108442826,0.016489511790800104,-0.14804710425717393,0.12697143350081025,0.018663377986635726,-0.1487845631434384,-0.14766217748619442,0.09734304840443618,0.18235620926244642,-0.002275865886027039,0.024298242606608716,-0.026156014923006867,-0.18441600504723019,0.12527763758626892,0.05135070261905003,0.002275865886027039,0.024298242606608716,0.026156014923006867,0.18441600504723019,0.06086915080975308,0.11449571931483016,0.0,3,0.3,0,3,0.10016555454764134,62.47046572741476,0.07359700909873398,47.12744611583048,0.025862903283812078,0.0,0,0,0,0
0.31,0.0,0,1,1,0,0,1,1,0,0.241525333970285,0.0,0.19231644084998276,0.7818422088788551,0.0,0.6169652453960756,0.04240613219464672,-0.0011588918627811133,0.29923007327101114,0.004554930899819758,0.02510478369368241,0.02906976589197144,0.22439013483028666,0.14115373214262217,0.10142728412140896,0.21338348704475285,-0.12748073517080669,0.016502939433741343,-0.14794614481398685,0.12695152081062214,0.01866900712983277,-0.14178578339027162,-0.14700496499528642,0.09687420099413134,0.18973469864557452,-0.005722136439702291,0.02723821775213247,-0.08952196839891446,-0.2203482275241971,0.1594957386932292,0.05179063532471048,0.005722136439702291,0.02723821775213247,0.08952196839891446,0.2203482275241971,0.03282070215675356,0.09033347392116634,0.0,3,0.3,0,3,0.09986891212099278,55.19305786053379,0.06647138296030228,69.18710229205777,0.018310766567712133,0.0,0,0,0,0
0.32,0.0,0,1,1,0,0,1,1,0,0.249341372301535,0.0,0.1984785009801572,0.7816038331249997,0.0,0.6162060130174452,0.044328833423513535,-0.0011560400039845127,0.2994588087788612,0.0045206400838426475,0.022534930410439857,0.030491431244176505,0.2293582390923936,0.14246164993775876,0.0981391693841257,0.21357649262526363,-0.12746436347107007,0.01651658203260281,-0.14784124790439337,0.126932748149995,0.01867465222336548,-0.13483045367741764,-0.14691892409560822,0.09459239500040482,0.19271843298254573,-0.005353846396418144,0.028839951915079085,0.020281517575409178,-0.28681769611932945,0.1368756417923746,0.05662293931898926,0.005353846396418144,0.028839951915079085,0.020281517575409178,0.28681769611932945,0.061602859187782605,0.12357964490319001,0.0,3,0.3,0,3,0.1146231153108614,65.6745179012339,0.07582232278020037,47.6754224606335,0.0640132272935936,0.0,0,0,0,0
0.33,0.0,0,1,1,0,0,1,1,0,0.2571549497341036,0.0,0.2046327255189626,0.781357743256858,0.0,0.6154224538805403,0.046274554417177344,-0.0011708780191088247,0.29978886251461945,0.004496899398747639,0.019581836719695378,0.03207832008046838,0.2349719633095378,0.14365923821202922,0.09108774704985069,0.21378619887980527,-0.1274469138040784,0.016530594074351923,-0.14773041848009275,0.12690885919746617,0.01868025849882546,-0.12768873869599662,-0.1459414002499776,0.09058666199386901,0.19517805353798642,-0.00950803303702764,0.0501616978080897,-0.054571768624977306,-0.3085649412172809,0.1735270135749403,0.061976896196117154,0.00950803303702764,0.0501616978080897,0.054571768624977306,0.3085649412172809,0.031105711944022313,0.10259064117716711,0.0,3,0.3,0,3,0.10640140885895037,76.61313539033323,0.07442146844174502,72.69802200430755,0.15869148167130231,0.0,0,0,0,0
0.34,0.0,0,1,1,0,0,1,1,0,0.2649659891511359,0.0,0.21077887150815186,0.7811039417032317,0.0,0.614614598918925,0.048272791389399085,-0.0011898826078977438,0.30033856143906706,0.004355576565429143,0.01586711678082664,0.0335927630910239,0.24134950044450612,0.14516647133956007,0.08011719522594157,0.21402020398568344,-0.12743043597462575,0.016545295429839707,-0.14761180312609357,0.12688749054925763,0.01868595822604252,-0.120834623888991,-0.14480921787151652,0.08282759565302354,0.20286274753969505,-0.008094999905246914,0.06658827732957634,-0.06139661655929087,-0.43153490041139453,0.14293449169477954,0.062103241611440846,0.008094999905246914,0.06658827732957634,0.06139661655929087,0.43153490041139453,0.06784437981337232,0.13804262133006007,0.0,3,0.3,0,3,0.1288150019588891,101.03440076184305,0.08285108464632765,52.757108393489126,0.21429710162369997,0.0,0,0,0,0
0.35000000000000003,0.0,0,1,1,0,0,1,1,0,0.2727744134608264,0.0,0.21691669630840524,0.7808424309690531,0.0,0.6137824800253378,0.050375890810867255,-0.0011995040565989275,0.30105056004407654,0.003702530636747975,0.011242193682868384,0.03511661200036846,0.24779719903095176,0.14625828488265363,0.06853566800671688,0.2142801580999336,-0.12741193057223477,0.016561018185734827,-0.14748438959268964,0.1268651568854162,0.018691851179316488,-0.11464848428220345,-0.14350521120609364,0.0714095335425873,0.21548412912535903,-0.006966375833062848,0.08076361795494805,-0.017672116722635505,-0.46537942380850383,0.162804774472682,0.0572902843354674,0.006966375833062848,0.08076361795494805,0.017672116722635505,0.46537942380850383,0.05411192183572325,0.1183685820042535,0.0,3,0.3,0,3,0.12528402539318925,92.73196226227385,0.07095395681937652,79.03163519294675,0.12336312873381983,0.0,0,0,0,0
0.36,0.0,0,1,1,0,0,1,1,0,0.2805801455971796,0.0,0.2230459576089092,0.7805732136353161,0.0,0.6129261300503952,0.05258432691889684,-0.001202694489385783,0.30185047764324097,0.003450416027102079,0.0067922903054384864,0.03680510071362846,0.253819890250922,0.14759362396767003,0.05800722333451351,0.21454651703847544,-0.1273920311691948,0.01657712859414054,-0.14734142068629882,0.12684103124933604,0.0186979018771892,-0.10871100545427526,-0.14261636251152804,0.057006218860995814,0.22338523683792844,-0.007833274991834836,0.081071205814695,0.08009543856655246,-0.41029483629869606,0.17864457442400028,0.05719490875925115,0.007833274991834836,0.081071205814695,0.08009543856655246,0.41029483629869606,0.04440138318490891,0.1094295669359949,0.0,3,0.3,0,3,0.11337033973339428,78.91261438933309,0.0708687633926112,51.9432706648367,0.04452359041375653,0.0,0,0,0,0
0.37,0.0,0,1,1,0,0,1,1,0,0.2883831085207705,0.0,0.22916641343692262,0.7802962923590895,0.0,0.6120455828013432,0.05485362824398613,-0.0012115580225177988,0.3026396586278322,0.005165652460382062,0.0033089942756350244,0.03865311974253525,0.25846668082338864,0.14921299115652278,0.04883144908222979,0.21480021353680498,-0.12737266634011063,0.01659288977314488,-0.14717654384550985,0.1268154871585532,0.018704055856965135,-0.10163463678681714,-0.1417039501639424,0.042804293024496065,0.230040585498176,-0.011529296421177225,0.07803343158108768,0.2693669826694791,-0.28691029823423975,0.1821169104823146,0.05834252302259449,0.011529296421177225,0.07803343158108768,0.2693669826694791,0.28691029823423975,0.047049502954608025,0.11692132239837974,0.0,3,0.3,0,3,0.10789553103535166,65.62461360519478,0.06935716241310975,76.48128516693933,0.09686447473798543,0.0,0,0,0,0
0.38,0.0,0,1,1,0,0,1,1,0,0.29618322521950524,0.0,0.23527782216732931,0.780011669873476,0.0,0.6111408730406692,0.057204592057853214,-0.001279859804585018,0.30335989041321537,0.008560711711995607,0.0008668352319138872,0.040537009316285726,0.26028096872817186,0.15024338863086273,0.04025296837759301,0.21504029981043374,-0.12735729806230853,0.01660831723413464,-0.14699544216168653,0.1267851783977462,0.018710479269368696,-0.09383395954364918,-0.14005644571208933,0.03093180617535772,0.23872775308372618,-0.018741572146975565,0.06320688878500418,0.4324973374840492,-0.20776104868651055,0.2065369061266562,0.05745547213577906,0.018741572146975565,0.06320688878500418,0.4324973374840492,0.20776104868651055,0.02874091604067311,0.10493796032342774,0.0,3,0.3,0,3,0.11445856347940637,52.84796256464856,0.06581039564929816,46.328702885398876,0.15470372715214664,0.0,0,0,0,0
0.39,0.0,0,1,1,0,0,1,1,0,0.3039804187093811,0.0,0.24137994253217698,0.7797193489875842,0.0,0.6102120364847669,0.059651435229806524,-0.00139482722011662,0.3038448528285677,0.013455862127647626,-0.0012646517298180449,0.0426525919940968,0.2590938890003696,0.1501636973871111,0.032255055730835175,0.21526936306995667,-0.12734378535552446,0.01662374359590002,-0.14681850129606447,0.12674813108286118,0.018716903740017804,-0.08754343166342318,-0.1375067393028511,0.02101411500994191,0.24922284733209016,-0.024922314624132965,0.030767105664068064,0.4050474217168216,-0.21437533887481103,0.21951985664313883,0.054757571377290926,0.024922314624132965,0.030767105664068064,0.4050474217168216,0.21437533887481103,0.02186008588903815,0.10153997189046204,0.0,3,0.3,0,3,0.10132295437321029,32.19408790341376,0.060401289949161094,55.527909299005636,0.11606255068611393,0.0,0,0,0,0
0.4,0.0,1,0,0,1,0,1,1,1,0.3117746120352462,0.0,0.2474725336302022,0.7794193325865117,0.0,0.6092591098025207,0.06219105856850592,-0.0015348454111379125,0.30391396969333156,0.017926464469093503,-0.003378330641947702,0.04472702260243912,0.2564861495291305,0.14900805212517707,0.02500450806574639,0.2155935284042782,-0.12721236777667724,0.016905939381963025,-0.14665756680584469,0.1267108177818567,0.018723504042572642,-0.08619844580640759,-0.13660879437440415,0.0180914017558724,0.25228139248828746,-0.021963194783470735,-0.008289510231239484,0.2851743555497508,-0.06846945071868046,0.16845261680849546,0.05949321954695874,0.021963194783470735,0.008289510231239484,0.2851743555497508,0.06846945071868046,0.07901991682170673,0.16047633115213622,15.0,3,0.3,0,3,0.11938910090582736,22.121712037923107,0.04543486079328107,36.91219232256768,0.23786778121319452,15.0,0.0,0.0,0.0,0.20000000000000004
0.41000000000000003,0.0,1,0,0,1,0,0,1,1,0.31956572827155894,0.0,0.2535553549363405,0.7791116236312734,0.0,0.6082821306138325,0.06505701267491325,-0.0016523731379606986,0.30371034379247147,0.02280497403680138,-0.00379523429166273,0.04689150341086941,0.2504998504331418,0.1456176980681141,0.019059001762550515,0.21725265737050448,-0.1241183888027679,0.02195383400215009,-0.14645970994549698,0.12666774110962634,0.018731138129735397,-0.08723469263521666,-0.13671712615776557,0.01811080036706378,0.31071279745599234,-0.029277295883484603,-0.018818809517670183,0.6891614950754141,0.005158218115661512,0.2870920053225686,0.008852930815566595,0.029277295883484603,0.018818809517670183,0.6891614950754141,0.005158218115661512,0.033536650386228106,0.0716668770852793,65.0,3,0.3,0,3,0.08887517964072737,225.31352137770008,0.11155743198380426,79.99187944178857,0.36397632400856794,65.0,0,0,0,0
0.42,0.0,1,0,0,1,1,0,0,1,0.32735369052314756,0.0,0.2596281663112222,0.778796225158862,0.0,0.6072811374881693,0.06827164264650085,-0.001760711201493054,0.303381462157288,0.024718681886491227,-0.004233772216380993,0.04954292285929292,0.2497516250097157,0.14521076194283258,0.018081855676936626,0.22242483294819562,-0.1206843466936991,0.028279712636620685,-0.1468655609649839,0.12579498833912373,0.024100785429311877,-0.08706431168215337,-0.13675594016195033,0.018125388285404415,0.3206459430834316,-0.020322746614437136,-0.05533327995307962,-0.048482747505234604,-0.05029432244041278,0.22303004667851686,0.006707747439715972,0.020322746614437136,0.05533327995307962,0.048482747505234604,0.05029432244041278,0.036598119632705345,0.06362861368685846,30.0,3,0.3,0,3,0.058771926830105445,124.7394191677528,0.08967776232998026,66.34111874230815,0.44480334877115635,30.0,0.22000000000000006,0.0,0.0,0.0
0.43,0.0,1,0,0,1,1,0,0,1,0.33513842192596877,0.0,0.2656907280106526,0.778473140282121,0.0,0.6062561699430369,0.07139596556986003,-0.0017660278357639406,0.30280370023655906,0.02490471507958778,-0.0035564349551624463,0.05192844416275512,0.2498698499217767,0.14523224335706536,0.01809308659138717,0.22747130991797432,-0.11857955519755037,0.03695495969209234,-0.14544555712116627,0.12517248893695418,0.034713873648901966,-0.08688874406401015,-0.13678749944780108,0.01813885891714684,0.30721436233558064,-0.018172616592191135,-0.06557069563505155,-0.07291287680401949,0.1819951710217742,0.2357772922023431,0.02792405959038813,0.018172616592191135,0.06557069563505155,0.07291287680401949,0.1819951710217742,0.02991343580830949,0.07601011199088875,0.0,3,0.3,0,3,0.0644255311003726,64.8944272553933,0.07367551619427412,76.6210545507809,0.12603114045166963,0.0,0,0,0,0
0.44,0.0,1,0,0,1,1,0,0,1,0.3429198456478665,0.0,0.2717428006950765,0.7781423721897718,0.0,0.6052072684423926,0.07446301799222721,-0.001736701827333606,0.302118434441517,0.024194157903716776,-0.0010496588991550926,0.05418722805594307,0.2499629174996744,0.1452528391215318,0.01810502760861213,0.2318280742387799,-0.1187410331157815,0.047899752436490195,-0.14363293290954923,0.12478191955365837,0.046046860447286675,-0.08669623893009099,-0.13681334862909483,0.018151567171012545,0.30534818582394907,-0.013069878562001844,-0.06814124615631204,-0.10120416963291488,0.31935159756717296,0.21849881797754503,0.037571659823917414,0.013069878562001844,0.06814124615631204,0.10120416963291488,0.31935159756717296,0.053243982717531474,0.10388552110345073,0.0,3,0.3,0,3,0.09965139344258242,62.49902322763563,0.0685166011888758,50.96656487200642,0.07395019960330063,0.0,0,0,0,0
0.45,0.0,1,0,0,1,1,0,0,1,0.3506978848893299,0.0,0.2777841454390272,0.7778039241463419,0.0,0.6041344743950683,0.07752665271708675,-0.0016910327528425566,0.3014678890525138,0.022826118345559775,0.002333630945794196,0.05669535517052375,0.2500495164987109,0.14527638407148266,0.01811708685805466,0.23533710064834434,-0.1196283217208798,0.05815892201553369,-0.14134726680189966,0.12445139583275147,0.0550289706427988,-0.08648641533057289,-0.13684140889027516,0.018164255334291668,0.30886449873573785,-0.01382836701570181,-0.06367508612962203,-0.15955572811118138,0.3422764905339343,0.24680436714750137,0.041833386153592056,0.01382836701570181,0.06367508612962203,0.15955572811118138,0.3422764905339343,0.030979778291525817,0.08664153146081968,0.0,3,0.3,0,3,0.08481978623326736,63.26900706334332,0.07039433538775276,71.26523518460053,0.06468229103059753,0.0,0,0,0,0
0.46,0.0,1,0,0,1,1,0,0,1,0.35847246288425194,0.0,0.28381452374055854,0.7774577994922038,0.0,0.6030378301531358,0.08062648272434479,-0.001641986325788712,0.3008836356592698,0.020531955661048117,0.005926640143557815,0.05922633370673629,0.25014064028114796,0.14529979391164474,0.018129101617417653,0.2393967552101563,-0.1205909994102827,0.06692695887692118,-0.13878125515923903,0.12303819166968416,0.06159599870088028,-0.08625957063260423,-0.136868459034248,0.018177027091067055,0.3092861702596346,-0.01400457992549315,-0.04668295196338677,-0.23682474459455932,0.4131954965791086,0.25625732305613286,0.04918629262461732,0.01400457992549315,0.04668295196338677,0.23682474459455932,0.4131954965791086,0.027557200684425687,0.09074807323453615,0.0,3,0.3,0,3,0.09489247603223452,66.65443922124128,0.07254877400257319,50.2687019494078,0.06952557257812408,0.0,0,0,0,0
0.47000000000000003,0.0,1,0,0,1,1,0,0,1,0.3662435029006865,0.0,0.28983369753066096,0.7771040016434583,0.0,0.6019173790102417,0.08373805368936327,-0.0015569015590261638,0.3004056478366802,0.018164421233120173,0.010293548651791662,0.06193535373678162,0.25023182917001163,0.1453272279668384,0.0181412117000532,0.24490273254294517,-0.12145556599192403,0.07534327117713566,-0.13304780191492963,0.12126912683683742,0.06836990407442212,-0.08601389381320423,-0.13689296180956476,0.01818982659669502,0.3138905123062351,-0.009301649015573801,-0.040095790385888064,-0.2739227529348927,0.4629991265045496,0.2573893608324278,0.05235299059445142,0.009301649015573801,0.040095790385888064,0.2739227529348927,0.4629991265045496,0.032444336698233156,0.09409897630825838,0.0,3,0.3,0,3,0.08685966067154095,83.5345254140897,0.07484559080419509,74.66577146713162,0.07073968824691779,0.0,0,0,0,0
0.48,0.0,1,0,0,1,1,0,0,1,0.3740109282416059,0.0,0.29584142918265965,0.7767425340919398,0.0,0.6007731651998693,0.08689725944175365,-0.001448345243666574,0.3000770807084273,0.015530635937685486,0.0147595457544214,0.06462367986375932,0.250340546499804,0.14535639642906686,0.018153046057428568,0.25182342773374067,-0.12165717653413163,0.08273641067200058,-0.1260187289246301,0.11937083636752117,0.07372086677430395,-0.08575220850590401,-0.13691581452888182,0.018202879128956684,0.3204491794184434,-0.009060254784253532,-0.019516003727149855,-0.2626386866422475,0.4157057559335962,0.27600625645504934,0.0535617488231625,0.009060254784253532,0.019516003727149855,0.2626386866422475,0.4157057559335962,0.019835172727610317,0.08245717633502635,0.0,3,0.3,0,3,0.0938622748184775,86.21483835120662,0.07510194989080408,53.0191432663748,0.03335599505837494,0.0,0,0,0,0
0.49,0.0,1,0,0,1,1,0,0,1,0.3817746622456579,0.0,0.3018374815215959,0.7763734004052003,0.0,0.5996052338936242,0.09015226277572053,-0.0013101852934030375,0.29989477387433894,0.013021265131107927,0.018430327963572912,0.0675699851279416,0.25047572508695337,0.1453909602592357,0.01816450547095333,0.2595947069512975,-0.12156190171737799,0.08848737588688144,-0.11701930268509125,0.11793662669622064,0.07858430147217255,-0.08548281486497597,-0.13694066947868858,0.018216552330125896,0.3318695687413628,-0.008222839647805935,-0.0038054036508882606,-0.2191221504969157,0.30244188937791305,0.29733351000642727,0.04990509350429512,0.008222839647805935,0.0038054036508882606,0.2191221504969157,0.30244188937791305,0.0045039715151686255,0.06263190466726967,0.0,3,0.3,0,3,0.06738899464711856,90.51476241072172,0.07592137068234857,78.35899391521784,0.05367206328978191,0.0,0,0,0,0
0.5,0.0,1,0,0,1,1,0,0,1,0.3895346282879222,0.0,0.3078216178335902,0.7759966042264255,0.0,0.5984136311994293,0.09353622413434409,-0.0011466733813657653,0.29986544068775234,0.01106151938108815,0.020768458713490423,0.07055134956249924,0.2506469576969875,0.14542843999580707,0.01817583031905179,0.2675568155742498,-0.12098841076469495,0.09213096521398674,-0.10776091204593918,0.11674465635341913,0.08207540612557726,-0.08520916025244177,-0.1369647108752654,0.018230796069973576,0.34491342609801656,-0.005035846397648082,0.011202262034923097,-0.18435693356545496,0.1976411257468763,0.2882835959622233,0.04462120218990562,0.005035846397648082,0.011202262034923097,0.18435693356545496,0.1976411257468763,0.019538021871366884,0.0691950704589206,0.0,3,0.3,0,3,0.06421079434198408,81.93814042147864,0.0663715569216054,51.370859529702045,0.033203634887570166,0.0,0,0,0,0
0.51,0.0,1,0,0,1,1,0,0,1,0.3972907497806668,0.0,0.3137936018751874,0.7756121492744628,0.0,0.5971984041597211,0.09705374052866914,-0.00096059931316003,0.29998292422225503,0.008588496086277184,0.02195035818386648,0.07351816741078612,0.25085003039217857,0.1454678287049917,0.01818724317162851,0.27439853758217725,-0.11997690557468887,0.09251797103167553,-0.09866142617161919,0.11605878204247647,0.08304460900149507,-0.08492716979584419,-0.13698931567452424,0.018245786000286646,0.3576170203093208,-0.007371938421452622,0.028938927231551358,-0.22574786340021671,0.057157086778418305,0.30010603147903037,0.03967372947134601,0.007371938421452622,0.028938927231551358,0.22574786340021671,0.057157086778418305,0.013687570396157034,0.06073323828895567,0.0,3,0.3,0,3,0.06270201427731364,77.4983178721183,0.0667713389452751,76.51825222118217,0.04212317078924299,0.0,0,0,0,0
0.52,0.0,1,0,0,1,1,0,0,1,0.4050429501741038,0.0,0.31975319788268336,0.7752200393436992,0.0,0.595959600749596,0.10068918681555172,-0.000752641190312178,0.300249659689006,0.006605128233237185,0.022243162926709692,0.07645624640876016,0.2510802356657469,0.14550901882033468,0.018199056897037685,0.2814808182754207,-0.11866174323246932,0.0899926657204085,-0.08972536235822315,0.11506427446539723,0.08120880147814327,-0.08463586256648511,-0.13701185302426738,0.018261237500117322,0.3685610068057846,-0.005395639694957697,0.04127824536047173,-0.18740537006614422,0.01903767996784739,0.2852868853220314,0.036481943368319225,0.005395639694957697,0.04127824536047173,0.18740537006614422,0.01903767996784739,0.03446631256065197,0.07634389562392889,0.0,3,0.3,0,3,0.06884424160019041,79.91958869676985,0.06365069770825107,48.61754379973569,0.11855328958900424,0.0,0,0,0,0
0.53,0.0,1,0,0,1,1,0,0,1,0.4127911529571451,0.0,0.325700170581432,0.774820278304128,0.0,0.5946972698748665,0.10441207972225411,-0.0005357319174258156,0.30062430448186017,0.0035447902426471614,0.022319154493230187,0.07946397334017374,0.25132008573343806,0.14555134732100733,0.01821097020083956,0.2895447967712581,-0.11746549430215186,0.08456616391774628,-0.07993354430315858,0.11461127419348464,0.07640786778697504,-0.08432901991992198,-0.1370358942473402,0.018277384363368482,0.37397809884249295,-0.00823259895630276,0.05104434170394407,-0.34464268818402094,0.0015820343421427065,0.3189242336683167,0.038813054114652135,0.00823259895630276,0.05104434170394407,0.34464268818402094,0.0015820343421427065,0.0067759369131153435,0.05382158998407024,0.0,3,0.3,0,3,0.06394888328312745,86.74800702122918,0.06809877483637441,71.09117943290748,0.21966842041992862,0.0,0,0,0,0
0.54,0.0,1,0,0,1,1,0,0,1,0.4205352816581571,0.0,0.3316342851951342,0.7744128701012043,0.0,0.593411461370219,0.10817243974226973,-0.0003120730543836747,0.301095609050968,0.00035849304060349,0.02235475472930215,0.08264209584837008,0.25156803729599164,0.1455953372536842,0.01822297983418042,0.29947218821202315,-0.1158998230478783,0.07650063895786419,-0.06864755237399958,0.11435679478023995,0.06960890471131419,-0.0840115894605632,-0.13705996027568074,0.01829384724503033,0.37767508772219616,-0.007040439086273927,0.05977586031958923,-0.3257628891327207,0.01766184984138806,0.3169875465825543,0.042860193935960966,0.007040439086273927,0.05977586031958923,0.3257628891327207,0.01766184984138806,0.014646738612579924,0.06454737163481482,0.0,3,0.3,0,3,0.06125603236977924,86.5062707386825,0.06488266957754238,47.68572442173602,0.2524348447559188,0.0,0,0,0,0
0.55,0.0,1,0,0,1,1,0,0,1,0.42827525984571624,0.0,0.3375553074551057,0.7739978187559116,0.0,0.5921022259971487,0.11197234826459088,-5.184208951064861e-05,0.30162665234984365,-0.0017846201435899088,0.02262273886221644,0.08584040682645959,0.25182350676631865,0.14564183517373736,0.018235320932582844,0.3105044536079679,-0.11421338111103563,0.066412366429625,-0.0582831014030995,0.11369152285310768,0.060597395315894226,-0.08368790662772582,-0.13708225155869525,0.018310348488099537,0.3815128297745484,-0.005059452187976454,0.060641801534232855,-0.10381872012664935,0.03862767364828045,0.32381886463782045,0.046762430071167815,0.005059452187976454,0.060641801534232855,0.10381872012664935,0.03862767364828045,0.013736442817285255,0.06555832507642953,0.0,3,0.3,0,3,0.0658774022338154,67.53701539815384,0.06754517581803053,72.56314580772703,0.11216577223216206,0.0,0,0,0,0
0.56,0.0,1,0,0,1,1,0,0,1,0.4360110111293624,0.0,0.34346300360952614,0.7735751283646175,0.0,0.5907696154420439,0.11582017735652712,0.00024403930246935418,0.30209717059955415,-0.0028861441240374524,0.02310410568547172,0.08917436083864175,0.25207681549947036,0.14569034586567498,0.018247824571028276,0.32146863224908934,-0.11259232685495603,0.05632202295784383,-0.048436665084766656,0.11364709332404,0.052664547048359656,-0.0833596850328117,-0.13710505346152363,0.01832706805660128,0.38669682076042927,-0.004930534479721739,0.053294729592388575,-0.21624697212775212,0.07380574503353425,0.3355048539782489,0.04931419036893314,0.004930534479721739,0.053294729592388575,0.21624697212775212,0.07380574503353425,0.007958149631277223,0.062202874479932106,0.0,3,0.3,0,3,0.058451314747952655,59.68645838872003,0.07108181560454538,49.28174596049678,0.030944825903004736,0.0,0,0,0,0
0.5700000000000001,0.0,1,0,0,1,1,0,0,1,0.44374245916035343,0.0,0.3493571404326669,0.7731448030991017,0.0,0.5894136823140772,0.11970933067653314,0.0005475585622961522,0.30258714732097586,-0.004189672068971527,0.02398617322671215,0.09254031015200895,0.25233469228775346,0.14573949247225548,0.018260549796477676,0.33178516507494826,-0.11140656597316129,0.04584501781289055,-0.04035380563804425,0.11484283680651218,0.04395953638560833,-0.08301996815097266,-0.13712665902836518,0.018344062197570316,0.393993354492475,-0.003819951844817478,0.06240688733794613,0.007336657094597668,0.1352934424778237,0.34183529457692036,0.04974910466787841,0.003819951844817478,0.06240688733794613,0.007336657094597668,0.1352934424778237,0.007521845855746556,0.06109090236844244,0.0,3,0.3,0,3,0.06581086353796481,73.7689429643638,0.07547437123647331,81.04301563640267,0.05542757190004388,0.0,0,0,0,0
0.58,0.0,1,0,0,1,1,0,0,1,0.45146952763241865,0.0,0.3552374852340987,0.7727068472065224,0.0,0.5880344801431792,0.12375780744713807,0.0009042496335836573,0.3030852977729785,-0.00345794047285803,0.025102540494507553,0.09605604714632947,0.2526116436855371,0.14579349148666507,0.018274262256368246,0.3388422373957618,-0.11023172804122541,0.03549953191939678,-0.03473090167192586,0.11594036790924425,0.03440328472696527,-0.08267118859130217,-0.1371484216885094,0.018361788791080802,0.42090403983118513,-0.00040891469477652475,0.05258760667800177,0.13498556975416617,0.016589789458881166,0.3542204318588872,0.030565487801233526,0.00040891469477652475,0.05258760667800177,0.13498556975416617,0.016589789458881166,0.0010170533752115185,0.03199145587122157,0.0,3,0.3,0,3,0.04535700540368464,78.12270921156536,0.07728383430858712,50.010982140447986,0.05168582501456487,0.0,0,0,0,0
0.59,0.0,1,0,0,1,1,0,0,1,0.4591921402825117,0.0,0.3611038058678774,0.7722612650093053,0.0,0.5866320633778677,0.1281420861766839,0.0013829865742313566,0.303332865413048,-0.001289912410146495,0.024632387034029035,0.09955741316721643,0.2528777742241838,0.14583307049047783,0.018289886043419634,0.3406345987097541,-0.1085639089674015,0.024127318826056482,-0.03272886733372041,0.11643794322050968,0.02378281620797784,-0.08232635596137192,-0.13716758595240966,0.018380959427156562,0.45822461264715636,0.008672094685451546,0.014738685466450713,0.12734908316460186,-0.08220266155979698,0.3443979541226286,0.0009675276353553475,0.008672094685451546,0.014738685466450713,0.12734908316460186,0.08220266155979698,0.0167058517452488,0.026345474066055696,0.0,3,0.3,0,3,0.027560142026846913,62.647336794212734,0.06241797158771931,50.10726699962906,0.10898565870899168,0.0,0,0,0,0
0.6,0.0,0,1,1,0,0,1,1,1,0.46691022089156364,0.0,0.3669558707417092,0.7718080609051936,0.0,0.585206487383183,0.13284512270008306,0.0019642745787322603,0.30295287183860586,5.1439105636499975e-05,0.023005046084138003,0.10276724561689081,0.2519378480981842,0.14411974155270507,0.02056197257310649,0.33992539979210534,-0.10710070430250368,0.01811322877118768,-0.03269840032169724,0.11648078127504174,0.018078161006920335,-0.0822473619920334,-0.13783844696107359,0.01946001900836164,0.48815235722120615,0.007100164627847275,-0.06584160623052794,0.2697849470563807,-0.1951006914581743,0.33288101509151746,0.021242136329642503,0.007100164627847275,0.06584160623052794,0.2697849470563807,0.1951006914581743,0.03407485565019175,0.062417156607681525,15.0,3,0.3,0,3,0.06887323158232239,65.21319144247337,0.06129630156788281,75.23793675166468,0.4967730159271704,15.0,0.0,0.19000000000000003,0.18000000000000002,0.0
0.61,0.0,0,1,1,0,0,1,1,0,0.4746236932852346,0.0,0.3727934488260932,0.7713472393670984,0.0,0.583757808438401,0.13762191228780127,0.0024978215808670722,0.30204263634375794,0.001891286230129798,0.020974817083528885,0.1062685941502247,0.252436916795847,0.1427981293577697,0.02914109890162378,0.34023049882823764,-0.10702942866965015,0.018137100376190346,-0.032518238286497914,0.11645897916505481,0.01809716330196992,-0.08089074342972537,-0.14016528680432724,0.02665361504270028,0.47108822539393985,-0.0002740872780417888,-0.08490726064297213,0.009317959470149805,-0.14191010502449913,0.3357977196023101,0.0035354678912947746,0.0002740872780417888,0.08490726064297213,0.009317959470149805,0.14191010502449913,0.036995729223783136,0.0408052843931197,0.0,3,0.3,0,3,0.03307690885506839,81.61826968477148,0.09435311444732575,77.33686194835629,0.1533616594659033,0.0,0,0,0,0
0.62,0.0,0,1,1,0,0,1,1,0,0.4823324813346662,0.0,0.3786163096634422,0.7708788049431592,0.0,0.5822860837348953,0.14221623421549093,0.0029728347523911283,0.3011270210073279,0.00044844892869228415,0.019450801034703424,0.10947603734614525,0.2524971988802967,0.14257275751811355,0.04032104738195491,0.34053399970476284,-0.10696353767090631,0.018158816049449023,-0.03234238919579158,0.11643616002164364,0.018115645071509062,-0.07866591232081319,-0.14304360995037924,0.03736845736120192,0.45668843342839516,-0.0034717956034085746,-0.07620233699510247,-0.1662994988618876,-0.1649839079581601,0.33497667618621235,0.02564404790627106,0.0034717956034085746,0.07620233699510247,0.1662994988618876,0.1649839079581601,0.04363963347722982,0.07275547698690946,0.0,3,0.3,0,3,0.0752083722573224,85.56186965671577,0.08925147399436435,61.46433285903235,0.1233664524117335,0.0,0,0,0,0
0.63,0.0,0,1,1,0,0,1,1,0,0.4900365089572325,0.0,0.38442422337718063,0.7704027622566278,0.0,0.5807913713738455,0.14666656472441747,0.003422560665088186,0.30035347742923213,-0.00034545245817787086,0.018392547881521892,0.11297979651570912,0.2535397185383853,0.1429572966322689,0.05151104728520575,0.3408330487261466,-0.10689610717201842,0.01817981431639995,-0.032147045672398455,0.1164099633130187,0.01813227135764356,-0.07641600600725104,-0.14639725591954356,0.048395377647851456,0.4408450471092171,-0.006599317156291714,-0.06477694675363949,-0.041608584921340015,-0.0352369750517452,0.3597758484981861,0.04919146184801537,0.006599317156291714,0.06477694675363949,0.041608584921340015,0.0352369750517452,0.024648374878994517,0.08043915388330161,0.0,3,0.3,0,3,0.07419591704746628,61.576146117775366,0.07565490976383753,80.81983139824987,0.1479904250102444,0.0,0,0,0,0
0.64,0.0,0,1,1,0,0,1,1,0,0.4977357001172911,0.0,0.3902169606808198,0.7699191160058627,0.0,0.5792737303639162,0.15099783401215255,0.003835442224648881,0.2996226754100101,-0.00017348172107639064,0.01850185384788361,0.11658917500461055,0.2584662075278309,0.14494531668402857,0.06272742181613811,0.3411183418300638,-0.10683156418826978,0.018200276962766243,-0.031935179069640135,0.11638285931867416,0.018147726728267394,-0.07118697827727097,-0.15034863783644062,0.05933994490305727,0.4331165719681831,-0.009350677041842287,-0.06489814900742573,0.09325650325778906,0.03778398478035423,0.3561490194638935,0.06461912814910803,0.009350677041842287,0.06489814900742573,0.09325650325778906,0.03778398478035423,0.0340679412169263,0.10803774640787661,0.0,3,0.3,0,3,0.09537735501005365,78.93514445186368,0.08431024955575962,46.86035422835779,0.052531617639842265,0.0,0,0,0,0
0.65,0.0,0,1,1,0,0,1,1,0,0.5054299788269336,0.0,0.39599429288700977,0.769427870964251,0.0,0.5777332206189978,0.15529716804035518,0.004258325406786561,0.29890469806196984,0.001801426866286434,0.01872688352373486,0.12016057210820662,0.26722265893707375,0.14766382410512316,0.07394398429931176,0.34140629061830263,-0.10676634942757324,0.01822075233595799,-0.03171364645588348,0.11635669678672343,0.01816266345204587,-0.06304238974995294,-0.1536732274930664,0.06976824786176297,0.4341874732077763,-0.009459986252211937,-0.06064891274387729,0.19381080005495557,0.014045794930024714,0.3691444303493833,0.07124250561915735,0.009459986252211937,0.06064891274387729,0.19381080005495557,0.014045794930024714,0.026849862537626445,0.10755235440899573,0.0,3,0.3,0,3,0.1132225253992297,82.9552696439709,0.0844749985651725,68.84251999062842,0.014753084992597865,0.0,0,0,0,0
0.66,0.0,0,1,1,0,0,1,1,0,0.5131192691467354,0.0,0.4017559919165674,0.7689290319801811,0.0,0.5761699029557643,0.15963970307440042,0.004692026000597802,0.29825494364098015,0.004158225089882382,0.018557487731143185,0.1238855391678663,0.27820461778217553,0.15071677286534244,0.08400442275364944,0.3417131651626589,-0.1066982232244902,0.01824153295283462,-0.03148363765427464,0.11632893480593573,0.01817754893773066,-0.05307149624771912,-0.15576379049438782,0.07875553592979004,0.4415431852355035,-0.009533643709736913,-0.050999537212552994,0.2785291794739872,-0.05100256388262129,0.37313616508368175,0.07157608391123194,0.009533643709736913,0.050999537212552994,0.2785291794739872,0.05100256388262129,0.028619826832885664,0.10972955445385452,0.0,3,0.3,0,3,0.10840819646944069,77.12050399574314,0.0820559699160441,47.09923950443906,0.010997863795831897,0.0,0,0,0,0
0.67,0.0,0,1,1,0,0,1,1,0,0.5208034951865055,0.0,0.4075018303074806,0.7684226039770037,0.0,0.5745838390913194,0.16407394241259318,0.005148979772123399,0.29774354031469963,0.006677468905463963,0.017609561474865698,0.12766696488176763,0.2898268416465745,0.15399038393780612,0.09206716991740102,0.3420487732738181,-0.10662688004668128,0.018262821597468615,-0.031243795850879996,0.11630037188723599,0.018192699991211203,-0.0416349871437835,-0.1565643907905605,0.08593642273653165,0.4529539237324465,-0.011769679280554914,-0.03693203776308065,0.2193471738933598,-0.129691433880577,0.38452785193294836,0.06784957145405901,0.011769679280554914,0.03693203776308065,0.2193471738933598,0.129691433880577,0.022973978374532245,0.10259322910914617,0.0,3,0.3,0,3,0.10627967682302257,83.23551946639537,0.08401955269019698,73.07017892789544,0.05164065624237946,0.0,0,0,0,0
0.68,0.0,0,1,1,0,0,1,1,0,0.5284825811060347,0.0,0.4132315812238882,0.767908591952926,0.0,0.5729750916407594,0.16863313300138816,0.0056203149395237335,0.29734573947704457,0.008444739595265817,0.01585551277409092,0.1314754445280173,0.30160452417432204,0.1577385458995888,0.09836440967017701,0.34241256887359084,-0.10655327542690513,0.018284797512293532,-0.030995644226470415,0.11627105434149984,0.018208434070569046,-0.02889482376604538,-0.15673162030896562,0.09119203141253931,0.46312064144645515,-0.01238978370780488,-0.0238117640565641,0.11856480838038135,-0.20745099652628715,0.38400224500845576,0.0653619396595796,0.01238978370780488,0.0238117640565641,0.11856480838038135,0.20745099652628715,0.029229336215432444,0.10698105958281692,0.0,3,0.3,0,3,0.10694057567882898,85.10775236831334,0.08255614672650649,50.05658963871239,0.11130030542896097,0.0,0,0,0,0
