time,trans_flag,des_cont_state_fl,des_cont_state_fr,des_cont_state_rl,des_cont_state_rr,cont_state_fl,cont_state_fr,cont_state_rl,cont_state_rr,vel_cmd_x,vel_cmd_y,vel_cmd_yaw,acc_cmd_x,acc_cmd_y,acc_cmd_yaw,base_pos_x,base_pos_y,base_pos_z,base_ang_roll,base_ang_pitch,base_ang_yaw,FL_foot_pos_x,FL_foot_pos_y,FL_foot_pos_z,FR_foot_pos_x,FR_foot_pos_y,FR_foot_pos_z,RL_foot_pos_x,RL_foot_pos_y,RL_foot_pos_z,RR_foot_pos_x,RR_foot_pos_y,RR_foot_pos_z,base_vel_x,base_vel_y,base_vel_z,base_vel_roll,base_vel_pitch,base_vel_yaw,x_vel_err,y_vel_err,z_vel_err,roll_vel_err,pitch_vel_err,yaw_vel_err,cmd_err,cont_err,terr_freq,terr_height,failed,gait_id,base,CoT,musculoskeletal,foot_force,MWE,stability,FL_stride_t,FR_stride_t,RL_stride_t,RR_stride_t
0.01,0.0,1,0,0,1,1,0,0,1,0.006283178692509316,0.0,0.005026527078818862,0.6283178692509316,0.0,0.5026527078818862,0.00016287903871880184,8.527138381013623e-06,0.3094111713265909,-0.00022912052486704257,-0.0012669061625654177,-0.0003188994416428814,0.1828904242107361,0.13204315917306483,0.0173319079422683,0.18832380117450476,-0.1301295101599798,0.03111823218843171,-0.177989616687901,0.13008894796513779,0.031158042236357986,-0.18372574301220546,-0.13203210363259382,0.01733310586532502,0.029979572546831843,0.001328974169978675,-0.12036885853561119,-0.059689261392336594,-0.23857979257537404,-0.042263086854256296,0.023696393854322526,0.001328974169978675,0.12036885853561119,0.059689261392336594,0.23857979257537404,0.04728961393307516,0.07231498195737636,40.0,3,0.3,0,4,0.0557362621494222,235.13341192987173,0.0760185592776147,21.84408563003764,1.0193480670386241,40.0,0,0,0,0
0.02,0.0,1,0,0,1,1,0,0,1,0.014137091596022201,0.0,0.011309492449657768,0.7853912903512885,0.0,0.6282965370838907,0.00048629292565079867,1.584843076680015e-05,0.30805461995264094,-0.0011021237950203985,-0.0036566542936269375,-0.0006288384234065358,0.18284424996227008,0.1320395378042926,0.01734068950578388,0.1954962367434455,-0.1296560593920168,0.05091167798372037,-0.17365252789272087,0.1294397291603764,0.04752135803669033,-0.1839589743334655,-0.13199539752749942,0.017343602478183645,0.02935080468589295,0.0026085601757977884,-0.13464541418686984,-0.16153495425946296,-0.13852572846660716,-0.060253945927939256,0.01521371308987075,0.0026085601757977884,0.13464541418686984,0.16153495425946296,0.13852572846660716,0.07156343837759703,0.08938571164326557,0.0,3,0.3,0,4,0.06372910717388489,57.70173537174107,0.07565679228761532,49.94166694943934,0.12680661648318514,0.0,0,0,0,0
0.03,0.0,1,0,0,1,1,0,0,1,0.02199086497214841,0.0,0.01759201134109972,0.7853773376126207,0.0,0.628251889144195,0.0007106746046982998,1.1647384701615296e-05,0.306815332617613,-0.002998643950113278,-0.0044479870481541894,-0.0011375253563645376,0.18278287829457937,0.13203377453725326,0.017349664103253698,0.1978283147937464,-0.1307696855124322,0.06947775592364297,-0.17204922066748707,0.12990663077687642,0.06102229812726555,-0.18403106702165492,-0.1319913605646682,0.017352583874451377,0.01642894876193905,-0.003784658669835009,-0.1136742261631236,-0.18943667984376542,-0.05170813490130823,-0.013160100821053093,0.00556191621020936,0.003784658669835009,0.1136742261631236,0.18943667984376542,0.05170813490130823,0.03075211216215281,0.04009868704219718,0.0,3,0.3,0,4,0.06849834513508016,61.924400160909514,0.08051364585045044,86.79885063653538,0.1780851832582453,0.0,0,0,0,0
0.04,0.0,1,0,0,1,1,0,0,1,0.02984442130731541,0.0,0.023873835730056265,0.7853556335166999,0.0,0.6281824388956546,0.000834730621928435,1.7901658421904316e-05,0.3057780687567358,-0.002629813267167156,-0.004364010352232661,-0.0013418902314587492,0.18272382919740074,0.1320323394652092,0.017358264290398384,0.19693050116322416,-0.1320868614751361,0.08338100059766462,-0.171509617344952,0.13016501819004558,0.07089223669756711,-0.18409203886565628,-0.13198677186567076,0.01736115802244964,0.007074964303094975,0.0048699668142259235,-0.09452284606485449,0.17050802014329408,0.065591582519601,-0.03566650025168647,0.022769457004220433,0.0048699668142259235,0.09452284606485449,0.17050802014329408,0.065591582519601,0.05954033598174273,0.08717975980018908,0.0,3,0.3,0,4,0.06278741785604854,38.86018627080179,0.06005110805611101,52.20453873359189,0.24220374462906635,0.0,0,0,0,0
0.05,0.0,1,0,0,1,1,0,0,1,0.03769768309009279,0.0,0.030154717620856746,0.7853261782777381,0.0,0.628088189080048,0.0008878669306453493,3.734221422013889e-05,0.304882506425281,-0.0023269166018249857,-0.003828665568824663,-0.0014158217169231663,0.18266120571198272,0.13203358302564988,0.017366760507779327,0.1937434564354595,-0.13287795392778046,0.09109873223362891,-0.17132004096948084,0.1306106483530023,0.07620391968871569,-0.18414165126887763,-0.1319860828112443,0.017369401726090444,0.0026848523057073706,0.0009594290120990162,-0.0837301278882848,-0.029485134477248105,0.04048378803620523,0.01814156582068296,0.03501283078438542,0.0009594290120990162,0.0837301278882848,0.029485134477248105,0.04048378803620523,0.012013151800173785,0.047985411596658215,0.0,3,0.3,0,4,0.06134690042852821,39.852655506877724,0.06884240416715383,68.60897998369504,0.10880255210277034,0.0,0,0,0,0
0.06,0.0,1,0,0,1,1,0,0,1,0.04555057281195724,0.0,0.036434409055038704,0.7852889721864452,0.0,0.6279691434181958,0.0008983049993078825,6.559628799106889e-05,0.3040717320468351,-0.0008378702720550781,-0.0035458506456498284,-0.0011766623567079054,0.18260570831628212,0.1320389340477607,0.017375012175891852,0.18971839530769877,-0.13325892130807485,0.09488640543619979,-0.17080431958552322,0.1306372592920716,0.07970818094049872,-0.18419569589311435,-0.13198705710715314,0.017377659908813875,0.0008031063001787051,0.003339890577327031,-0.08185938268153779,0.11140244127487055,0.012268550350349156,0.028916645341914352,0.044747466511778536,0.003339890577327031,0.08185938268153779,0.11140244127487055,0.012268550350349156,0.0075177637131243515,0.055605120802229915,0.0,3,0.3,0,4,0.05393700676269584,37.62241390210942,0.06246953863007223,43.87687892403376,0.012650331655246441,0.0,0,0,0,0
0.07,0.0,1,0,0,1,1,0,0,1,0.05340301296805755,0.0,0.04271266212113687,0.7852440156100309,0.0,0.6278253066098166,0.0009312588967985487,0.00010252138831584605,0.30326005660952066,-0.00010939022742270505,-0.003672771408145259,-0.0008115619789340913,0.18255426350071427,0.13204605300885006,0.017383186991847155,0.18580670491213147,-0.13359096864072822,0.0960054819734131,-0.17097736864382113,0.1307259401802883,0.0803661748448673,-0.18424911403916988,-0.13198930951102167,0.017385958892899733,0.004306201630144667,0.00412190463533548,-0.07806392111149058,0.09730031480012087,-0.05117255749733896,0.04191240728611262,0.04909681133791288,0.00412190463533548,0.07806392111149058,0.09730031480012087,0.05117255749733896,0.0008002548350242514,0.054018970808272615,0.0,3,0.3,0,4,0.05311683695471803,41.17000114593481,0.06540594772526356,68.4989830076104,0.04756979120572863,0.0,0,0,0,0
0.08,0.0,1,0,0,1,1,0,0,1,0.06125492605797953,0.0,0.048989228964470284,0.7851913089921981,0.0,0.6276566843333414,0.0009736813604221642,0.00012255905652650562,0.3025153560513118,-9.862367410438655e-05,-0.0046168038764060615,-0.00033915447399027285,0.18251468868680834,0.13205311334961603,0.01739112760302733,0.1810468904459065,-0.13354588505049783,0.09396145076971843,-0.17214116689518072,0.13059073667047724,0.07848792661436445,-0.18430463824986565,-0.13199403895140238,0.0173943278848262,0.004018697889419789,0.002616675760366849,-0.07061920827037402,0.04636352216236618,-0.12457674370655544,0.0481656607887533,0.05723622816855974,0.002616675760366849,0.07061920827037402,0.04636352216236618,0.12457674370655544,0.0008235681757169863,0.06067647210464358,0.0,3,0.3,0,4,0.057776167630229414,41.23779320795215,0.06323601783952805,46.865624743878634,0.091082520382953,0.0,0,0,0,0
0.09,0.0,1,0,0,1,1,0,0,1,0.06910623458651093,0.0,0.055263861796927174,0.7851308528531393,0.0,0.627463283245689,0.0009909431322652057,0.00015100169676351993,0.30188599383895914,2.295351892521938e-05,-0.005613008552812548,0.0002261453413861547,0.18247766280047162,0.1320618323303069,0.017398963699449016,0.17599050357800622,-0.13340512272199737,0.08849279487701855,-0.1740096374865221,0.13033297457154527,0.07341338686888056,-0.18434930763611837,-0.1319992395051835,0.017402482898213834,-0.0031759224803639243,0.0029365088395180475,-0.05033180530846179,-0.07585130077198253,-0.06247395507792913,0.05407923847866399,0.07228215706687485,0.0029365088395180475,0.05033180530846179,0.07585130077198253,0.06247395507792913,0.0011846233182631824,0.07640328922465608,0.0,3,0.3,0,4,0.07300330409254603,48.65503942177633,0.06663307611935279,75.27698279814174,0.12261823627988397,0.0,0,0,0,0
0.1,0.0,1,0,0,1,1,0,0,1,0.07695686106440629,0.0,0.06153631290674721,0.7850626477895362,0.0,0.6272451109820033,0.0008848495909244122,0.0001723903414499851,0.30158147093249116,-0.002443292702759637,-0.005389486767014118,0.0007903293535380436,0.1824286566655105,0.1320702576327313,0.017406773244263762,0.1720255425534569,-0.13329807288347434,0.0789904283371543,-0.174740121951911,0.130224364275929,0.0652623864952474,-0.1843526554103179,-0.13200543428573097,0.017410248403268463,-0.02010536117048959,0.0009896547892960514,-0.006047362408976341,-0.40585342694389004,0.13196080641647362,0.07369980598686782,0.09706222223489588,0.0009896547892960514,0.006047362408976341,0.40585342694389004,0.13196080641647362,0.012163493080120609,0.11021537010431254,0.0,3,0.3,0,4,0.09491067979133413,80.59434714989295,0.08161198652132193,59.258350742457495,0.18254057900932674,0.0,0,0,0,0
0.11,0.0,1,0,0,1,1,0,0,1,0.08480672800915168,0.0,0.06780633466830074,0.784986694474539,0.0,0.6270021761553536,0.0006098410193110929,0.00019337493249732543,0.30173063390824756,-0.006496733585024405,-0.0032654723021243726,0.0016370779998869055,0.18237099196751577,0.13208187537912383,0.017414586698977108,0.17028988074859813,-0.13358832532852633,0.06669949278745105,-0.17388242002468451,0.12951340491226926,0.05492933207956882,-0.18431193257125753,-0.13201284078201234,0.01741841192061816,-0.03165735130699927,0.004060750584432446,0.0325450316154609,-0.4025352481121932,0.27483374061638355,0.07945778698905284,0.11646407931615095,0.004060750584432446,0.0325450316154609,0.4025352481121932,0.27483374061638355,0.011651452320752098,0.13217628222133548,0.0,3,0.3,0,4,0.1335915539944021,97.59718261500996,0.08779315103589831,88.7218118533057,0.19998799385014884,0.0,0,0,0,0
0.12,0.0,1,0,0,1,1,0,0,1,0.09265575794572947,0.0,0.0740736795518646,0.7849029936577795,0.0,0.6267344883563855,0.00025989079336487773,0.0002297498038022556,0.3022218770449119,-0.011689205728424645,-8.483739461562223e-05,0.0023712526523755367,0.18231374942234796,0.13209237004223517,0.017422346216963785,0.17080538011289645,-0.1341533731131646,0.05391944120815503,-0.17306392338511084,0.12806419257617707,0.04264913472383808,-0.18423609713947348,-0.13201813973100945,0.01742751779473417,-0.03922165040721778,0.0013006160269335488,0.06503843464975942,-0.6382929561048126,0.38120088373954986,0.08828767541790443,0.13187740835294726,0.0013006160269335488,0.06503843464975942,0.6382929561048126,0.38120088373954986,0.01421399586603983,0.14739202024592063,0.0,3,0.3,0,4,0.1337768896513357,103.23841173772037,0.08804128878138705,59.91890283817902,0.14917379705093198,0.0,0,0,0,0
0.13,0.0,0,0,0,0,1,0,0,1,0.10050387340738298,0.0,0.08033810013339421,0.784811546165351,0.0,0.6264420581529608,7.161130912029807e-05,0.0002987772142539039,0.30230090121443737,-0.016199244296481945,0.0023258149813925044,0.0034292218914317206,0.18282960180507993,0.13040916439356826,0.027341831763632585,0.16733906468428963,-0.13520771229560272,0.040851095022177625,-0.1754387901813754,0.12572096868766064,0.027997136781359372,-0.18478547640722828,-0.13148630815293186,0.02227965601893428,0.005043347445544294,0.008863762477632839,-0.0693599984840682,-0.36906985307426143,-0.0063615646832777895,0.11025298883848765,0.09546052596183868,0.008863762477632839,0.0693599984840682,0.36906985307426143,0.0063615646832777895,0.029914888705093443,0.13423917714456496,50.0,3,0.3,0,4,0.15281106145577308,121.79701585362565,0.07519463643237842,27.67776132107023,0.40804537347150793,50.0,0,0,0,0
0.14,0.0,0,0,0,0,0,0,0,0,0.10835099693638103,0.0,0.08659934910429141,0.7847123528998051,0.0,0.6261248970897206,0.0001985889188385329,0.0003255728911343137,0.30098784957333125,-0.020846791922545304,0.00028418324286239027,0.004259684362639295,0.18148246734332504,0.12949986078847175,0.039299267016048495,0.15939928642748458,-0.13248752629376456,0.02808781914560826,-0.1787714088426994,0.12467394275403897,0.01630363797585227,-0.18546313202825296,-0.1337076079625412,0.03272559470900829,0.019319746944968595,0.004656659150554639,-0.1894394270068273,-0.34464400641306836,-0.3030379827371048,0.06404412741452657,0.08903124999141243,0.004656659150554639,0.1894394270068273,0.34464400641306836,0.3030379827371048,0.022555221689764843,0.1162431308317319,0.0,3,0.3,0,4,0.11155077082034286,44.612461713983485,0.044373874141221605,0.0,0.6003779741291634,0.0,0,0,0,0
0.15,0.0,0,1,1,0,0,0,1,0,0.11619705108478236,0.0,0.09285717928116781,0.7846054148401324,0.0,0.6257830176876394,0.00034677685490269917,0.0002547135241737511,0.2989719513111604,-0.018065240829730562,0.0006055661125086154,0.005119786336178546,0.1782287823558386,0.13051118639045928,0.04955938971796692,0.15154085001786854,-0.129406754211179,0.01650255015625876,-0.17887171604716937,0.1246596892387427,0.01631647007813436,-0.18533512143419462,-0.1374032911117568,0.043038608435741504,0.012691871946087839,-0.010112567671314392,-0.21571737275342878,0.7674705653967742,0.2648970985128601,0.050062819280561256,0.10350517913869452,0.010112567671314392,0.21571737275342878,0.7674705653967742,0.2648970985128601,0.04279436000060655,0.15641210681061546,20.0,3,0.3,0,4,0.1229132372134383,51.254800672758094,0.060988977574173375,49.942596792259664,0.13344719066554167,20.0,0.0,0.0,0.13999999999999999,0.0
0.16,0.0,0,1,1,0,0,1,1,0,0.12404195841520015,0.0,0.09911134361560314,0.7844907330417789,0.0,0.6254164334435333,0.0006159421051942737,8.203538617148357e-05,0.29669459087705313,-0.009682089906628694,0.0029524124821198594,0.00566937927970684,0.17434843601817476,0.13258950285785298,0.057142409222448176,0.15140409722985698,-0.12941296925532542,0.01652042619952257,-0.17895483488868721,0.12463967543420136,0.01632881163638389,-0.1862771259119077,-0.13948041092391794,0.051586794604040226,0.04082839853500674,-0.015138627975738755,-0.21444056299368067,0.630251202408776,0.06277429434692619,0.11640585398614448,0.08321355988019341,0.015138627975738755,0.21444056299368067,0.630251202408776,0.06277429434692619,0.017294510370541333,0.1156466982264735,10.0,3,0.3,0,4,0.14422209884796272,79.40654815847168,0.08729776504088083,53.38706176694112,0.19211227187637953,10.0,0.0,0.15,0.0,0.0
0.17,0.0,0,1,1,0,0,1,1,0,0.13188564150156615,0.0,0.10536159520389834,0.7843683086366001,0.0,0.6250251588295203,0.000993489609362154,-4.259784911592766e-05,0.29477101911265113,-0.004788510213966166,0.003514987028695682,0.007166633332500734,0.17361991606167926,0.1331447434842501,0.06860262609658122,0.1513264184295131,-0.1294072434161699,0.016534153460092155,-0.17903715326118874,0.12461469967451724,0.01634105015307813,-0.18662227075761628,-0.13956051448458145,0.06209960446767078,0.03516671349776198,-0.010508269955842333,-0.17421851816641776,0.3686259438582209,0.07942591399555371,0.132529529692113,0.09671892800380416,0.010508269955842333,0.17421851816641776,0.3686259438582209,0.07942591399555371,0.027167934488214668,0.13439513244786117,0.0,3,0.3,0,4,0.1507513544313461,120.74243189687495,0.114910674683399,110.70143032920848,0.2171147545256073,0.0,0,0,0,0
0.18,0.0,0,1,1,0,0,1,1,0,0.1397280229298949,0.0,0.11160768729682284,0.7842381428328743,0.0,0.6246092092924496,0.0013377264195731703,-0.000149517993025194,0.2932232832165078,-0.0013917100657285133,0.004369273739296409,0.008440246780849252,0.17469942111796813,0.1341918954199157,0.08150473556845567,0.15126752653529502,-0.12940206706872795,0.016546696764327518,-0.1790949038659948,0.12459239489598876,0.016352677724497444,-0.18634361619501558,-0.14097363347530417,0.07300956857970016,0.03500426898409445,-0.008537618855090754,-0.13394061272589283,0.36428435643879215,0.08868023395532647,0.1428774633942866,0.10472375394580044,0.008537618855090754,0.13394061272589283,0.36428435643879215,0.08868023395532647,0.03126977609746377,0.14453114889835497,0.0,3,0.3,0,4,0.13148165706726375,88.20181405779975,0.09619516486928172,67.41931354250796,0.023778421616898526,0.0,0,0,0,0
0.19,0.0,0,1,1,0,0,1,1,0,0.1475690252990478,0.0,0.11784937330935583,0.7841002369152916,0.0,0.6241686012532984,0.0016839100591859461,-0.00022179721507796748,0.29208681848609896,0.001735161635636516,0.005381802595069818,0.009783157940465371,0.17726700206249235,0.13529680268005012,0.093726203086341,0.15123273253181896,-0.12939439808139935,0.016558338129189276,-0.1791253778588733,0.1245716727990247,0.016363771043018033,-0.18531313276794287,-0.14174992962933602,0.0826270950096379,0.03661162455562927,-0.008046606065147292,-0.09404789834180607,0.19444943140005633,0.11211256581891556,0.12706569674956505,0.11095740074341853,0.008046606065147292,0.09404789834180607,0.19444943140005633,0.11211256581891556,0.009216323440209229,0.12822033024877505,0.0,3,0.3,0,4,0.13400662115530784,83.59181299718868,0.09331124053780986,93.05805838256228,0.09633100810517142,0.0,0,0,0,0
0.2,0.0,0,1,1,0,0,1,1,0,0.15540857122149707,0.0,0.124086406830421,0.7839545922449259,0.0,0.623703352106518,0.0020886226718312578,-0.00028198587425352207,0.2913652957991957,0.003935647738289728,0.006120909756036408,0.011085399216574716,0.18037927925484404,0.13682330149557118,0.10217382977022825,0.15123356345070513,-0.12938588007501203,0.016569235021074574,-0.17913095071607996,0.12455163394574195,0.01637464675122327,-0.18323021241788515,-0.14206105846335224,0.08964620856699834,0.04575988903502331,-0.006946985293473027,-0.048476564601971285,0.151343284842691,0.0310747407160668,0.1292291146089212,0.10964868218647375,0.006946985293473027,0.048476564601971285,0.151343284842691,0.0310747407160668,0.005142707778500191,0.12173837525844697,0.0,3,0.3,0,4,0.12571370386964242,89.89515213970533,0.08906099719114516,59.71644773498947,0.1406316484502669,0.0,0,0,0,0
0.21,0.0,0,1,1,0,0,1,1,0,0.16324658332408937,0.0,0.1303185416326145,0.7838012102592301,0.0,0.6232134802193492,0.002600424935917736,-0.0003543594568036613,0.2910736385628821,0.005048206132990126,0.006114894218027134,0.012306988106585039,0.1836329142159583,0.1381875946206233,0.10503469048813402,0.15127362483207696,-0.12937890281430936,0.01657975719131291,-0.17911357923957263,0.12453160551664552,0.016385477636320034,-0.18103157869394293,-0.14194504075685282,0.09228579587352911,0.05685971637547976,-0.00752137096071574,-0.011213626369395999,0.12609823907667417,-0.04839544601567967,0.1216815388241332,0.1063868669486096,0.00752137096071574,0.011213626369395999,0.12609823907667417,0.04839544601567967,0.0086370028084813,0.12254524071780665,0.0,3,0.3,0,4,0.12216808890757372,89.79321489301667,0.08683514407109225,83.81495913671138,0.057679541372921674,0.0,0,0,0,0
0.22,0.0,0,1,1,0,0,1,1,0,0.17108298424880955,0.0,0.1365455316819254,0.7836400924720183,0.0,0.6226990049310904,0.003220077775526378,-0.00042777650426702066,0.2911585667400079,0.005319127430822392,0.0052680283975894415,0.013584175412917756,0.18754765090435876,0.14002151079555034,0.10274532669935955,0.1513546357104516,-0.12937135230860783,0.016590417971470095,-0.1790779389753294,0.12451011289166186,0.01639633951451175,-0.1779186874893839,-0.1418188816211664,0.09105832484188092,0.0670409789396966,-0.010066765089403157,0.030731414210963263,-0.12705795669599707,-0.12217289798254947,0.12710241886257956,0.10404200530911295,0.010066765089403157,0.030731414210963263,0.12705795669599707,0.12217289798254947,0.009443112819345845,0.12355188321786195,0.0,3,0.3,0,4,0.1187975829504909,104.09048112159648,0.08149939175762769,57.28774633155505,0.08785385318544156,0.0,0,0,0,0
0.23,0.0,0,1,1,0,0,1,1,0,0.17891769665354415,0.0,0.1427671311474489,0.7834712404734601,0.0,0.6221599465523503,0.003940578737391475,-0.0005244330647751519,0.29164346366325106,0.004597859687145659,0.003661804588266815,0.014767432434874677,0.1914475545712086,0.14161210285018114,0.09527401334752693,0.15146909450654983,-0.12936548054387323,0.016601564086123455,-0.17901889906786503,0.12448900697929516,0.016407278339474557,-0.17305728086449298,-0.1412123488825276,0.08767012900669713,0.07473505801610036,-0.009300840025280383,0.06690046958069756,0.025595519402227884,-0.1828535465883939,0.11699581724828817,0.10418263863744379,0.009300840025280383,0.06690046958069756,0.025595519402227884,0.1828535465883939,0.025771313899160736,0.1392547925618849,0.0,3,0.3,0,4,0.1359025206980934,118.87386817800723,0.08631953748920347,87.60065332136156,0.15132264732179096,0.0,0,0,0,0
0.24,0.0,0,1,1,0,0,1,1,0,0.18675064321284485,0.0,0.1489830944110912,0.7832946559300696,0.0,0.6215963263642293,0.004745391356164789,-0.0006186152376234621,0.2925343413504343,0.004409302680731255,0.001451564453526455,0.016050632988869117,0.19662094962160664,0.14319372746534487,0.08386965832722533,0.15162363417304633,-0.1293580945023041,0.016613720279214567,-0.1789360327910308,0.12446580517176731,0.016418376061594797,-0.16757788943093135,-0.13963403139542427,0.08112026081240112,0.08932537352212686,-0.011446761500524214,0.11298284333223155,-0.13791632202115223,-0.2969384256517599,0.13419348476795542,0.09742526969071799,0.011446761500524214,0.11298284333223155,0.13791632202115223,0.2969384256517599,0.014789609643135776,0.12366164083437799,0.0,3,0.3,0,4,0.12793813157160275,145.17411659996608,0.09348242973619662,60.035357367968594,0.22604314088933253,0.0,0,0,0,0
0.25,0.0,0,1,1,0,0,1,1,0,0.19458174661869126,0.0,0.15519317607726604,0.7831103405846418,0.0,0.6210081666174844,0.005732006154527303,-0.0007155281725263196,0.2937335753209811,0.0029802305535638132,-0.0021757951329444136,0.017366081889991128,0.20114306666089193,0.14447987599632925,0.07190046635408154,0.15181852699166534,-0.12934958469437446,0.016627367087128447,-0.17884288160796383,0.12444255922608867,0.0164295792841104,-0.1628124588014374,-0.1374169219325897,0.07230906542199034,0.1055177398773581,-0.00943208091908275,0.12281441311607225,-0.05140221352572961,-0.3907803149416134,0.14191216227318143,0.08906400674133316,0.00943208091908275,0.12281441311607225,0.05140221352572961,0.3907803149416134,0.013281013804084613,0.11177710146450053,0.0,3,0.3,0,4,0.12111827079038866,112.43166079311766,0.08492851747491673,86.80722198052732,0.09988890594915523,0.0,0,0,0,0
0.26,0.0,0,1,1,0,0,1,1,0,0.2024109295812544,0.0,0.16139713098258265,0.782918296256313,0.0,0.6203954905316611,0.006859492870578897,-0.0007900897792537722,0.295053954193749,0.0023508140432083532,-0.006438487739621523,0.018725413803838006,0.2049852639624139,0.14540798026538457,0.06080742490404775,0.15203564647869344,-0.12934012026881034,0.01664193506820899,-0.17873746477984484,0.12442077889407033,0.016440883587360205,-0.15909015258617534,-0.13578425963865018,0.06075964765201654,0.12156119315156187,-0.00974141769745163,0.13678558932049936,-0.08574189655569732,-0.4648285186181385,0.11927830799628292,0.08084973642969252,0.00974141769745163,0.13678558932049936,0.08574189655569732,0.4648285186181385,0.04211882298629974,0.1327099771134439,0.0,3,0.3,0,4,0.11779732050933886,112.80599053261406,0.08098262894502932,55.292076889783274,0.03697120790123487,0.0,0,0,0,0
0.27,0.0,0,0,0,0,0,1,1,0,0.21023811482965918,0.0,0.16759471420552421,0.7827185248404783,0.0,0.6197583222941561,0.008147052641457741,-0.0008617363317145273,0.2964385638832472,0.0032164155446269675,-0.01079253486692111,0.02000394084180327,0.2083307958455777,0.14616626974021868,0.05191991330617511,0.1524254082354904,-0.12916397346194217,0.016985003472181126,-0.17861022999560494,0.12439949944177019,0.016452406173097178,-0.1558006418792514,-0.13447985450429104,0.047350768518396466,0.13639141781524006,-0.009732889066510441,0.13923403636416132,0.24832615056194282,-0.3895538547163095,0.14198530828097974,0.07384669701441912,0.009732889066510441,0.13923403636416132,0.24832615056194282,0.3895538547163095,0.02560940592454447,0.10918899200547404,10.0,3,0.3,0,4,0.11909150000901,98.75798770541283,0.07098368845291328,80.85637721548406,0.11096934857315333,10.0,0,0,0,0
0.28,0.0,0,0,0,0,0,0,1,0,0.21806322511274712,0.0,0.17378568107611705,0.7825110283087938,0.0,0.619096687059284,0.009715549928941936,-0.0009977306728280674,0.2974285297095673,0.006111123177406623,-0.015333638735724353,0.021107121540436362,0.204090944238837,0.14610034235631775,0.04217445009241762,0.15729987645541493,-0.12600780270477538,0.023274822893342317,-0.17851880626571434,0.12437597456413792,0.016522606750813934,-0.15919063142837434,-0.13252824155211415,0.029147584989650782,0.17457493070317928,-0.022544460960713802,0.05103800337958142,0.4168506566868592,-0.4958323289056296,0.0973103230580308,0.043488294409567835,0.022544460960713802,0.05103800337958142,0.4168506566868592,0.4958323289056296,0.07647535801808625,0.14250811338836789,45.0,3,0.3,0,4,0.13442691424152514,110.33166857299837,0.07200189730487053,16.5538416731214,0.19294217214224152,45.0,0,0,0,0
0.29,0.0,0,0,0,0,0,0,0,0,0.2258861831998389,0.0,0.17996978718558976,0.7822958087091797,0.0,0.6184106109472703,0.011455783442333469,-0.0011825566086522833,0.2973888610816596,0.011626107084214625,-0.020438056940954352,0.021993171152917067,0.19599848834222372,0.14522974254990198,0.03152078631253705,0.1661153561691476,-0.12349098593440568,0.03285430620371663,-0.17901241467298512,0.12467348564650499,0.017893133031833264,-0.16232388236213335,-0.13015937177630343,0.01747289170744412,0.17087329958303835,-0.02153932076049032,-0.06934011741850672,0.7156926288867143,-0.538654718097731,0.09209078352361177,0.05501288361680057,0.02153932076049032,0.06934011741850672,0.7156926288867143,0.538654718097731,0.08787900366197798,0.16443120803926886,15.0,3,0.3,0,4,0.156973118418763,31.59898661460113,0.036200234358651294,40.9867238678895,0.36907164331357056,15.0,0,0,0,0
0.3,0.0,1,0,0,1,0,0,0,1,0.23370691188149645,0.0,0.186146788396022,0.7820728681657535,0.0,0.6177001210432242,0.013101996738599062,-0.0013066642275121685,0.29674091568932026,0.011363446149410414,-0.022117918622880817,0.022956167497206633,0.18838756982509092,0.1437765290821732,0.018183464377753866,0.1718903966825062,-0.12330838608143273,0.03936081770402655,-0.1775728128579949,0.1247481607502391,0.019540290171212005,-0.1622470501032884,-0.13018209326853225,0.01748325235995077,0.1624887382924682,-0.0069922554396300955,-0.04184831266430473,-0.2632012242504165,0.1926527154131747,0.14136912335614807,0.07121817358902824,0.0069922554396300955,0.04184831266430473,0.2632012242504165,0.1926527154131747,0.04477766503987393,0.12298809406853227,25.0,3,0.3,0,4,0.16439405288225475,118.56373217958621,0.09162638492793118,46.25456717979184,0.09189736931846798,25.0,0.0,0.0,0.0,0.16
0.31,0.0,1,0,0,1,1,0,0,1,0.241525333970285,0.0,0.19231644084998276,0.7818422088788551,0.0,0.6169652453960756,0.014807694849607433,-0.001273273812806886,0.2960774566022679,0.010712414949174768,-0.02092204819863297,0.02473596078292455,0.18800484588722496,0.14346362647506342,0.0168630901166463,0.17384376320989656,-0.12391010272032989,0.0428097351657771,-0.17781039782238853,0.123555255196101,0.023597302211619264,-0.1621583782730296,-0.13020470438940296,0.017493474073470766,0.16712456479355264,-0.0022818251073345583,-0.08485646580524975,0.10850976684869104,0.022401159627071784,0.1667196821175399,0.07440076917673236,0.0022818251073345583,0.08485646580524975,0.10850976684869104,0.022401159627071784,0.025596758732442854,0.10227935301650977,20.0,3,0.3,0,4,0.08422778166441397,81.13967297200598,0.07482114677824056,63.726348975599876,0.3489659825907574,20.0,0.17,0.0,0.0,0.0
0.32,0.0,1,0,0,1,1,0,0,1,0.249341372301535,0.0,0.1984785009801572,0.7816038331249997,0.0,0.6162060130174452,0.016535350849810254,-0.001222077883712912,0.2950378891328573,0.011865951764597552,-0.020602866865574443,0.026520860040575796,0.18802720035626452,0.14348382840810364,0.016874989535350077,0.17920898889668832,-0.12448976132369077,0.05238497360110525,-0.1748998816097398,0.12215902474493442,0.035363459433928573,-0.1620966230556206,-0.13022956534062746,0.017504437829997305,0.17793620595568033,0.0012791111806258948,-0.1274009881246547,0.05364106987950107,0.02092696836227386,0.2054960392356891,0.07140516634585467,0.0012791111806258948,0.1274009881246547,0.05364106987950107,0.02092696836227386,0.007017538255531891,0.07970181578201245,0.0,3,0.3,0,4,0.09256572518850878,99.37183439911657,0.08505117798237852,41.649751101603975,0.38406350630413577,0.0,0,0,0,0
0.33,0.0,1,0,0,1,1,0,0,1,0.2571549497341036,0.0,0.2046327255189626,0.781357743256858,0.0,0.6154224538805403,0.018391175340597584,-0.0011557988797994466,0.2937543240890017,0.011451410012655844,-0.020819429354099972,0.028609216076765764,0.1880477401099102,0.143505792582804,0.016887207787009,0.18541329693935657,-0.12541831200720208,0.06456247441757976,-0.17173172190408334,0.12182684206516121,0.04795788429135861,-0.1620338716532708,-0.13025824389063212,0.017516285745246135,0.18366263483137632,-0.00010629732865625346,-0.127391216358339,-0.036297460545947915,-0.006523353669019367,0.19950024002254624,0.07349231490272726,0.00010629732865625346,0.127391216358339,0.036297460545947915,0.006523353669019367,0.005132485496416372,0.07873109772779989,0.0,3,0.3,0,4,0.07926981395156417,59.544434711290556,0.06652030371684052,75.59894058286856,0.1004463049137374,0.0,0,0,0,0
0.34,0.0,1,0,0,1,1,0,0,1,0.2649659891511359,0.0,0.21077887150815186,0.7811039417032317,0.0,0.614614598918925,0.02025399052642504,-0.0010823444134237994,0.2925975398360138,0.011631812465038978,-0.02032404202805438,0.0307151185475106,0.18807125926034135,0.14352926640861072,0.016899429748584188,0.19096540052819388,-0.12677985369817749,0.0758809522797757,-0.16797473573366423,0.12151649714338605,0.058878075384555056,-0.16195011607933033,-0.1302864042287449,0.017527522008024626,0.18553507053910462,0.00048792910774096893,-0.10903471504366485,-0.019695152181232835,0.10109381013193909,0.22078221376683507,0.07943091861203128,0.00048792910774096893,0.10903471504366485,0.019695152181232835,0.10109381013193909,0.010003342258683212,0.08992218997845546,0.0,3,0.3,0,4,0.08436591015981895,63.25044982810415,0.07396396507463057,54.44812006859236,0.044818701113385595,0.0,0,0,0,0
0.35000000000000003,0.0,1,0,0,1,1,0,0,1,0.2727744134608264,0.0,0.21691669630840524,0.7808424309690531,0.0,0.6137824800253378,0.02211301869054245,-0.001000546973312827,0.29179626351017324,0.011304236551254702,-0.01857377945634009,0.03285568497174887,0.18810512430203216,0.14355372677798553,0.01691138666106115,0.194769568293142,-0.12742260159604205,0.08455971510267155,-0.16381968344113385,0.12151297435309265,0.06661042684161178,-0.16182593061778233,-0.13031085333433678,0.017537904583536823,0.18269618591961376,0.0017006875875094976,-0.057547271178301204,-0.019966054461103683,0.2504224594671093,0.21349097926577196,0.09007822754121267,0.0017006875875094976,0.057547271178301204,0.019966054461103683,0.2504224594671093,0.0034257170426332806,0.09520463217135544,0.0,3,0.3,0,4,0.09287730437983029,80.47000534208931,0.07876317611849629,95.58852159780194,0.1298799341172427,0.0,0,0,0,0
0.36,0.0,1,0,0,1,1,0,0,1,0.2805801455971796,0.0,0.2230459576089092,0.7805732136353161,0.0,0.6129261300503952,0.023967085353351278,-0.0009064744184940654,0.2914255583135613,0.010908322999086645,-0.0158735564823842,0.03511481911560775,0.1881543404257578,0.1435816681995557,0.01692295031753857,0.19752127017338372,-0.127990223244739,0.09034180878258197,-0.1589774615441859,0.12143110470644859,0.07281600658695742,-0.16166724628882803,-0.1303335963370928,0.017548030031304257,0.18626985374200805,0.004295881063345789,-0.02137913876468458,-0.028917673409629637,0.30389479651265383,0.22859492842374787,0.09431029185517154,0.004295881063345789,0.02137913876468458,0.028917673409629637,0.30389479651265383,0.005548970814838683,0.104155143733356,0.0,3,0.3,0,4,0.09930336018991084,90.30671109893412,0.08214743549462741,61.44028353974996,0.04074334874502594,0.0,0,0,0,0
0.37,0.0,1,0,0,1,1,0,0,1,0.2883831085207705,0.0,0.22916641343692262,0.7802962923590895,0.0,0.6120455828013432,0.025842548102976308,-0.0007973314093645672,0.29148445249391763,0.010279480131233996,-0.012750552731347842,0.037403165222150536,0.18822917571160153,0.1436110524677233,0.01693410710715923,0.19970981097244747,-0.1280159660190376,0.09152480647870731,-0.15379381446892548,0.12157226595416572,0.07546546858988772,-0.16147656657289985,-0.13035353192176374,0.017558380677273416,0.1913057333554358,0.0028560774168095025,0.025331241068458188,-0.11871057029177443,0.28028746405963434,0.22489991749661858,0.09707737516533468,0.0028560774168095025,0.025331241068458188,0.11871057029177443,0.28028746405963434,0.004266495940304038,0.10419994852244822,0.0,3,0.3,0,4,0.10263531136293072,90.90706103728158,0.07796655867138405,91.06838219769091,0.04811816426671567,0.0,0,0,0,0
0.38,0.0,1,0,0,1,1,0,0,1,0.29618322521950524,0.0,0.23527782216732931,0.780011669873476,0.0,0.6111408730406692,0.027806529525378734,-0.0006964277271188098,0.2918983639656772,0.008276579254255942,-0.010302049387387324,0.03974998741556163,0.1883330727178252,0.14364181872256016,0.016945010893006984,0.20188816002410462,-0.1277955454784111,0.08836601402962524,-0.14860330140232744,0.12175183169651622,0.07439015588607426,-0.16126377945411474,-0.1303733207934194,0.01756940414231878,0.20533534550074886,0.00372076927798268,0.0486808135404344,-0.2519941809685414,0.21120462018485972,0.23447687894419156,0.09084787971875638,0.00372076927798268,0.0486808135404344,0.2519941809685414,0.21120462018485972,0.0008009432231377567,0.09536959221987681,0.0,3,0.3,0,4,0.09916692417193092,99.62848198792379,0.07581634370454862,51.08289985395836,0.060372920751217196,0.0,0,0,0,0
0.39,0.0,1,0,0,1,1,0,0,1,0.3039804187093811,0.0,0.24137994253217698,0.7797193489875842,0.0,0.6102120364847669,0.02992468761810802,-0.00057145842432597,0.29248662746729104,0.004742907851062011,-0.008341302558116936,0.042069520586523086,0.1884581745817801,0.14367401028154492,0.016956051899908703,0.20543753788402358,-0.1279932202173336,0.08194041136246902,-0.1428420381500658,0.12191363140759096,0.06914335818209397,-0.16103151737946192,-0.13039003993997195,0.017581191577433153,0.22077842548049686,0.005553915004449579,0.06202586505384809,-0.4154823570086005,0.18052108363524158,0.23156673512224113,0.08320199322888422,0.005553915004449579,0.06202586505384809,0.4154823570086005,0.18052108363524158,0.009813207409935853,0.09856911564326964,0.0,3,0.3,0,4,0.09961409035810975,107.00069236405068,0.07410246401281428,72.09641575462896,0.17251363211233517,0.0,0,0,0,0
0.4,0.0,1,0,0,1,1,0,0,1,0.3117746120352462,0.0,0.2474725336302022,0.7794193325865117,0.0,0.6092591098025207,0.03218312143854519,-0.00040671427763472486,0.29323221150012985,0.0008449331939295066,-0.006824319782452459,0.0446562814973228,0.188603049462677,0.14371230408905158,0.016967269612306102,0.21032102815214068,-0.12717377407622948,0.07184614900476147,-0.13531821989404738,0.1216358285479696,0.05995931449981966,-0.1607822654613628,-0.130408507054543,0.017593729207960818,0.23160132180698506,0.006543867023730147,0.08447315882109195,-0.43830339571642934,0.12139140776662562,0.27654564292958667,0.08017329022826114,0.006543867023730147,0.08447315882109195,0.43830339571642934,0.12139140776662562,0.029073109299384475,0.11579026655137577,0.0,3,0.3,0,4,0.10533074717740583,122.03861797745226,0.0872289519616316,49.916216925778215,0.28437394420223416,0.0,0,0,0,0
0.41000000000000003,0.0,1,0,0,1,1,0,0,1,0.31956572827155894,0.0,0.2535553549363405,0.7791116236312734,0.0,0.6082821306138325,0.03453175424815481,-0.0002037238434425358,0.2940978710445373,-0.0025316505235641476,-0.005614137258345364,0.047360589512646184,0.18876163535330578,0.14375401621703526,0.016978781456409076,0.21680622395662136,-0.12590324576643275,0.060659380691308634,-0.12780840786098002,0.12051246052630377,0.05003004739419137,-0.16052538280998913,-0.13042412925842506,0.01760653774684301,0.24001385623843408,0.01298747139736121,0.08410456163477188,-0.2161321122176521,0.1363791589587333,0.2670653693006814,0.07955187203312486,0.01298747139736121,0.08410456163477188,0.2161321122176521,0.1363791589587333,0.013510014364340905,0.10604935779482698,0.0,3,0.3,0,4,0.10803488567709066,82.87449694266918,0.07367548902151504,75.36953165271224,0.04268826987992258,0.0,0,0,0,0
0.42,0.0,0,0,0,0,1,0,0,1,0.32735369052314756,0.0,0.2596281663112222,0.778796225158862,0.0,0.6072811374881693,0.03696803594800126,5.887995482112275e-05,0.2949950115226694,-0.005462362147608897,-0.0037614099643055177,0.050093301813252146,0.18902987966510956,0.1436450673337271,0.01743875369424394,0.2237045781747644,-0.12582090337763102,0.05045264751218864,-0.12192885005015996,0.11960427857317175,0.03987412154505221,-0.16025188288891518,-0.13043542333290767,0.0176198931904423,0.255083265904967,0.015860138435053652,0.0901384204475224,-0.3744118781569825,0.19008069316236248,0.27457710506618,0.07227042461818056,0.015860138435053652,0.0901384204475224,0.3744118781569825,0.19008069316236248,0.014948938754957786,0.103079501808192,10.0,3,0.3,0,4,0.1095379948598939,104.86283446652824,0.09288863243123723,58.23987520417744,0.07044266047261061,10.0,0,0,0,0
0.43,0.0,0,0,0,0,0,0,0,1,0.33513842192596877,0.0,0.2656907280106526,0.778473140282121,0.0,0.6062561699430369,0.0398266197269221,0.00046601315206186466,0.29529346030383197,-0.00698395079732234,-0.003737552347940376,0.05292189798391276,0.19152008323759392,0.14096816299627246,0.025888962370667568,0.22380577411380925,-0.12657212026559012,0.04019289681652108,-0.12473986890876143,0.11827710087904278,0.0251552031116751,-0.16043950670546758,-0.13093975604524183,0.019108061308076546,0.3115845988111869,0.025723274567392193,-0.03745249141373009,-0.1806789854123581,-0.32082998291889603,0.3029503177956722,0.02355382311478188,0.025723274567392193,0.03745249141373009,0.1806789854123581,0.32082998291889603,0.03725958978501964,0.08653668746719372,40.0,3,0.3,0,4,0.08783122104295212,124.73956255931634,0.0772125176591358,14.472882252629631,0.3656883431252421,40.0,0,0,0,0
0.44,0.0,0,0,0,0,0,0,0,0,0.3429198456478665,0.0,0.2717428006950765,0.7781423721897718,0.0,0.6052072684423926,0.04294670131127755,0.0008624855202411854,0.2944054501228797,-0.009241759662331255,-0.008119693296529062,0.05554228369015753,0.1948398453992471,0.1388512060593408,0.036584050310524835,0.2179733959303751,-0.1240235772579044,0.02610774043537631,-0.12766879654959176,0.11824891814936901,0.016523717933351223,-0.1589823835306949,-0.13540391220537895,0.025655375729620872,0.313751221762634,0.019818627352023034,-0.13339657334041138,0.05679510627080855,-0.38420905280884254,0.2314519244382719,0.029168623885232503,0.019818627352023034,0.13339657334041138,0.05679510627080855,0.38420905280884254,0.04029087625680461,0.08927812749406014,5.0,3,0.3,0,4,0.079950712444214,60.658562946718654,0.057788122741275746,19.744244789300865,0.5792808840721866,5.0,0,0,0,0
0.45,0.0,0,1,1,0,0,0,1,0,0.3506978848893299,0.0,0.2777841454390272,0.7778039241463419,0.0,0.6041344743950683,0.04602168708960263,0.0010979836229507791,0.29291775538180786,-0.004951851528860296,-0.008735797879791063,0.05799996612355775,0.1977493022812301,0.14009586463461274,0.047382902177999786,0.21308480110127895,-0.12090954169713132,0.01589097659661204,-0.12756203419687417,0.11822698835322647,0.016540111398525847,-0.15455485426630608,-0.14161108227738753,0.03493312878319535,0.29999039633200575,-0.005416497420412701,-0.17124950515399295,0.7903142568299142,0.31064115095587397,0.21486612167208444,0.050707488557324154,0.005416497420412701,0.17124950515399295,0.7903142568299142,0.31064115095587397,0.06291802376694275,0.1190420097446796,25.0,3,0.3,0,4,0.0818309313708137,64.81506267856973,0.06595774932383354,35.61128019761419,0.47574720597352915,25.0,0.0,0.0,0.16,0.0
0.46,0.0,0,1,1,0,0,1,1,0,0.35847246288425194,0.0,0.28381452374055854,0.7774577994922038,0.0,0.6030378301531358,0.0490893932200984,0.0011660800026098161,0.29128741027821203,-0.0009565003514759661,-0.00617779552666442,0.060453004442919234,0.19968561355756925,0.14245144162251247,0.055574116259429734,0.21321979029976865,-0.12088328803304228,0.01591340016452608,-0.12743779745857528,0.11819384152869777,0.016556068585939776,-0.14831432248847712,-0.14430002975526698,0.04578335424914845,0.3106392810176845,-0.01052856358229285,-0.1526624451332038,0.3491720456775501,0.1540758604526158,0.2979242608004854,0.04783318186656743,0.01052856358229285,0.1526624451332038,0.3491720456775501,0.1540758604526158,0.014109737059926852,0.07247148250878713,10.0,3,0.3,0,4,0.0929860883964831,88.70483713156705,0.08787734207758502,85.97680550066299,0.13701025875755157,10.0,0.0,0.18000000000000002,0.0,0.0
0.47000000000000003,0.0,0,1,1,0,0,1,1,0,0.3662435029006865,0.0,0.28983369753066096,0.7771040016434583,0.0,0.6019173790102417,0.052164885950175904,0.0012492184578688896,0.28997066272080996,0.00167653728876866,-0.004414051828885324,0.06355700939489085,0.20428977122358968,0.14370506466927238,0.0668262681247965,0.21338779097077198,-0.12085039502699284,0.015934717570192353,-0.1272994988723633,0.11815668079953616,0.01657150018283754,-0.1419494484163962,-0.1465836851838434,0.05848677094459054,0.30547563637113945,-0.01028601404000987,-0.11736276040602281,0.24965799881465386,0.19287625754943324,0.2859471041275879,0.06076786652954708,0.01028601404000987,0.11736276040602281,0.24965799881465386,0.19287625754943324,0.0038865934030730687,0.07494047397263001,0.0,3,0.3,0,4,0.09091652904049123,113.25813575521408,0.10863083808508193,69.09164870774639,0.10685768443175947,0.0,0,0,0,0
0.48,0.0,0,1,1,0,0,1,1,0,0.3740109282416059,0.0,0.29584142918265965,0.7767425340919398,0.0,0.6007731651998693,0.05526925004003627,0.0013668330128774274,0.28896146484174173,0.004696851313581795,-0.0027326254152542084,0.0664378127713979,0.2100849757519208,0.14468966056694524,0.07988765027087236,0.21358021621178544,-0.12081512765859008,0.015955550312231448,-0.12713617551922854,0.11812355364283353,0.016586703987501117,-0.13562230540426246,-0.14781671751524278,0.07077525707394876,0.313820812386569,-0.008247174458114065,-0.08368540572989847,0.27020118776480123,0.1680798853191708,0.31478335418706804,0.06019011585503692,0.008247174458114065,0.08368540572989847,0.27020118776480123,0.1680798853191708,0.01894192500440839,0.08737921531755938,0.0,3,0.3,0,4,0.08204870754838486,105.00640551345896,0.09650462329769446,92.88562332388243,0.06917073902214721,0.0,0,0,0,0
0.49,0.0,0,1,1,0,0,1,1,0,0.3817746622456579,0.0,0.3018374815215959,0.7763734004052003,0.0,0.5996052338936242,0.05841519655878769,0.0015063323118870002,0.2883486000768376,0.006842323153383006,-0.0009631570640171727,0.069579096937751,0.2169696055448753,0.14671306485967528,0.09077065494063526,0.2138028912055272,-0.12077628716411205,0.015975995157009593,-0.12694540021342693,0.11809096570255154,0.016601798900022113,-0.1292607940244719,-0.14875989828310968,0.08016764567956404,0.31661734044128076,-0.007384211762507629,-0.03984970640367564,0.20069989614883194,0.1673612900035365,0.2960119562028723,0.06515732180437717,0.007384211762507629,0.03984970640367564,0.20069989614883194,0.1673612900035365,0.005825525318723601,0.0783670588856084,0.0,3,0.3,0,4,0.08553423622608733,96.24220108220352,0.09516555320367735,62.33848913428862,0.1543923486629507,0.0,0,0,0,0
0.5,0.0,0,1,1,0,0,1,1,0,0.3895346282879222,0.0,0.3078216178335902,0.7759966042264255,0.0,0.5984136311994293,0.06164975900512911,0.0016632688208045145,0.2881694157960562,0.008361707731540194,1.6958210967477072e-05,0.07260463307182907,0.22419507073935527,0.14853174141586192,0.09800965557041563,0.21406718695334787,-0.12073528004213634,0.01599658261266565,-0.12673144601196282,0.11806065348186716,0.01661719393644634,-0.12190108782974227,-0.1491863202354309,0.0870640516656563,0.33087966056851015,-0.006418136630601275,0.0040666422595492975,0.13307861006633884,0.058678418715205065,0.31244190736129657,0.05865496771941203,0.006418136630601275,0.0040666422595492975,0.13307861006633884,0.058678418715205065,0.004620289527706378,0.06969339387771968,0.0,3,0.3,0,4,0.07470435979888101,114.86597323265744,0.09254891848982327,89.47996740119862,0.03628457968042864,0.0,0,0,0,0
0.51,0.0,0,1,1,0,0,1,1,0,0.3972907497806668,0.0,0.3137936018751874,0.7756121492744628,0.0,0.5971984041597211,0.06502043624917898,0.0018612999085284342,0.2883942918104592,0.009786792667571343,0.0003144895015338989,0.07551706415138137,0.23249264215804624,0.15077079979802988,0.10277102692644917,0.2143657707003343,-0.12069251625107368,0.01601787456382786,-0.1264895240212394,0.11803660357035765,0.016633123779935755,-0.11307290134147019,-0.14895084688133806,0.09084306397056124,0.34372685249260376,-0.0042708849397666716,0.042213989113340754,0.09420863992651206,0.011801248709998395,0.2754712822435448,0.053563897288063045,0.0042708849397666716,0.042213989113340754,0.09420863992651206,0.011801248709998395,0.03832231963164262,0.09615710185947234,0.0,3,0.3,0,4,0.08421829346068031,128.78070206748183,0.09706561587138009,59.12072562580629,0.0634615230237906,0.0,0,0,0,0
0.52,0.0,0,1,1,0,0,1,1,0,0.4050429501741038,0.0,0.31975319788268336,0.7752200393436992,0.0,0.595959600749596,0.06852350165547283,0.002075893212119136,0.2890147780829749,0.009756911145045228,4.368879941285542e-05,0.07852128537012765,0.2416329679940002,0.15340441555816442,0.10297650036885532,0.21470597562633642,-0.12064599118388374,0.01604052145289117,-0.12622555341694738,0.1180109991041253,0.016649714206625393,-0.10260101777323888,-0.14764630577760257,0.09117486904483207,0.35777588121284726,-0.0058268783709302194,0.084843078761132,-0.048961350978078765,-0.06920897672794712,0.31597958563933615,0.04726706896125654,0.0058268783709302194,0.084843078761132,0.048961350978078765,0.06920897672794712,0.003773612243347213,0.05686755957553397,0.0,3,0.3,0,4,0.06737071491411573,124.64505748051849,0.08436598300950263,84.33601854123474,0.161797030482013,0.0,0,0,0,0
0.53,0.0,0,1,1,0,0,1,1,0,0.4127911529571451,0.0,0.325700170581432,0.774820278304128,0.0,0.5946972698748665,0.07215060532043666,0.0023036575354973983,0.290043665467461,0.010407943780200003,-0.001266131459431774,0.08148089089901758,0.2514299297583261,0.1563881113681681,0.09631895138672507,0.21507948910773766,-0.12059894333910133,0.01606485686522585,-0.12593722038996455,0.11798879681194209,0.016666838905510517,-0.09111473390028518,-0.14639388777471313,0.08713513268956036,0.3679384036505487,-0.0062418229269421,0.12147122669667738,0.05642722243870211,-0.16486066278352585,0.29425991543632873,0.044852749306596384,0.0062418229269421,0.12147122669667738,0.05642722243870211,0.16486066278352585,0.03144025514510329,0.08253482737864178,0.0,3,0.3,0,4,0.07877815751172063,141.8389174486623,0.08970675461047066,55.90412203559604,0.30090652948704744,0.0,0,0,0,0
0.54,0.0,0,1,1,0,0,1,1,0,0.4205352816581571,0.0,0.3316342851951342,0.7744128701012043,0.0,0.593411461370219,0.07586839889801864,0.002516021158326919,0.2914533835946059,0.009672544428798384,-0.0033485729151059296,0.08462857619913519,0.2626457216616971,0.16013337331894487,0.08499636915098253,0.21549167367717237,-0.1205495111699447,0.016091468984225754,-0.12563472132803916,0.11796251227689145,0.016684599857093113,-0.07994538861306502,-0.14399166535023253,0.08003493038491953,0.38151855868197293,-0.008974196113516188,0.15536328110244,-0.18344004255678162,-0.282748722247076,0.3232348515311695,0.03901672297618419,0.008974196113516188,0.15536328110244,0.18344004255678162,0.282748722247076,0.008399433663964728,0.05639035275366511,0.0,3,0.3,0,4,0.06151310264363633,143.00355653926573,0.08706116043626647,89.08545796414685,0.20637004840496243,0.0,0,0,0,0
0.55,0.0,0,1,1,0,0,1,1,0,0.42827525984571624,0.0,0.3375553074551057,0.7739978187559116,0.0,0.5921022259971487,0.07978791395026974,0.0027590379577178497,0.2930486078437427,0.00888632146674648,-0.006854882437735688,0.0877037698235014,0.27307164569306874,0.16297388586553024,0.07444358997157306,0.21593418618969168,-0.12049819303456137,0.016120695760418524,-0.12532063615498618,0.11793880393403533,0.016703006185890323,-0.06908078655180006,-0.14125355854022087,0.07187059321905014,0.40253374037637935,-0.008625843333576941,0.1598519637632883,-0.029059387909504235,-0.36688895881167255,0.3217078350056931,0.025741519469336893,0.008625843333576941,0.1598519637632883,0.029059387909504235,0.36688895881167255,0.015847472449412592,0.05021483525232642,0.0,3,0.3,0,4,0.062377728091885395,120.78265038463985,0.08558240430420556,55.00642609515516,0.12334434432061103,0.0,0,0,0,0
0.56,0.0,0,1,1,0,0,1,1,0,0.4360110111293624,0.0,0.34346300360952614,0.7735751283646175,0.0,0.5907696154420439,0.08386331310953664,0.0030091978964659994,0.29473057074751857,0.008205651342457846,-0.010361017709370035,0.09091560165301465,0.28284763087221293,0.16589679660948242,0.06421050910716455,0.2163911855110879,-0.120446399933969,0.016151296672451215,-0.12498965336913617,0.1179144553856775,0.01672223980444343,-0.059381182431896856,-0.13917711192067647,0.05979689738783764,0.41795739763876416,-0.011066468171649448,0.16503447983560604,-0.08692825615849134,-0.3417056183804811,0.30501512489185284,0.018053613490598253,0.011066468171649448,0.16503447983560604,0.08692825615849134,0.3417056183804811,0.0384478787176733,0.067567960379921,0.0,3,0.3,0,4,0.05066115923772678,109.00169781020409,0.07800934575870597,78.05327337724125,0.097648074823796,0.0,0,0,0,0
0.5700000000000001,0.0,0,0,0,0,0,1,1,0,0.44374245916035343,0.0,0.3493571404326669,0.7731448030991017,0.0,0.5894136823140772,0.0880713432983732,0.0032565663097142237,0.29641429094999944,0.008702662244735874,-0.0130757530111274,0.09397019119366931,0.2900477624085383,0.16817756379422855,0.054750213580134446,0.21695055728939178,-0.12025504351007882,0.016338062321619273,-0.12463348121153484,0.11789267275987798,0.016742469030975066,-0.0492310063864522,-0.1376932598957531,0.04692364453473383,0.4256117370714721,-0.015244965829847171,0.16499330008464308,0.18505357002401124,-0.14069286667022435,0.31401874830247306,0.018130722088881335,0.015244965829847171,0.16499330008464308,0.18505357002401124,0.14069286667022435,0.03533839213019385,0.06871408004892235,10.0,3,0.3,0,4,0.06837028359236863,87.67342421443493,0.06961751695237406,52.7036808674265,0.1543045241840022,10.0,0,0,0,0
0.58,0.0,0,0,0,0,0,0,1,0,0.45146952763241865,0.0,0.3552374852340987,0.7727068472065224,0.0,0.5880344801431792,0.09249703912780971,0.0034480976400871753,0.297696005095797,0.011757433094840319,-0.015819990154166463,0.0970498208012655,0.2893169116382918,0.16782458173011125,0.042714120083478455,0.22221670806036076,-0.11666729910223661,0.02080299660757956,-0.12416635288371933,0.11803109798021914,0.01703355792127631,-0.04467950283363695,-0.1373221764433183,0.030310856626368426,0.458184485322534,-0.026840094073942562,0.068644264029385,0.3638475819490408,-0.4122330445118969,0.3056234681231274,0.00671495769011532,0.026840094073942562,0.068644264029385,0.3638475819490408,0.4122330445118969,0.0496140171109713,0.08316906887502917,40.0,3,0.3,0,4,0.07199975689663003,95.48429555414647,0.06347625994226062,15.588819955119828,0.17240934349559978,40.0,0,0,0,0
0.59,0.0,0,0,0,0,0,0,0,0,0.4591921402825117,0.0,0.3611038058678774,0.7722612650093053,0.0,0.5866320633778677,0.09706028221752336,0.0036123794185500924,0.2978189700511219,0.015142144851449855,-0.020003375832523096,0.0999453504462409,0.2836508192613732,0.16571385919652717,0.02883542342661849,0.23567334237004703,-0.11214969922557978,0.031203826053129463,-0.1213448946305751,0.11881606211198376,0.02179441593809972,-0.04300648280676103,-0.1365010176223223,0.01539258117142664,0.44965355338280033,-0.028825191543905435,-0.06020296968238292,0.36484668669953774,-0.35965693925743714,0.2892170951491386,0.009538586899711377,0.028825191543905435,0.06020296968238292,0.36484668669953774,0.35965693925743714,0.07188671071873876,0.11025048916235557,5.0,3,0.3,0,4,0.09987446354273535,57.78315712256009,0.04307104439030354,0.0,0.21486034778707452,5.0,0,0,0,0
0.6,0.0,1,0,0,1,0,0,0,1,0.46691022089156364,0.0,0.3669558707417092,0.7718080609051936,0.0,0.585206487383183,0.10155311683174657,0.003830853270636943,0.2969669659077696,0.015624861341769379,-0.022059312028571476,0.10278934456219738,0.2785417462721136,0.16428448696235712,0.016971674438292533,0.24735295040297012,-0.11086396766413228,0.039738669650457775,-0.1167167091750084,0.12032246637348623,0.027036902413663716,-0.04278896049522016,-0.13653258544100927,0.015425850318864204,0.44401854797141393,-0.02082424697476267,-0.10237349025619755,-0.37935824828894377,0.06954252787489631,0.30642047843773107,0.022891672920149708,0.02082424697476267,0.10237349025619755,0.37935824828894377,0.06954252787489631,0.06053539230397814,0.10425131219889053,20.0,3,0.3,0,4,0.1168624090390338,41.57991065581537,0.05413811304215103,80.15884762136457,0.5590496710679898,20.0,0.0,0.0,0.0,0.16
0.61,0.0,1,0,0,1,1,0,0,1,0.4746236932852346,0.0,0.3727934488260932,0.7713472393670984,0.0,0.583757808438401,0.10595812412903784,0.004165282541299403,0.2960459107853663,0.01680660676290604,-0.021607841151694673,0.10624089821043949,0.2787188910562437,0.1643324496534668,0.016994017587378313,0.25521712898129056,-0.10955394067298292,0.04449016670912073,-0.11302194332901991,0.12047902418295203,0.031324107407774415,-0.04255450352792878,-0.13656418137341253,0.015456358483523058,0.4309925219078344,-0.013645479138995081,-0.09692994201332214,0.5328662536060133,0.03632235616210798,0.3728546293754611,0.043631171377400246,0.013645479138995081,0.09692994201332214,0.5328662536060133,0.03632235616210798,6.118054936787853e-05,0.057337831065763206,10.0,3,0.3,0,4,0.06634711507235232,82.0655303310338,0.0903454783770584,59.08324451501555,0.32692210831487767,10.0,0.18000000000000002,0.0,0.0,0.0
0.62,0.0,1,0,0,1,1,0,0,1,0.4823324813346662,0.0,0.3786163096634422,0.7708788049431592,0.0,0.5822860837348953,0.11019584544607121,0.004528050652579358,0.29520405323738097,0.01994610049206624,-0.019793670484805403,0.10974220339727059,0.2788762297834508,0.16437945868283085,0.017013991994888844,0.2643353665548327,-0.10756348155511597,0.05479921274351357,-0.10684955856930636,0.11927261899932864,0.042307041420732494,-0.04229528861259402,-0.13658790764094342,0.01548457039220913,0.4194212734095583,-0.007845852026274754,-0.08779252487481365,0.14644991636259796,0.3094390847261516,0.3201175563382927,0.0629112079251079,0.007845852026274754,0.08779252487481365,0.14644991636259796,0.3094390847261516,0.05849875332514948,0.12925581327653213,0.0,3,0.3,0,4,0.1028704568914264,117.82223045331789,0.09007312685900903,96.99920698116976,0.24601094676948332,0.0,0,0,0,0
0.63,0.0,1,0,0,1,1,0,0,1,0.4900365089572325,0.0,0.38442422337718063,0.7704027622566278,0.0,0.5807913713738455,0.11439912072767267,0.004920264572688938,0.2944862258954112,0.019598918398597866,-0.016463338115707327,0.11320381727177994,0.2790238535261089,0.16442697802237866,0.017034052181737896,0.27344109295254304,-0.10640439423692633,0.06691598851173794,-0.1005145541653103,0.11866331460840139,0.053744426060463396,-0.04200068034680371,-0.13660703619880915,0.015512043858567581,0.42283122373339893,-0.009650408496316496,-0.07032391111238169,-0.1560789623132986,0.37355613442230556,0.35365053225076887,0.06720528522383357,0.009650408496316496,0.07032391111238169,0.1560789623132986,0.37355613442230556,0.030773691126411762,0.10762938484656183,0.0,3,0.3,0,4,0.11483814037157944,93.07746443077504,0.08275727101377528,57.769151397666654,0.027022356961922345,0.0,0,0,0,0
0.64,0.0,1,0,0,1,1,0,0,1,0.4977357001172911,0.0,0.3902169606808198,0.7699191160058627,0.0,0.5792737303639162,0.11864901449036572,0.005347772525884408,0.2939365933779487,0.018183237615311838,-0.0125841613519031,0.11677579137265674,0.27918359413415583,0.16447799104449434,0.017054049835286883,0.2819824916407486,-0.10620455240142551,0.07755332159425324,-0.0943838366371696,0.11786460086604775,0.06320694651025283,-0.04167969013151948,-0.13662151263328162,0.015539567162540263,0.4294595191610118,-0.0072089784578554025,-0.04927180934001563,-0.1665124291954028,0.4052032930468054,0.35414287011352125,0.0682761809562793,0.0072089784578554025,0.04927180934001563,0.1665124291954028,0.4052032930468054,0.036074090567298545,0.11155924998143324,0.0,3,0.3,0,4,0.1130538955361958,80.89436900462036,0.0707205562698387,81.03232746161224,0.08506528170700678,0.0,0,0,0,0
0.65,0.0,1,0,0,1,1,0,0,1,0.5054299788269336,0.0,0.39599429288700977,0.769427870964251,0.0,0.5777332206189978,0.12296241704661584,0.0058099128019580915,0.2936350158565707,0.016598964837650512,-0.008558927318328413,0.12050143724672734,0.279365578859602,0.16453498345154383,0.017073688038733964,0.29109229495959227,-0.10589226357040615,0.08573462905083551,-0.08718532771588205,0.11729285596853893,0.07014800099445535,-0.041332721667173083,-0.13663288604090995,0.015567440294335183,0.43799684759533003,-0.002588707097741554,-0.020846713219294915,-0.06238573174407822,0.40220151259701586,0.3696615306814518,0.0674331312316036,0.002588707097741554,0.020846713219294915,0.06238573174407822,0.40220151259701586,0.02633276220555797,0.09635460053490313,0.0,3,0.3,0,4,0.09995955685591365,99.90712908964221,0.07622720749096551,54.874314665707246,0.02299187398940017,0.0,0,0,0,0
0.66,0.0,1,0,0,1,1,0,0,1,0.5131192691467354,0.0,0.4017559919165674,0.7689290319801811,0.0,0.5761699029557643,0.12734535429851276,0.006307966520187914,0.29362737370836683,0.01459664348676625,-0.004544886916680202,0.12435000432562225,0.27957030118789705,0.16459620099814695,0.017092898632497577,0.30088409525379983,-0.10533146198918276,0.09096314579453436,-0.07837321067193137,0.11695550424027423,0.07499324789669218,-0.040956345843864095,-0.13664116196496098,0.015596026368569993,0.44567269539582044,-0.005419594620515857,0.013652234552474211,-0.3385989810556275,0.40120282239182925,0.3905783425240731,0.067446573750915,0.005419594620515857,0.013652234552474211,0.3385989810556275,0.40120282239182925,0.011177649392494327,0.0840438177639252,0.0,3,0.3,0,4,0.09156146498635291,105.2945565244108,0.07686747521714685,84.12413529648398,0.028349885957854593,0.0,0,0,0,0
0.67,0.0,1,0,0,1,1,0,0,1,0.5208034951865055,0.0,0.4075018303074806,0.7684226039770037,0.0,0.5745838390913194,0.13183373153733402,0.006835737408636306,0.29392429232321104,0.01163527872527463,-0.001009110055100404,0.12836562566798002,0.2798072616438496,0.16466336273331061,0.017111912100995025,0.31030972026128145,-0.10430279639275648,0.09212829189378019,-0.06898407733548442,0.11687854289940262,0.07692969120734854,-0.04055712668463643,-0.1366466729535696,0.01562566804303611,0.45789885340544834,-0.003211006831881048,0.043494328301152345,-0.27677025923492715,0.32842087841245254,0.39699629867217595,0.06290464178105715,0.003211006831881048,0.043494328301152345,0.27677025923492715,0.32842087841245254,0.010505531635304655,0.07662118024824285,0.0,3,0.3,0,4,0.07582443218315989,99.89971359403043,0.07340675110138373,54.38677615445302,0.049949221393518206,0.0,0,0,0,0
0.68,0.0,1,0,0,1,1,0,0,1,0.5284825811060347,0.0,0.4132315812238882,0.767908591952926,0.0,0.5729750916407594,0.13643834481303002,0.007393449918168497,0.29449910932551193,0.008541722739826443,0.0017808801711300948,0.13231370539840162,0.2800797791916745,0.164733729055297,0.017131100501782237,0.3198422938420048,-0.10246282276947194,0.08934016996144205,-0.059084689949816416,0.11686773937392564,0.07542096871650031,-0.0401405577683458,-0.13664878220940468,0.015656227615136437,0.4692873542676448,-0.004922779219947551,0.07060331728989899,-0.28564427820733873,0.22922184640449192,0.3936206002364387,0.05919522683838996,0.004922779219947551,0.07060331728989899,0.28564427820733873,0.22922184640449192,0.01961098098744951,0.08372898704578702,0.0,3,0.3,0,4,0.08400351159253591,101.41427714991474,0.07019388196035832,78.50382463852436,0.1325079281225372,0.0,0,0,0,0
