time,trans_flag,des_cont_state_fl,des_cont_state_fr,des_cont_state_rl,des_cont_state_rr,cont_state_fl,cont_state_fr,cont_state_rl,cont_state_rr,vel_cmd_x,vel_cmd_y,vel_cmd_yaw,acc_cmd_x,acc_cmd_y,acc_cmd_yaw,base_pos_x,base_pos_y,base_pos_z,base_ang_roll,base_ang_pitch,base_ang_yaw,FL_foot_pos_x,FL_foot_pos_y,FL_foot_pos_z,FR_foot_pos_x,FR_foot_pos_y,FR_foot_pos_z,RL_foot_pos_x,RL_foot_pos_y,RL_foot_pos_z,RR_foot_pos_x,RR_foot_pos_y,RR_foot_pos_z,base_vel_x,base_vel_y,base_vel_z,base_vel_roll,base_vel_pitch,base_vel_yaw,x_vel_err,y_vel_err,z_vel_err,roll_vel_err,pitch_vel_err,yaw_vel_err,cmd_err,cont_err,terr_freq,terr_height,failed,gait_id,base,CoT,musculoskeletal,foot_force,MWE,stability,FL_stride_t,FR_stride_t,RL_stride_t,RR_stride_t
0.01,0.0,1,0,0,1,0,0,1,1,0.006283178692509316,0.0,0.005026527078818862,0.6283178692509316,0.0,0.5026527078818862,0.00012462463581765774,-3.895167161237259e-05,0.3097569490529308,0.0012299309829900513,0.0010326132393763121,8.041831575448262e-05,0.17992532940513706,0.1337914503102534,0.018782884815505135,0.18123518607820113,-0.13023476612501034,0.021988005475920752,-0.18298632928832534,0.13204419307279874,0.01733168646046873,-0.18375914628611137,-0.13203789534271515,0.017332726449858282,0.032498575341458835,-0.009043600344100795,-0.05970550393845196,0.38759395640301386,0.2330521625792117,0.03168805116433007,0.02621539664894952,0.009043600344100795,0.05970550393845196,0.38759395640301386,0.2330521625792117,0.026661524085511208,0.061920521078561525,55.0,3,0.3,0,3,0.026038046824260842,85.96034359249767,0.07620090582811251,70.45263700986105,0.22551812334439506,55.0,0,0,0,0
0.02,0.0,1,0,0,1,0,0,1,1,0.014137091596022201,0.0,0.011309492449657768,0.7853912903512885,0.0,0.6282965370838907,0.0006661498115271007,-0.00012128497883885997,0.3088135445973837,0.009808609802290692,0.0037749237456914386,0.0007375896635111281,0.1699183110899936,0.13818982534267008,0.021006934347273076,0.17961403083128005,-0.12785481678501256,0.031266779829876856,-0.18300362650669488,0.13132865295541582,0.0185713284759845,-0.18917055697922672,-0.13205993421430295,0.017366598315180892,0.06784474252340737,-0.006168369715658012,-0.12795414567730135,0.8305952149437575,0.21961354891882123,0.05401150539273896,0.05370765092738517,0.006168369715658012,0.12795414567730135,0.8305952149437575,0.21961354891882123,0.042702012943081194,0.10257803358612438,50.0,3,0.3,0,3,0.11321751742854871,151.69482995617219,0.09657734267064116,74.30351077909812,0.40256931445644034,50.0,0,0,0,0
0.03,0.0,1,0,0,1,1,0,0,1,0.02199086497214841,0.0,0.01759201134109972,0.7853773376126207,0.0,0.628251889144195,0.0012103317175701258,-0.00012964121387963812,0.3073422028100355,0.013405693344762368,0.00582434304476287,0.0009260826379450676,0.16562677003681453,0.14002337207695056,0.018119622347020276,0.18281145775401866,-0.12498353528414666,0.04104889516372201,-0.1831577772564726,0.12985196084976233,0.03387593337787437,-0.18966356217564764,-0.1320874585959234,0.017377948798103976,0.03589706891874188,-0.0011074539717980778,-0.14654714210332545,0.07310368080693835,0.2872656534241837,-0.01111531565377023,0.01390620394659347,0.0011074539717980778,0.14654714210332545,0.07310368080693835,0.2872656534241837,0.02870732699486995,0.0437209849132615,30.0,3,0.3,0,3,0.050587192911108525,163.31605732967722,0.11099727223209062,117.73545930826427,0.4000810180327159,30.0,0.02,0.0,0.0,0.0
0.04,0.0,1,0,0,1,1,0,0,1,0.02984442130731541,0.0,0.023873835730056265,0.7853556335166999,0.0,0.6281824388956546,0.00148195599941233,-0.00013963676240931307,0.3059977733623455,0.016222982905919035,0.00981188948658085,0.0009891676850243669,0.16552061748016147,0.1400199731595271,0.01812817339767439,0.18443178624456105,-0.1237865743972743,0.05122411587232978,-0.18386644390161014,0.13185064012254516,0.0501131317995622,-0.18968830342426393,-0.13209016781883035,0.017386228080004618,0.025704541059582912,-0.00450732496949121,-0.12457097587132143,0.36158899315473,0.5093266840265644,0.006730128670117602,0.004139880247732496,0.00450732496949121,0.12457097587132143,0.36158899315473,0.5093266840265644,0.017143707059938663,0.02579091227716237,0.0,3,0.3,0,3,0.025712258870109545,59.73032310117558,0.08433858925885321,152.73635382393167,0.18577077531274844,0.0,0,0,0,0
0.05,0.0,1,0,0,1,1,0,0,1,0.03769768309009279,0.0,0.030154717620856746,0.7853261782777381,0.0,0.628088189080048,0.00173065781069242,-0.00022037065687125022,0.3048619220782259,0.017556837656162803,0.015485885672547717,0.0013281820608466084,0.16540201960586015,0.14001384798278427,0.01813716781238403,0.18230982413153457,-0.12445128072365555,0.060210848866422056,-0.18517174410985415,0.13390769773884992,0.06127708097612747,-0.18967375148995858,-0.1321010973489209,0.017394094615840044,0.027800963715299155,-0.013539217393176959,-0.10418566788586249,-0.005663487184462877,0.6162308501786815,0.03149126114230884,0.009896719374793635,0.013539217393176959,0.10418566788586249,0.005663487184462877,0.6162308501786815,0.0013365435214520924,0.024772480289422687,0.0,3,0.3,0,3,0.025520311333218915,65.33817101217463,0.08389740528650941,141.44182878200598,0.10741497753764223,0.0,0,0,0,0
0.06,0.0,1,0,0,1,1,0,0,1,0.04555057281195724,0.0,0.036434409055038704,0.7852889721864452,0.0,0.6279691434181958,0.0020247001069680654,-0.00030638535977053113,0.3038906333363112,0.018834304644752116,0.022246881595990198,0.0015672839592993767,0.16528954664109674,0.14000681013414126,0.018146106567887038,0.18064007205401844,-0.1262515799907289,0.06923169339501165,-0.18635525746025045,0.13429863308242035,0.07031389441077018,-0.18963336015852145,-0.13210901395590452,0.017401950826898854,0.03445176900308998,-0.00942683590820108,-0.08648690362793413,0.12527011404627783,0.7297535932153804,0.004436009746169933,0.011098803808867262,0.00942683590820108,0.08648690362793413,0.12527011404627783,0.7297535932153804,0.031998399308868775,0.052524039025937115,0.0,3,0.3,0,3,0.045488399697384205,62.685145697753434,0.07467153455144364,132.79169065756258,0.06177409705278375,0.0,0,0,0,0
0.07,0.0,1,0,0,1,1,0,0,1,0.05340301296805755,0.0,0.04271266212113687,0.7852440156100309,0.0,0.6278253066098166,0.00240298891833528,-0.00041087012198846466,0.303106195447553,0.01830659638248873,0.0294414989951155,0.0019761874720741457,0.16518434278236105,0.14000039231303518,0.01815490460131225,0.1798213894380591,-0.12787572526829424,0.07738890309970163,-0.186599248923964,0.1335122213304721,0.07674298661458982,-0.18956447843889382,-0.13212102856831323,0.01740999906075985,0.04606105118124433,-0.011936181572720129,-0.07055183311098329,-0.1203584927447946,0.7106274071231264,0.03720199711349902,0.00734196178681322,0.011936181572720129,0.07055183311098329,0.1203584927447946,0.7106274071231264,0.005510665007637847,0.024788808367171195,0.0,3,0.3,0,3,0.031097954711478942,77.43369074181237,0.08534351962996055,130.40638896674943,0.04061772994164936,0.0,0,0,0,0
0.08,0.0,1,0,0,1,1,0,0,1,0.06125492605797953,0.0,0.048989228964470284,0.7851913089921981,0.0,0.6276566843333414,0.00290753024118723,-0.0005208969129929973,0.3024609620838059,0.016724979868326856,0.03617750907437767,0.0024191299390568743,0.16510253218611246,0.1399936472234243,0.018163106352804853,0.1805352266248703,-0.12971598407002216,0.08475759411253775,-0.185696098588561,0.13222865610599477,0.0816998479736244,-0.1894824669179346,-0.13213337308789586,0.017418196870101654,0.05954203637277571,-0.014082072273977956,-0.05401179364516806,-0.2539084273645708,0.6099376485032322,0.04248127955283801,0.0017128896852038195,0.014082072273977956,0.05401179364516806,0.2539084273645708,0.6099376485032322,0.006507949411632276,0.02230291137081405,0.0,3,0.3,0,3,0.030292175276924495,76.05103055309007,0.07822419985688224,131.945124234861,0.041163975656079405,0.0,0,0,0,0
0.09,0.0,1,0,0,1,1,0,0,1,0.06910623458651093,0.0,0.055263861796927174,0.7851308528531393,0.0,0.627463283245689,0.003550066876971427,-0.0006461469231155806,0.3019812592602964,0.01483450511222702,0.041547998228467664,0.0030660541543897973,0.16505559971311812,0.13998966215566233,0.018170357107046536,0.18138249586626237,-0.13092008106325845,0.09004356694869202,-0.18290063871271864,0.13073701526928228,0.08581683642486243,-0.18939797238862896,-0.13214928941149992,0.017426445141033753,0.07259076741487362,-0.01315515764693652,-0.03586148298673514,-0.07007953531268686,0.46217963267522677,0.06927581205669256,0.0034845328283626964,0.01315515764693652,0.03586148298673514,0.07007953531268686,0.46217963267522677,0.014011950259765385,0.0306516407350646,0.0,3,0.3,0,3,0.02141921813975228,77.39015110922735,0.07874741438237834,133.70764145390845,0.016046711132587113,0.0,0,0,0,0
0.1,0.0,1,0,0,1,1,0,0,1,0.07695686106440629,0.0,0.06153631290674721,0.7850626477895362,0.0,0.6272451109820033,0.0043507048468455,-0.0007689092178588906,0.30166220443827685,0.013548969166949726,0.04548122415250111,0.0038907843887850627,0.16504495457119858,0.13998841719314714,0.018176931333291763,0.18293773571216995,-0.13187640999627245,0.09388501462349273,-0.17904932472322774,0.12945001949719978,0.08853741176668536,-0.18930980542515966,-0.1321670630939488,0.017434803507238195,0.08985204851138608,-0.012316858709114316,-0.019266781036502152,-0.14415493411606614,0.3285100016951835,0.08154830317770151,0.012895187446979789,0.012316858709114316,0.019266781036502152,0.14415493411606614,0.3285100016951835,0.0200119902709543,0.045224036427048406,0.0,3,0.3,0,3,0.041089623043652324,87.20126456514087,0.08348154452457189,134.09208261605386,0.010563205318001756,0.0,0,0,0,0
0.11,0.0,1,0,0,1,1,0,0,1,0.08480672800915168,0.0,0.06780633466830074,0.784986694474539,0.0,0.6270021761553536,0.005327167911584086,-0.0008984794941333037,0.3015148800558438,0.01207619444780527,0.047500486811963505,0.004840798720035806,0.16507885901233413,0.1399888493093325,0.01818303686725145,0.18414465913851183,-0.13242493510884093,0.09470273339951465,-0.17520565157512757,0.1285051430083553,0.08922273367880498,-0.18922421272690118,-0.1321879171140601,0.017443365817981477,0.10626107937463393,-0.01496487610751868,-0.0013817372681504542,-0.16770960115755826,0.07730711043208159,0.10489619528852899,0.021454351365482252,0.01496487610751868,0.0013817372681504542,0.16770960115755826,0.07730711043208159,0.037089860620228246,0.07350908809322917,0.0,3,0.3,0,3,0.06122507984456575,78.6222383712226,0.0772343384832557,132.79498967213917,0.01243611210560261,0.0,0,0,0,0
0.12,0.0,1,0,0,1,1,0,0,1,0.09265575794572947,0.0,0.0740736795518646,0.7849029936577795,0.0,0.6267344883563855,0.006457910514570414,-0.001031292345560466,0.30152427214260985,0.010241437719924884,0.047926035603563344,0.005856908278937591,0.16514363481587638,0.13998989778916623,0.01818906439148399,0.18570786667622427,-0.13310786709263853,0.09264603579582836,-0.1720392696182506,0.12800984880398253,0.08692998483611207,-0.18913179338936528,-0.1322088306966809,0.017452152814750904,0.11924453178037443,-0.013693223362329022,0.013830112621688536,-0.307754625988051,0.01511417663756531,0.0903650476371013,0.02658877383464496,0.013693223362329022,0.013830112621688536,0.307754625988051,0.01511417663756531,0.016291368085236707,0.056573365282210686,0.0,3,0.3,0,3,0.06627937113212393,76.76888289661038,0.07646958287860751,128.126180998739,0.05465024383056079,0.0,0,0,0,0
0.13,0.0,1,0,0,1,1,0,0,1,0.10050387340738298,0.0,0.08033810013339421,0.784811546165351,0.0,0.6264420581529608,0.007686490705536945,-0.001171000175618269,0.30170184905142233,0.006814696010978004,0.047758156348771896,0.006699920635168709,0.16522819370928737,0.1399889904607913,0.018195166889088593,0.1883977210364019,-0.1337335214372467,0.08732490478000585,-0.16859988852477595,0.12764433259336377,0.08173342415726659,-0.1890261179891732,-0.13222850356650737,0.017461090499601345,0.12249027756091035,-0.015532670572664845,0.03211799527389697,-0.37679271998525776,-0.030793896717046822,0.08652462704827664,0.021986404153527372,0.015532670572664845,0.03211799527389697,0.37679271998525776,0.030793896717046822,0.0061865269148824314,0.04370560164107465,0.0,3,0.3,0,3,0.04558133112531354,74.82378558717032,0.06963423162208093,123.1619129549163,0.1348360209870123,0.0,0,0,0,0
0.14,0.0,1,0,0,1,1,1,0,1,0.10835099693638103,0.0,0.08659934910429141,0.7847123528998051,0.0,0.6261248970897206,0.008881123940481163,-0.0012862223737739494,0.30206791858920834,0.002740030929368559,0.04758255012442869,0.007459934422721689,0.16531829654717672,0.13999091591139762,0.018201224835006607,0.18912539338260442,-0.13327722963595218,0.08664119839455325,-0.16406191646701973,0.1273047850253827,0.07333631716375849,-0.18890742341755754,-0.13224277822273545,0.01747005656786796,0.10519913012143385,-0.00343430850520718,0.06550894685712974,-0.5725191489505105,-0.049701755428274305,0.06858817030301448,0.0031518668149471823,0.00343430850520718,0.06550894685712974,0.5725191489505105,0.049701755428274305,0.018011178801276936,0.024597354121431297,10.0,3,0.3,0,3,0.035757848187460264,74.06452926200546,0.07538268468687517,189.68042342676065,0.20273843696720206,10.0,0.0,0.12999999999999998,0.0,0.0
0.15,0.0,1,0,0,1,1,1,0,1,0.11619705108478236,0.0,0.09285717928116781,0.7846054148401324,0.0,0.6257830176876394,0.009827922247277418,-0.0012617174654102634,0.3029200343381056,-0.005875472984211565,0.04525873703968886,0.00827707517064657,0.16543142693761279,0.14000392408052476,0.01820740626789566,0.18900690132222633,-0.1330114026812553,0.08541964222528561,-0.1605555620643288,0.12677161886515612,0.06279059305783921,-0.1887923261398358,-0.1322512787014886,0.017479089218411653,0.07883491161359947,0.002384466496851596,0.10882593866174374,-0.9501812509825422,-0.45901974704341575,0.10296697105529898,0.03736213947118289,0.002384466496851596,0.10882593866174374,0.9501812509825422,0.45901974704341575,0.010109791774131169,0.04985639774216565,25.0,3,0.3,0,3,0.03812946252197917,104.16528067447727,0.09567115870796077,158.2597577554564,0.0815950836526188,25.0,0,0,0,0
0.16,0.0,1,0,0,1,1,1,0,1,0.12404195841520015,0.0,0.09911134361560314,0.7844907330417789,0.0,0.6254164334435333,0.010431456688501541,-0.0011486948030058224,0.3042358347344342,-0.014926949366538048,0.039433922240655006,0.009159188547621384,0.1655775352970365,0.14002668741262478,0.018215295495768724,0.18901051528595625,-0.1327456215733657,0.08611169104224031,-0.15775984559573633,0.12558634499200652,0.051976862552554945,-0.18870542580150515,-0.13225333980314885,0.017487655298587035,0.029811996612567636,0.018826748229724174,0.1630703128171422,-0.8984854634778049,-0.655463454497926,0.07611114786595924,0.09422996180263252,0.018826748229724174,0.1630703128171422,0.8984854634778049,0.655463454497926,0.023000195749643904,0.13605690578200058,25.0,3,0.3,0,3,0.0993594095643899,104.59158913771293,0.08964245069795726,219.12339672258562,0.10617166900000102,25.0,0,0,0,0
0.17,0.0,1,0,0,1,1,1,0,1,0.13188564150156615,0.0,0.10536159520389834,0.7843683086366001,0.0,0.6250251588295203,0.010629453621690618,-0.0008685680997902631,0.3060404313659386,-0.025269075711481508,0.031091301284903006,0.010402713045652882,0.16574300814666879,0.140066180363848,0.018225529299522952,0.18922630919589326,-0.1327057307423009,0.08615970587237794,-0.15649814720898236,0.12425107532653581,0.040151291164903694,-0.18863694629503455,-0.13225192235868957,0.017496392419315637,0.0012783151226147572,0.033533809214881395,0.1981004397230441,-1.0466706174067184,-1.0158397523907883,0.12675420355868783,0.1306073263789514,0.033533809214881395,0.1981004397230441,1.0466706174067184,1.0158397523907883,0.021392608354789483,0.18553374394862227,25.0,3,0.3,0,3,0.15742214519110678,107.86854551983367,0.08849579825281503,176.1755465021274,0.01932993871523203,25.0,0,0,0,0
0.18,0.0,1,0,0,1,1,1,0,1,0.1397280229298949,0.0,0.11160768729682284,0.7842381428328743,0.0,0.6246092092924496,0.010645430454741062,-0.00027611649058480203,0.30814633579604617,-0.03450142134199232,0.02028103331517217,0.011921499439141942,0.16569127770916942,0.1398449005160144,0.018239075558707768,0.18946878662239666,-0.13264075732761635,0.08620657060368726,-0.15900255784224163,0.12202886060367513,0.027847091267151014,-0.18858235983661667,-0.13223107710306034,0.017505133606499634,0.001155187679451006,0.07448757160568056,0.22256359794207115,-0.8075089499755244,-1.2171132992124447,0.12423915064552854,0.1385728352504439,0.07448757160568056,0.22256359794207115,0.8075089499755244,1.2171132992124447,0.012631463348705699,0.22569187020483017,25.0,3,0.3,0,3,0.2064141317599601,104.55991700617797,0.08898961831994717,163.11748068103697,0.07575409632347885,25.0,0,0,0,0
0.19,0.0,1,0,0,1,1,1,0,1,0.1475690252990478,0.0,0.11784937330935583,0.7841002369152916,0.0,0.6241686012532984,0.010734004849364938,0.0007392882045168055,0.3103493231038195,-0.04424855009502169,0.006834421203396168,0.013653372487006724,0.1650031847326136,0.13926943828710348,0.018255884320849514,0.1897504563209728,-0.13254825169027723,0.08625601253922843,-0.1642520486139554,0.12050668897421753,0.018411624636783613,-0.18853359287144242,-0.13218774141382356,0.017514244547571695,0.007528259392639293,0.11027147703052453,0.22424842843660128,-1.1553657834179354,-1.389069872344285,0.10019330444483657,0.14004076590640852,0.11027147703052453,0.22424842843660128,1.1553657834179354,1.389069872344285,0.01765606886451926,0.2679683118014523,25.0,3,0.3,0,3,0.24429922072340998,93.85383814994637,0.08478309666559937,149.80838128917557,0.16931397175784213,25.0,0,0,0,0
0.2,0.0,0,1,1,0,0,1,1,1,0.15540857122149707,0.0,0.124086406830421,0.7839545922449259,0.0,0.623703352106518,0.01090116330137626,0.002075461820246847,0.3125888643521676,-0.04996151674625209,-0.005838383662412738,0.015412377679189312,0.15979382931110497,0.13662676417517447,0.01850358045689568,0.19118181012001045,-0.13317544099383183,0.0871073453056773,-0.16426724126499287,0.12056780696161266,0.018418495440772426,-0.1888911781736865,-0.1320336883632952,0.017616875967120638,0.034169910303481106,0.12408493813795968,0.2410288707402468,-0.03092815624512538,-1.103832694761941,0.175210350067575,0.12123866091801597,0.12408493813795968,0.2410288707402468,0.03092815624512538,1.103832694761941,0.05112394323715398,0.29644754229312964,40.0,3,0.3,0,3,0.2824252440675169,188.54791036879692,0.11057056984637033,191.4028845147464,0.3312109165484416,40.0,0.0,0.0,0.17,0.0
0.21,0.0,0,1,1,0,0,1,1,0,0.16324658332408937,0.0,0.1303185416326145,0.7838012102592301,0.0,0.6232134802193492,0.011240715547663677,0.0031946728969242536,0.3151667599422176,-0.05946658378651421,-0.014140352461589512,0.018057678042794078,0.15386461422551168,0.1371208864382132,0.022167534669530087,0.18979616972462354,-0.1315422597170511,0.08624525757847258,-0.16421507523042672,0.12059823514829057,0.018424350444936816,-0.19089577269970354,-0.1318116822115352,0.019758004092069403,0.04440055273227895,0.08338082600312921,0.2718918818693938,-0.9960558402144589,-0.6763195015755056,0.21740233329946157,0.11884603059181043,0.08338082600312921,0.2718918818693938,0.9960558402144589,0.6763195015755056,0.08708379166684707,0.2893106482617867,20.0,3,0.3,0,3,0.30983809330761475,209.09260720318974,0.12850036408374016,173.06249573390386,0.2971445063613395,20.0,0,0,0,0
0.22,0.0,0,1,1,0,0,1,1,0,0.17108298424880955,0.0,0.1365455316819254,0.7836400924720183,0.0,0.6226990049310904,0.01171716626127367,0.004161429477310856,0.31772345402701435,-0.06436744274716422,-0.02034675844293865,0.020207041588219135,0.1505733524776539,0.13742161941318376,0.031310598918578986,0.18783604593231237,-0.12903556395199894,0.08479039417081391,-0.16411837976250884,0.12063113619605498,0.01843023127607371,-0.19201201093241158,-0.13282479552684548,0.02581222769699132,0.06455178709520856,0.07542097807001809,0.24496872671417202,-0.31190634338833506,-0.6226071212907863,0.15707009854833984,0.10653119715360099,0.07542097807001809,0.24496872671417202,0.31190634338833506,0.6226071212907863,0.020524566866414434,0.2024767420900335,0.0,3,0.3,0,3,0.2266060652918554,157.7614857290905,0.09864595698683178,131.35860183885657,0.2810672028625235,0.0,0,0,0,0
0.23,0.0,0,1,1,0,0,1,1,0,0.17891769665354415,0.0,0.1427671311474489,0.7834712404734601,0.0,0.6221599465523503,0.012422498540007406,0.0050510389992854355,0.31989975794785597,-0.06590342538401524,-0.027200689783841492,0.022196588739019318,0.15142308681978045,0.13685135935144194,0.04745486333501728,0.18746427337043325,-0.12853296415350937,0.08451064576704156,-0.16403535166389338,0.12066266290935286,0.01843548094295433,-0.19022599282810215,-0.13283026429010678,0.03954423949657271,0.08763518169293821,0.07145020775174088,0.20144085998002842,0.0025633170263710597,-0.7893000559766011,0.12878960045513382,0.09128251496060594,0.07145020775174088,0.20144085998002842,0.0025633170263710597,0.7893000559766011,0.013977530692315082,0.1767102534046619,0.0,3,0.3,0,3,0.18481311914138238,189.36444937893657,0.09535413954504667,120.18263880939712,0.13349909045939168,0.0,0,0,0,0
0.24,0.0,0,1,1,0,0,1,1,0,0.18675064321284485,0.0,0.1489830944110912,0.7832946559300696,0.0,0.6215963263642293,0.013246297079377207,0.005878036020542918,0.3218422505493366,-0.06732071969032616,-0.03501558859197473,0.02374193496492815,0.15487732121412495,0.1365563656333837,0.06552423169484087,0.1877070929398917,-0.12846934594690868,0.08455474967896442,-0.16396435224239783,0.12069532018609694,0.018440702649288543,-0.18665581261327238,-0.13401855496284845,0.05579103459288068,0.09341140650680953,0.06439461568635794,0.1921153248090011,-0.20986508965443051,-0.7824442708654773,0.09379849320359368,0.09333923670603532,0.06439461568635794,0.1921153248090011,0.20986508965443051,0.7824442708654773,0.05518460120749752,0.21291845359989078,0.0,3,0.3,0,3,0.20767883588448352,110.63598454505271,0.08361772304227884,116.33559555623692,0.3379562416025652,0.0,0,0,0,0
0.25,0.0,0,1,1,0,0,1,1,0,0.19458174661869126,0.0,0.15519317607726604,0.7831103405846418,0.0,0.6210081666174844,0.014109967594516177,0.006646199301194386,0.3237446285381582,-0.06852434253689359,-0.04235086597654125,0.02522918096501532,0.15972009458497416,0.1371217026345844,0.08268072366397342,0.1879428892514018,-0.12841029642373866,0.08459843434513004,-0.16388044070414082,0.12072467730857805,0.018445968249755113,-0.1831360197092881,-0.13554366676388288,0.07151136665858754,0.09631204458507579,0.0590489223323105,0.19241324553280362,-0.05492397959644941,-0.6738621490812992,0.10156820882132621,0.09826970203361547,0.0590489223323105,0.19241324553280362,0.05492397959644941,0.6738621490812992,0.053624967255939834,0.21094359162186582,0.0,3,0.3,0,3,0.21045939488743617,85.71898768429257,0.07368570950090217,115.46623855038574,0.4928837392329497,0.0,0,0,0,0
0.26,0.0,0,1,1,0,0,1,1,0,0.2024109295812544,0.0,0.16139713098258265,0.782918296256313,0.0,0.6203954905316611,0.014967039956493795,0.007366342434706768,0.3256998325071415,-0.0693959431055077,-0.048308371901789826,0.0266675932838373,0.1651881303261845,0.13851154604253033,0.09636227720550314,0.18816955549699896,-0.12835523377340372,0.08464068797570892,-0.16377538539032235,0.12075097396744776,0.01845146336687334,-0.18013903623435215,-0.13692469338517327,0.08390327088340963,0.09769341869222567,0.05363852751081839,0.19832156413448962,-0.03744037056903873,-0.5555355221534181,0.10879157002562073,0.10471751088902873,0.05363852751081839,0.19832156413448962,0.03744037056903873,0.5555355221534181,0.05260556095696192,0.21096159935680905,0.0,3,0.3,0,3,0.21455856779218796,69.1571304886233,0.06576334336624284,106.72502230311181,0.589798645696479,0.0,0,0,0,0
0.27,0.0,0,1,1,0,0,1,1,0,0.21023811482965918,0.0,0.16759471420552421,0.7827185248404783,0.0,0.6197583222941561,0.015875287346622528,0.008029814439688537,0.32766105879530855,-0.06932993374860363,-0.05342194915566756,0.02826393108302982,0.17043856004950106,0.14011945525998926,0.10554713870891733,0.18829737143173306,-0.12825335942052157,0.08463942911723482,-0.16365368390905768,0.12077179248247603,0.018457128754809288,-0.17813699803427088,-0.1378312991776092,0.09257014487345835,0.10743266807318275,0.048616236867475904,0.19024150238929138,0.1644397004390116,-0.47788877909980226,0.1292973982037417,0.10280544675647643,0.048616236867475904,0.19024150238929138,0.1644397004390116,0.47788877909980226,0.038297316001782516,0.18971899962573485,0.0,3,0.3,0,3,0.19310992723164028,64.25913283999141,0.06465793084457386,94.4326434946534,0.47728558134749804,0.0,0,0,0,0
0.28,0.0,0,1,1,0,0,1,1,0,0.21806322511274712,0.0,0.17378568107611705,0.7825110283087938,0.0,0.619096687059284,0.016872455815046677,0.008638509500751072,0.3295118392548541,-0.06795394650466012,-0.057749532945156945,0.02987878177676244,0.1754563376056982,0.14261522804192026,0.1102382220534521,0.18770599360575296,-0.1278342592566602,0.08433455592531264,-0.1635226691947604,0.12078925267598892,0.018462901846419577,-0.1760245653589927,-0.1387169732801837,0.09762210165439628,0.11732274580739745,0.04371406094648552,0.17238099200137566,0.2165797560621443,-0.427452864286768,0.13580270790703317,0.10074047930534967,0.04371406094648552,0.17238099200137566,0.2165797560621443,0.427452864286768,0.03798297316908389,0.18243751342091907,0.0,3,0.3,0,3,0.18689288153383377,59.264083358433574,0.06145024350541484,82.85108005573976,0.3642055070579763,0.0,0,0,0,0
0.29,0.0,0,1,1,0,0,1,1,0,0.2258861831998389,0.0,0.17996978718558976,0.7822958087091797,0.0,0.6184106109472703,0.01798862853319877,0.009201375256999775,0.3311936134203258,-0.06585538308407157,-0.061588505912694824,0.031570751587724225,0.1807984263272896,0.14523306711882847,0.11134302074746114,0.18606062115609978,-0.1268626640853685,0.0835531343940362,-0.1633890464816858,0.12080315351801768,0.018468659669211684,-0.17363235243781763,-0.13878369692281742,0.09857460852780076,0.1281915419646754,0.038788121916271304,0.1526926524920872,0.0918058017115041,-0.37014994343131186,0.1413888942831337,0.09769464123516353,0.038788121916271304,0.1526926524920872,0.0918058017115041,0.37014994343131186,0.03858089290245606,0.17506365605389088,0.0,3,0.3,0,3,0.17405660347320684,62.7019233933389,0.060690753363622715,78.20376031105256,0.23090854328315208,0.0,0,0,0,0
0.3,0.0,0,1,1,0,0,1,1,0,0.23370691188149645,0.0,0.186146788396022,0.7820728681657535,0.0,0.6177001210432242,0.01922903121902626,0.009707894170778478,0.3326090816399705,-0.06412721271798105,-0.06512022728625921,0.03321575683303822,0.18655538277124567,0.1482309801547484,0.10988704019670845,0.18405064097769835,-0.12573045261791435,0.08270214695366307,-0.1632634658883238,0.12081427911764066,0.018474257986339032,-0.17081724948838217,-0.13856389347495626,0.09666415912550091,0.14105826482066552,0.03555429520008572,0.11937593857282369,0.21194662903958297,-0.35780107508113573,0.1439269905832638,0.09264864706083092,0.03555429520008572,0.11937593857282369,0.21194662903958297,0.35780107508113573,0.0422197978127582,0.17042274007367483,0.0,3,0.3,0,3,0.17505710054310428,58.610825801825385,0.05118746049863887,71.85406862798817,0.15308472456733785,0.0,0,0,0,0
0.31,0.0,0,1,1,0,0,0,1,0,0.241525333970285,0.0,0.19231644084998276,0.7818422088788551,0.0,0.6169652453960756,0.020632538893139304,0.010151707613378455,0.33367853459608793,-0.06209608190269396,-0.06879347076270492,0.0348206020785774,0.19224141123720453,0.1507357252052388,0.1075803723650649,0.1826777495581256,-0.12478727573342809,0.08221438940539763,-0.16315435140382653,0.12082198962178749,0.018479767101994365,-0.1673905130887444,-0.13793483974842818,0.0937997501339104,0.15381062948542543,0.030798092246066618,0.07750939220850385,0.15669526198328432,-0.38558130646535643,0.14186254979557,0.08771470448485957,0.030798092246066618,0.07750939220850385,0.15669526198328432,0.38558130646535643,0.05045389105441275,0.16896668778533894,10.0,3,0.3,0,3,0.17480585331149426,52.457379156325885,0.048809318258093745,63.83438554457715,0.12146892206927129,10.0,0,0,0,0
0.32,0.0,0,1,1,0,0,1,1,0,0.249341372301535,0.0,0.1984785009801572,0.7816038331249997,0.0,0.6162060130174452,0.022158050362534855,0.010554088310105368,0.334367672976675,-0.06021301351612064,-0.07261800663208295,0.03650122363260427,0.1972929812414056,0.15270121325551478,0.10488554932004533,0.18286356474503135,-0.12474828258851643,0.08223572784657046,-0.16306295273768293,0.12082728842661357,0.018485322943087856,-0.16321806362993066,-0.1369083854033971,0.09098451273600656,0.16410176226827297,0.03165466974417373,0.04548021303733961,0.25356890248965874,-0.4106304777458965,0.1447439411101309,0.08523961003326203,0.03165466974417373,0.04548021303733961,0.25356890248965874,0.4106304777458965,0.053734559870026316,0.17062883964746206,0.0,3,0.3,0,3,0.1698823865699953,44.332305185839324,0.04851720800008278,86.57873529058404,0.06505488538503612,0.0,0.0,0.01,0.0,0.0
0.33,0.0,0,1,1,0,0,1,1,0,0.2571549497341036,0.0,0.2046327255189626,0.781357743256858,0.0,0.6154224538805403,0.023804227220205015,0.010934191979037841,0.3347953971030196,-0.058537648578971306,-0.07667016680209526,0.038331980645025604,0.20138179517012808,0.1541218459907028,0.10170879240291208,0.18304833741197493,-0.12470975982219128,0.08225698617056504,-0.16298482846778753,0.12082883841233666,0.018491151395279126,-0.15853618967298283,-0.13580521527272454,0.08809964875532769,0.17349709902049465,0.02923032981948538,0.021532432123847294,0.16980653150401584,-0.4441410365213282,0.16046843893549,0.08365785071360893,0.02923032981948538,0.021532432123847294,0.16980653150401584,0.4441410365213282,0.0441642865834726,0.1570524671165669,0.0,3,0.3,0,3,0.156533734528964,46.06488018799965,0.05154116780837355,97.8673251223726,0.029391555491893928,0.0,0,0,0,0
0.34,0.0,0,1,1,0,0,1,1,0,0.2649659891511359,0.0,0.21077887150815186,0.7811039417032317,0.0,0.614614598918925,0.025566185196404086,0.011303778255131718,0.3350892520146657,-0.056854564173745306,-0.08132439107627554,0.040277139911838684,0.20443090144054685,0.15454335720416182,0.09710700619634588,0.18324122651732086,-0.12467085832952644,0.08227973313543172,-0.1629119317219257,0.12082819204396172,0.018497312370974184,-0.1530034816458914,-0.13436040778846434,0.08529814304302132,0.1855599233881458,0.028346463778525382,0.013667285687089518,0.15632746518638796,-0.5053279741717291,0.18183960274735542,0.07940606576299009,0.028346463778525382,0.013667285687089518,0.15632746518638796,0.5053279741717291,0.028939268760796444,0.13669179830231193,0.0,3,0.3,0,3,0.14976955098920192,60.45520183153061,0.057023707402871174,110.4871454970721,0.042831190561674004,0.0,0,0,0,0
0.35000000000000003,0.0,0,1,1,0,0,1,1,0,0.2727744134608264,0.0,0.21691669630840524,0.7808424309690531,0.0,0.6137824800253378,0.02743764155092826,0.011663389484501028,0.33537103589530143,-0.055944196162446405,-0.08630528880120814,0.04239416479340301,0.20783960499732698,0.15495328625466726,0.09110886579255878,0.1834450622531761,-0.12463187938531203,0.08230460900032846,-0.16283541023466205,0.12082422397906503,0.018503766799938093,-0.1481368957894209,-0.1325650886523231,0.0807544065575862,0.19321015825965193,0.025640036962779753,0.017774264009283662,-0.01604330156812037,-0.471327295162975,0.19138761700424012,0.0795642552011745,0.025640036962779753,0.017774264009283662,0.01604330156812037,0.471327295162975,0.02552907930416512,0.13073337146811936,0.0,3,0.3,0,3,0.13679306650603462,71.04336285437674,0.06791693035784412,119.68017477932604,0.07723949209614028,0.0,0,0,0,0
0.36,0.0,0,1,1,0,0,1,1,0,0.2805801455971796,0.0,0.2230459576089092,0.7805732136353161,0.0,0.6129261300503952,0.029351596318960064,0.012000055815344933,0.3357971850936544,-0.05737062762956665,-0.08994008624154981,0.04476226420443645,0.21343323132134756,0.15628848773176335,0.0849221591688897,0.18365287622024437,-0.12459238231115602,0.0823300396817474,-0.16273476408532647,0.12081440561761174,0.018510125568259567,-0.14323443209204478,-0.13040031743817013,0.07316485136780443,0.19941766707042693,0.022983297036744427,0.03234417819703399,-0.09192827395835806,-0.29209961015642605,0.22246299017812746,0.08116247852675265,0.022983297036744427,0.03234417819703399,0.09192827395835806,0.29209961015642605,0.0005829674307817334,0.10472874299427881,0.0,3,0.3,0,3,0.10993220742365976,89.71374353799268,0.07209265559873416,133.291950509693,0.10298488916768489,0.0,0,0,0,0
0.37,0.0,0,1,1,0,0,1,1,0,0.2883831085207705,0.0,0.22916641343692262,0.7802962923590895,0.0,0.6120455828013432,0.03133605434368522,0.012320950882165825,0.33634905683420613,-0.059086383276445525,-0.09203085624004204,0.04719543000928994,0.21898092555262316,0.15801141252782122,0.07847916497085086,0.18385986571595958,-0.12455402133526997,0.08235561142448997,-0.16260430436817522,0.12080221038339987,0.018516563102492417,-0.13709089586571116,-0.12812527430928614,0.06415217562381267,0.20552933443387386,0.018280211359063585,0.04688919232026044,-0.14175825729181024,-0.11930652146968791,0.24589321034984,0.08285377408689662,0.018280211359063585,0.04688919232026044,0.14175825729181024,0.11930652146968791,0.01672679691291737,0.11786078235887758,0.0,3,0.3,0,3,0.1078461673672256,84.27342243592669,0.06523435834511641,134.40953581242235,0.07541119381313577,0.0,0,0,0,0
0.38,0.0,0,1,1,0,0,1,1,0,0.29618322521950524,0.0,0.23527782216732931,0.780011669873476,0.0,0.6111408730406692,0.03333229480492922,0.012623994630620682,0.33703171587607655,-0.05912320545813538,-0.0917931696651253,0.04973554738827407,0.22506460124376185,0.15965392288584643,0.07287987903594845,0.18405156672411,-0.12451654621733019,0.08237864649786572,-0.16243442575842948,0.1207890793328644,0.018523297563084185,-0.1287490127119621,-0.12551078443746244,0.05593267160507834,0.20876794888763547,0.01709406437506903,0.053438976602701124,0.14259808494023418,0.08511164439745825,0.2532715814355736,0.08741527633186977,0.01709406437506903,0.053438976602701124,0.14259808494023418,0.08511164439745825,0.017993759268244286,0.12250309997518308,0.0,3,0.3,0,3,0.12576749632770762,84.20588265830486,0.07597463424708793,135.95723241847435,0.016778522694462894,0.0,0,0,0,0
0.39,0.0,0,1,1,0,0,1,1,0,0.3039804187093811,0.0,0.24137994253217698,0.7797193489875842,0.0,0.6102120364847669,0.03538284294005966,0.01292876838602437,0.33778573249577254,-0.0570935499285766,-0.0903569462893532,0.05219876006743338,0.22800861128182132,0.16078282656083914,0.0657705851679116,0.18423389518573496,-0.12448199176246916,0.08240768977716503,-0.16223879721289605,0.12077695220160195,0.018530557152551502,-0.12059418464697655,-0.12302274970105295,0.04717104689464688,0.216962572598217,0.01618807185105946,0.05830969085243008,0.3421887064063339,0.17926706844072915,0.26346712477864825,0.08701784611116409,0.01618807185105946,0.05830969085243008,0.3421887064063339,0.17926706844072915,0.02208718224647127,0.12529310020869483,0.0,3,0.3,0,3,0.11958878719546244,68.675719247551,0.0671254661625062,125.44060009403867,0.08221207221278504,0.0,0,0,0,0
0.4,0.0,1,0,0,1,0,1,1,0,0.3117746120352462,0.0,0.2474725336302022,0.7794193325865117,0.0,0.6092591098025207,0.037550801078151445,0.013223695766474627,0.3385413830946632,-0.05336207514456732,-0.08803766378857336,0.05476202435348913,0.22456266905562017,0.16041888677768068,0.05808003819492355,0.18454742127431056,-0.12442607525398439,0.08255142074075206,-0.16202400044023427,0.12076276381369966,0.018538381870957715,-0.11504606179421972,-0.11997997423263262,0.03832304887722279,0.23063781258860042,0.01326421004880447,0.053299361307196536,0.46316956248961444,0.24291360889282176,0.275909817414915,0.08113679944664579,0.01326421004880447,0.053299361307196536,0.46316956248961444,0.24291360889282176,0.028437283784712802,0.12283829328016306,20.0,3,0.3,0,3,0.121738749078157,67.93510551414805,0.07174558028068055,116.22439355873291,0.05561680415376713,20.0,0,0,0,0
0.41000000000000003,0.0,1,0,0,1,0,0,1,0,0.31956572827155894,0.0,0.2535553549363405,0.7791116236312734,0.0,0.6082821306138325,0.0399092963936314,0.013458124757999623,0.33868210922230685,-0.050375904522661205,-0.08518780995432285,0.057336286824660826,0.2198516842870478,0.16154211201642768,0.0550244149439256,0.18881757745535768,-0.12411857377293299,0.08335237476409052,-0.16187291435516435,0.12074924687807355,0.018545712490883742,-0.11438991763815004,-0.11625816216997512,0.03276969592313536,0.2369453211241173,0.008278450870044802,-0.05027151434383242,0.25362666707337655,0.29264078765067264,0.2683600123547511,0.08262040714744165,0.008278450870044802,0.05027151434383242,0.25362666707337655,0.29264078765067264,0.014804657418410583,0.10570351543589704,95.0,3,0.3,0,3,0.1075798477899155,25.96945734312738,0.05536853837823058,32.620301095605136,0.19963218036721825,95.0,0,0,0,0
0.42,0.0,1,0,0,1,0,1,1,0,0.32735369052314756,0.0,0.2596281663112222,0.778796225158862,0.0,0.6072811374881693,0.042349383785933954,0.013655318880645542,0.3379599989871448,-0.0475151033689042,-0.08339371495641035,0.060006829372396785,0.21770106766980088,0.16257233234075064,0.05169994702608116,0.19172388133947543,-0.12297269592217525,0.08349044374281331,-0.16215816616459977,0.1208641255617841,0.018553931155333547,-0.11932285600351894,-0.11369399738123696,0.0270494250752063,0.23499731767341667,0.012232098967802935,-0.13027649164350913,0.4622785952920757,0.11194533113648113,0.27239238034259966,0.09235637284973089,0.012232098967802935,0.13027649164350913,0.4622785952920757,0.11194533113648113,0.012764214031377452,0.11735268584891127,85.0,3,0.3,0,3,0.11476640724722524,27.09868545149046,0.05071848480025849,46.429585040827206,0.14382491075102638,85.0,0.0,0.01,0.0,0.0
0.43,0.0,1,0,0,1,0,0,1,0,0.33513842192596877,0.0,0.2656907280106526,0.778473140282121,0.0,0.6062561699430369,0.044788616993573255,0.013820802137150248,0.33650391392504886,-0.04138432305420947,-0.08077125130253182,0.06257263742357974,0.21672218805253138,0.16437468143686554,0.04863093401654747,0.1991713134802507,-0.12100759488517827,0.08492561351635416,-0.16195033857437235,0.12086715599164546,0.018885883603543763,-0.13032142876694888,-0.1120203075061817,0.02129585311575022,0.23206396708119173,0.006476367836835172,-0.20838337450570896,0.8673834344880126,0.2909432528605414,0.26415407975060234,0.10307445484477704,0.006476367836835172,0.20838337450570896,0.8673834344880126,0.2909432528605414,0.001536648260050233,0.11108747094166244,95.0,3,0.3,0,3,0.11256964236640413,61.99058290262211,0.051040408308580275,41.34889067378772,0.5886702086628796,95.0,0,0,0,0
0.44,0.0,1,0,0,1,0,0,0,0,0.3429198456478665,0.0,0.2717428006950765,0.7781423721897718,0.0,0.6052072684423926,0.04723000302240517,0.013980579401593212,0.333993791516114,-0.035008553103979996,-0.07927106723397492,0.0649599242830214,0.21585043409686408,0.1649463876615347,0.04482677651415251,0.2117334456036373,-0.11729920026628139,0.0867681046107685,-0.15785092262773398,0.12264278164151932,0.026470219543684975,-0.14121435486344894,-0.11258638132149598,0.01953748263656066,0.21384887384357468,0.014592529056589025,-0.320286305627631,0.5879402301456248,0.11974772336088021,0.21500160367938986,0.1290709718042918,0.014592529056589025,0.320286305627631,0.5879402301456248,0.11974772336088021,0.05674119701568664,0.20040469787656748,65.0,3,0.3,0,3,0.15979819840345216,74.54901351968586,0.06593670814520994,24.500337279269576,0.6618988592745492,65.0,0,0,0,0
0.45,0.0,1,0,0,1,0,0,0,1,0.3506978848893299,0.0,0.2777841454390272,0.7778039241463419,0.0,0.6041344743950683,0.04962033990843177,0.014190842150618908,0.3306587213053562,-0.029261021833334618,-0.07659475515873027,0.06726055343890226,0.2129338656209261,0.1638096153724857,0.037405316833641206,0.2218017723480471,-0.11238205452329446,0.09118652882180395,-0.15036832945027864,0.12592198151124936,0.03561728154302318,-0.1425029922809248,-0.11312486022570545,0.01955892688876054,0.2138457151011876,0.01630371961555776,-0.3761614610752424,0.460494841649675,0.3863764630909918,0.28275699377456137,0.1368521697881423,0.01630371961555776,0.3761614610752424,0.460494841649675,0.3863764630909918,0.004972848335534186,0.15812873773923425,40.0,3,0.3,0,3,0.18390922228416748,33.95838348988091,0.054860090001088824,41.71934440409076,0.5033568121058882,40.0,0.0,0.0,0.0,0.24000000000000007
0.46,0.0,1,0,0,1,0,0,0,1,0.35847246288425194,0.0,0.28381452374055854,0.7774577994922038,0.0,0.6030378301531358,0.05203668415148284,0.014456909149009238,0.3268258623191245,-0.025985959997431744,-0.07101336360874821,0.07019811370579741,0.21133716949188386,0.161328870146287,0.026273514894077032,0.2288091606730767,-0.10885932396935337,0.09600191260673244,-0.14381850990337283,0.1282807353698238,0.044449200954906704,-0.14249846150301052,-0.11317298189892776,0.01957123071401448,0.21460448106566155,0.02725814514141812,-0.4198395245600541,0.26254114734884526,0.7426534156006551,0.3192878663586696,0.1438679818185904,0.02725814514141812,0.4198395245600541,0.26254114734884526,0.7426534156006551,0.03547334261811108,0.2065994695781196,25.0,3,0.3,0,3,0.1937214867200843,24.696441905882196,0.04870264359785532,62.984577493435665,0.7851886664167833,25.0,0,0,0,0
0.47000000000000003,0.0,1,0,0,1,1,0,0,1,0.3662435029006865,0.0,0.28983369753066096,0.7771040016434583,0.0,0.6019173790102417,0.05447815984860161,0.014850567788497412,0.32261078091899786,-0.025960147418167406,-0.06129794632946428,0.07330864432715525,0.21148119574148563,0.15801754779953361,0.017553084198994956,0.2347159607639306,-0.10580291548432076,0.10244126876298826,-0.138204137837196,0.12875627385785132,0.05399453532736828,-0.14245179413002684,-0.11320773003207667,0.019581056174700018,0.2253058741134597,0.0371415672341613,-0.45624563788424743,-0.2613677838371435,1.1845615741536653,0.3405125585040952,0.14093762878722682,0.0371415672341613,0.45624563788424743,0.2613677838371435,1.1845615741536653,0.050678860973434214,0.22875805699482232,20.0,3,0.3,0,3,0.2278357855258255,33.157615394911446,0.05093546387200999,121.01027271875027,0.9043734054941153,20.0,0.2700000000000001,0.0,0.0,0.0
0.48,0.0,1,0,0,1,1,0,0,1,0.3740109282416059,0.0,0.29584142918265965,0.7767425340919398,0.0,0.6007731651998693,0.05701014828588971,0.015317570045461637,0.3182936534502457,-0.023551255836077895,-0.04949655247077667,0.07631570593400695,0.21118514443026842,0.15804989750654122,0.01760596436024106,0.24088451101232075,-0.10367251590554777,0.11119244632859505,-0.13197419250977985,0.1279625196353637,0.06621066170256469,-0.14238532547870725,-0.11323908616265928,0.019589938153179415,0.23477398588774037,0.03445697975412547,-0.41692564722816833,0.3979275589335282,1.1618454347261433,0.33444197825168226,0.13923694235386555,0.03445697975412547,0.41692564722816833,0.3979275589335282,1.1618454347261433,0.038600549069022605,0.2122944711770136,0.0,3,0.3,0,3,0.21282976808503787,70.09150274642802,0.0898766011348734,176.68913247542542,0.40578534676932043,0.0,0,0,0,0
0.49,0.0,1,0,0,1,1,0,0,1,0.3817746622456579,0.0,0.3018374815215959,0.7763734004052003,0.0,0.5996052338936242,0.05957239263653871,0.015745434030996073,0.31452310381800913,-0.01871184782005543,-0.038093070248954364,0.0794884296788685,0.21095914428014262,0.15808626007316376,0.017647375258713044,0.24640967867603322,-0.10169014970888561,0.11860625446786735,-0.1264779955326212,0.12827045494532352,0.07723324913887641,-0.14228466322755784,-0.1132732302182227,0.019597542898208337,0.25173576495215716,0.027735906339650826,-0.3601370098553731,0.5108195731958942,1.0874636770466772,0.3442051016018178,0.13003889729350077,0.027735906339650826,0.3601370098553731,0.5108195731958942,1.0874636770466772,0.04236762008022188,0.20014242371337349,0.0,3,0.3,0,3,0.20798976677003228,57.813442542616144,0.09073520969257594,180.86829163538405,0.0615468675077957,0.0,0,0,0,0
0.5,0.0,1,0,0,1,1,0,0,1,0.3895346282879222,0.0,0.3078216178335902,0.7759966042264255,0.0,0.5984136311994293,0.062253484833694625,0.016136592667401327,0.3113627625043846,-0.014055045234836033,-0.027643296646881366,0.08287861491115092,0.21080538109967217,0.15812539762910038,0.017679593913727393,0.25064913046768744,-0.10026958242321218,0.12202497547151735,-0.12253165948709996,0.12975617837868073,0.08435921422650361,-0.14214158436435453,-0.11330959580837324,0.019604621229768332,0.26840449452290704,0.017087547230023228,-0.28574413569922136,0.41728296777836976,0.9836144622651383,0.3673626607479684,0.12113013376501514,0.017087547230023228,0.28574413569922136,0.41728296777836976,0.9836144622651383,0.05954104291437823,0.1977587239094166,0.0,3,0.3,0,3,0.19923852528387762,71.30983333384744,0.09111286402343578,193.51451892269313,0.028131240230901744,0.0,0,0,0,0
0.51,0.0,1,0,0,1,1,0,0,1,0.3972907497806668,0.0,0.3137936018751874,0.7756121492744628,0.0,0.5971984041597211,0.06510938269418512,0.016481454413694474,0.30892763893465763,-0.010710651213379696,-0.018537685004235582,0.0865399420517392,0.21073202392532808,0.15816767146133204,0.01770416720823864,0.2549508748076149,-0.09904030019480838,0.12082803931145177,-0.11891154352670588,0.1321603301631693,0.08617021590994434,-0.14195149932820134,-0.11334734157274495,0.01961201975638563,0.29852908146627044,0.011271678346399253,-0.21638916023713622,0.27231087424320466,0.8110115310335927,0.3867592601784672,0.09876166831439637,0.011271678346399253,0.21638916023713622,0.27231087424320466,0.8110115310335927,0.07296565830327978,0.1829990049640754,0.0,3,0.3,0,3,0.18996853143992182,116.94148270795085,0.09675008208018783,181.99694983466298,0.12511303648015493,0.0,0,0,0,0
0.52,0.0,1,0,0,1,1,0,0,1,0.4050429501741038,0.0,0.31975319788268336,0.7752200393436992,0.0,0.595959600749596,0.068298153357141,0.01685678489434288,0.30712235876187727,-0.009301685418786322,-0.011283860463122686,0.09033306953696958,0.21074130388754495,0.15821526548907872,0.01772397883257501,0.260328958158909,-0.09779382592251337,0.11380246978839154,-0.11373622613280213,0.13473266649077373,0.08215992459520928,-0.14171233639768616,-0.11338058541868258,0.019621056295773542,0.3358858588126345,0.010716559467718729,-0.1553665903065523,0.044664584714008894,0.6421417892985449,0.3884872915551719,0.0691570913614693,0.010716559467718729,0.1553665903065523,0.044664584714008894,0.6421417892985449,0.06873409367248856,0.14860774450167658,0.0,3,0.3,0,3,0.16018835922749802,171.57861808398542,0.10180258536370017,166.8607752531995,0.42491419001578046,0.0,0,0,0,0
0.53,0.0,1,0,0,1,1,0,0,1,0.4127911529571451,0.0,0.325700170581432,0.774820278304128,0.0,0.5946972698748665,0.07179146616675487,0.017278970257239318,0.30583275030225665,-0.009906994727250961,-0.005105581810826099,0.09414824501022893,0.21081027273420402,0.15826718992183475,0.01774172006688962,0.2681492547436818,-0.0961782852594178,0.1024786582198326,-0.10499221790372865,0.13667662173157694,0.07447421779803577,-0.14142828460361795,-0.11340680668523911,0.019631795531189572,0.36589265818328476,0.012382903486891545,-0.11326812325941957,-0.10953333753785219,0.5854362993269584,0.3816474339366609,0.04689849477386032,0.012382903486891545,0.11326812325941957,0.10953333753785219,0.5854362993269584,0.05594726335522887,0.11522866161598073,0.0,3,0.3,0,3,0.1306423523375024,169.90043666637828,0.09679406063691556,148.8849115164523,0.6219854867233912,0.0,0,0,0,0
0.54,0.0,1,0,0,1,1,0,0,1,0.4205352816581571,0.0,0.3316342851951342,0.7744128701012043,0.0,0.593411461370219,0.07558307295298178,0.017770608659985625,0.30481545715474245,-0.011192338715657571,0.00038901892554599193,0.097849623671524,0.21092819869845753,0.1583230331314438,0.017759107234378124,0.2781864103222982,-0.09382339763214964,0.09074908637791788,-0.09426419064585506,0.13689612830242756,0.06598174659860581,-0.14111399316861073,-0.11342580239552016,0.019644175520952184,0.39637240136578605,0.014060783300483194,-0.09257034623819066,-0.15449665603519502,0.4937710428181261,0.3624954022688439,0.02416288029237107,0.014060783300483194,0.09257034623819066,0.15449665603519502,0.4937710428181261,0.0308611170737097,0.06908478066656396,0.0,3,0.3,0,3,0.09103170962933324,119.41787345237836,0.08353871048936719,144.12857986268338,0.3954075173102365,0.0,0,0,0,0
0.55,0.0,1,0,0,1,1,0,0,1,0.42827525984571624,0.0,0.3375553074551057,0.7739978187559116,0.0,0.5921022259971487,0.07965176372653247,0.018325410780020972,0.30396008490897797,-0.01245760706510775,0.0049645354711893575,0.1013065588388639,0.21109266988420985,0.15838250622439207,0.017776626059047645,0.2898073761958643,-0.09120772546202907,0.07904715398117551,-0.08283907155078735,0.13641066312341413,0.05768786051736885,-0.14077901287198927,-0.1134381249245805,0.019657949999932672,0.4243768422883764,0.01792157949169003,-0.07771869698615498,-0.08977408759881583,0.4181579312385175,0.3500082605382883,0.0038984175573398283,0.01792157949169003,0.07771869698615498,0.08977408759881583,0.4181579312385175,0.012452953083182616,0.034272950132212474,0.0,3,0.3,0,3,0.04257992126887052,103.6956502838608,0.07970437169193201,143.18247848861014,0.3608514092755011,0.0,0,0,0,0
0.56,0.0,1,0,0,1,1,0,0,1,0.4360110111293624,0.0,0.34346300360952614,0.7735751283646175,0.0,0.5907696154420439,0.08398167238808564,0.01896032853080095,0.3032155846362142,-0.012976379892990478,0.008878676539499253,0.10481637264911076,0.21129585822006433,0.15844826970835998,0.01779468189918848,0.3026385572032105,-0.08909642081473249,0.06755712983516822,-0.07105855910315514,0.13681497828197303,0.05037023228376371,-0.14042171176258608,-0.11344810079586809,0.019673242898067822,0.45100497137806494,0.01999511038471284,-0.05966144301479902,-0.046765860321934374,0.3421741503975462,0.3561188379778033,0.014993960248702531,0.01999511038471284,0.05966144301479902,0.046765860321934374,0.3421741503975462,0.012655834368277163,0.047644905001692536,0.0,3,0.3,0,3,0.042668703714279166,109.35107889255428,0.09088440498515772,156.79668269254205,0.2689211956048765,0.0,0,0,0,0
0.5700000000000001,0.0,1,0,0,1,1,1,0,1,0.44374245916035343,0.0,0.3493571404326669,0.7731448030991017,0.0,0.5894136823140772,0.08856491540890309,0.019677308947046022,0.3027037981870312,-0.012572881146240231,0.01212455656962419,0.10836575602611363,0.2115425925568129,0.15852224075503452,0.017813321886087308,0.31311467004670335,-0.08606317354038269,0.06046659707732564,-0.06020193855169956,0.13712169380511244,0.043353347142127754,-0.14003798888937632,-0.1134533038458977,0.019690089484217965,0.47182410455129203,0.02937063236152527,-0.027179965287011058,0.053099837241928176,0.25363469909899516,0.3843060501543629,0.028081645390938603,0.02937063236152527,0.027179965287011058,0.053099837241928176,0.25363469909899516,0.03494890972169601,0.09240118747415987,5.0,3,0.3,0,3,0.06422782885687019,95.31434139830878,0.08113911695947823,196.7974280141462,0.49237316455895397,5.0,0.0,0.13999999999999999,0.0,0.0
0.58,0.0,1,0,0,1,1,1,0,1,0.45146952763241865,0.0,0.3552374852340987,0.7727068472065224,0.0,0.5880344801431792,0.09323621142164998,0.020615033664803134,0.30252633566322656,-0.012382851082828135,0.013604825345215454,0.11210659971268089,0.21181469285225085,0.15860493021046765,0.01783213931762201,0.3155920967135939,-0.08415630843069576,0.05931280899313443,-0.05195800819239069,0.1374652545494361,0.03499682289281347,-0.13964506847546915,-0.11344386544546073,0.0197078575648012,0.4823876185349379,0.05968927358970137,0.004902140312641308,-0.0025128221191174855,-0.04648186572697546,0.33398685292089336,0.030918090902519235,0.05968927358970137,0.004902140312641308,0.0025128221191174855,0.04648186572697546,0.021250632313205342,0.11185799680542595,25.0,3,0.3,0,3,0.09890182298986891,97.47016352137993,0.08246496720832744,203.91406653122579,0.11647754071309668,25.0,0,0,0,0
0.59,0.0,1,0,0,1,1,1,0,1,0.4591921402825117,0.0,0.3611038058678774,0.7722612650093053,0.0,0.5866320633778677,0.0981749721400677,0.02197462849450343,0.3026474515781306,-0.013606224563631468,0.009672029877845656,0.11529045290003091,0.2114765241651007,0.1581557394771761,0.017860194951518554,0.3159781108757128,-0.08401155994890022,0.05924539137079303,-0.05029906896305664,0.1376814264068541,0.02326547970027995,-0.1396926433950097,-0.11365376813208596,0.019730896948560755,0.5295097846847359,0.09861727011513509,0.02436770064801388,-0.017164812278655517,-0.819160134469674,0.30377512923598465,0.07031764440222416,0.09861727011513509,0.02436770064801388,0.017164812278655517,0.819160134469674,0.05732867663189273,0.22626359114925199,25.0,3,0.3,0,3,0.1858940157001043,173.28841026101355,0.09947999491481811,172.34099005361733,0.3983433946461259,25.0,0,0,0,0
0.6,0.0,0,1,1,0,1,1,1,1,0.46691022089156364,0.0,0.3669558707417092,0.7718080609051936,0.0,0.585206487383183,0.10347140125702173,0.023799356210347497,0.3029567662211515,-0.012771455286678944,-0.0016063243033792585,0.1183119846170021,0.21083872599412684,0.15699760602205096,0.01825916937343547,0.3164768433277652,-0.08378026931218557,0.059125677704080504,-0.05096764496520789,0.13782477651634756,0.016976214854726807,-0.14084122955301986,-0.11439884465211461,0.01977019339392158,0.5576170347004618,0.13482781523542053,0.06561464940497286,0.18068225400421795,-1.1988399912066616,0.3020982452400048,0.09070681380889811,0.13482781523542053,0.06561464940497286,0.18068225400421795,1.1988399912066616,0.06485762550170443,0.2903922545460231,30.0,3,0.3,0,3,0.2864679282286271,204.42270586711044,0.11119397597273865,232.95296588288898,0.44468302198683274,30.0,0.0,0.0,0.16,0.0
0.61,0.0,0,1,1,0,0,1,1,0,0.4746236932852346,0.0,0.3727934488260932,0.7713472393670984,0.0,0.583757808438401,0.10866868066877383,0.025525821234039455,0.30375692028762397,-0.0197590271411222,-0.008252137697118966,0.12228587867114023,0.21180885348993395,0.15869810146243168,0.025206747811082647,0.3170772824009219,-0.08154217892954309,0.05782290970263876,-0.05074810374074892,0.13786687020814498,0.0170022471990154,-0.13960382075377087,-0.11659951192056989,0.022650164445952137,0.5235440216948566,0.08192268709880925,0.08944359035239627,-1.1428703969407918,-0.32845614482076935,0.4411740165392323,0.04892032840962196,0.08192268709880925,0.08944359035239627,1.1428703969407918,0.32845614482076935,0.0683805677131391,0.1992235832215703,40.0,3,0.3,0,3,0.20828047583411896,168.08792325827864,0.13716865055678984,195.0233901738728,0.3814530322198142,40.0,0,0,0,0
0.62,0.0,0,1,1,0,0,1,1,0,0.4823324813346662,0.0,0.3786163096634422,0.7708788049431592,0.0,0.5822860837348953,0.11380424664776773,0.026949892298035752,0.3046763090038163,-0.025056783470675057,-0.011437706594096486,0.12600478262059917,0.2139432666076097,0.16103085878873455,0.03664290564315853,0.316811795135621,-0.07791569711324003,0.05573383324466094,-0.05046585949797461,0.13790966671681443,0.017026102474979182,-0.132674048875952,-0.1217339078953597,0.031010534977924942,0.531253659612127,0.07142266158086744,0.08631354132485444,0.01960212524045282,-0.3165684791063701,0.3270734471404765,0.048921178277460786,0.07142266158086744,0.08631354132485444,0.01960212524045282,0.3165684791063701,0.05154286252296569,0.17188670238129392,0.0,3,0.3,0,3,0.1610890510456079,232.82419147445162,0.12021369887871243,153.876718879434,0.10712359554111095,0.0,0,0,0,0
0.63,0.0,0,1,1,0,0,1,1,0,0.4900365089572325,0.0,0.38442422337718063,0.7704027622566278,0.0,0.5807913713738455,0.11893670118290388,0.028261674486286,0.30562694224102993,-0.025878812913643932,-0.013403610860469817,0.12978210006629454,0.21694890916276205,0.16362188099900954,0.0492476081599354,0.3171864163571759,-0.07759248707006881,0.05556155190190573,-0.050149815427055766,0.13794502614548088,0.017048851700562667,-0.12304657929745129,-0.1259363632384793,0.04221461222260506,0.5227159619804548,0.05435683316761616,0.09321713664007036,-0.16528870645269192,-0.13141751843192961,0.3777610492915558,0.03267945302322228,0.05435683316761616,0.09321713664007036,0.16528870645269192,0.13141751843192961,0.0066631740856248345,0.09369946027646328,0.0,3,0.3,0,3,0.11253659928242829,115.65985843309184,0.07364647711467082,145.64224330354062,0.1822373673189226,0.0,0,0,0,0
0.64,0.0,0,1,1,0,0,1,1,0,0.4977357001172911,0.0,0.3902169606808198,0.7699191160058627,0.0,0.5792737303639162,0.12401365978116677,0.02945274079201723,0.30664308392290685,-0.02713889000052949,-0.014292411340876887,0.1333059270235525,0.22290770516635924,0.16681985076086459,0.06139254715857281,0.3175736054236298,-0.07746781058963376,0.05550545315916053,-0.04981424175248689,0.1379791226881907,0.017071417970660724,-0.11027790191089937,-0.13025070680404544,0.05467917598416347,0.5196162211112919,0.04357900108315991,0.09846586124637789,-0.09255538481388881,-0.07064284314107436,0.35520473031672317,0.021880520994000785,0.04357900108315991,0.09846586124637789,0.09255538481388881,0.07064284314107436,0.03501223036409662,0.1004717524412573,0.0,3,0.3,0,3,0.11348629605784064,122.41056846820723,0.08983659595830437,124.87710466031376,0.1829905545482311,0.0,0,0,0,0
0.65,0.0,0,1,1,0,0,1,1,0,0.5054299788269336,0.0,0.39599429288700977,0.769427870964251,0.0,0.5777332206189978,0.1291034232075314,0.030575964452511154,0.3077319705767259,-0.02778571408254189,-0.014595479272609513,0.13715388370532236,0.2315297049047082,0.16997017913909743,0.07267536931103463,0.3179616178311976,-0.07734567361109812,0.0554510176887594,-0.049460182596681834,0.13800654581781582,0.01709378593983854,-0.09672155583151615,-0.1325650950238629,0.06697831251887498,0.5232901091152862,0.0376873989156641,0.10366747156865175,0.007647980626609206,-0.02948491558436636,0.392818713389948,0.017860130288352538,0.0376873989156641,0.10366747156865175,0.007647980626609206,0.02948491558436636,0.0031755794970617646,0.0587231087010784,0.0,3,0.3,0,3,0.06444474559669902,93.88553299583053,0.07614778890768228,114.0572086610177,0.2397120299750508,0.0,0,0,0,0
0.66,0.0,0,1,1,0,0,1,1,0,0.5131192691467354,0.0,0.4017559919165674,0.7689290319801811,0.0,0.5761699029557643,0.13424446745588264,0.03168571568326479,0.30882883396126753,-0.02823261581046564,-0.014843674559323228,0.14105808144235524,0.24254523443583859,0.1736149783881928,0.08266285182368929,0.3183553556111828,-0.07722503690682779,0.055397756432335965,-0.049099866155599026,0.1380327515497582,0.017116379516931762,-0.08277439292503766,-0.13385538020873122,0.07764508548201407,0.5290788521822888,0.035478281195558896,0.10290747336081806,0.022845602983493134,-0.056250171990478604,0.3955888833544087,0.015959583035553337,0.035478281195558896,0.10290747336081806,0.022845602983493134,0.056250171990478604,0.006167108562158685,0.05760497279327092,0.0,3,0.3,0,3,0.06179101604483868,84.33415995897596,0.07734971923127258,104.83704940596206,0.21121905262131468,0.0,0,0,0,0
0.67,0.0,0,1,1,0,0,1,1,0,0.5208034951865055,0.0,0.4075018303074806,0.7684226039770037,0.0,0.5745838390913194,0.13945663428400865,0.032818681263834644,0.30990564211422567,-0.027511540867708652,-0.01549428718063628,0.14508654513142483,0.2555179217775535,0.1771196949124603,0.09114869327186917,0.3187553697075125,-0.07710367610590368,0.055344690581992234,-0.048733744171140736,0.13805817761421602,0.01713908219030233,-0.06899178044098173,-0.13416599530090256,0.08609888543669966,0.537490871420105,0.03351767923931664,0.09777837620199371,0.0856533357531472,-0.0736114445112979,0.3971026724626385,0.016687376233599505,0.03351767923931664,0.09777837620199371,0.0856533357531472,0.0736114445112979,0.010399157844842133,0.060604213317758275,0.0,3,0.3,0,3,0.055779220868156884,78.98379318721246,0.07543877857843037,100.68148177036478,0.14692752772830664,0.0,0,0,0,0
0.68,0.0,0,1,1,0,0,1,1,0,0.5284825811060347,0.0,0.4132315812238882,0.767908591952926,0.0,0.5729750916407594,0.14473833603588954,0.03395208989876315,0.3109333747578421,-0.027274291432951667,-0.015854785906912694,0.14903491424998466,0.26947371756707594,0.1814991239074058,0.0982304076781311,0.3191580427966292,-0.07698431671940115,0.05529323127631822,-0.0483600863610604,0.138084158980549,0.017162305906581132,-0.05424046636555943,-0.13321331856800644,0.09291389165567662,0.5457149146443899,0.032060510594429305,0.09160969729074714,0.11346648552464633,-0.053904941786155354,0.3959364025403713,0.017232333538355182,0.032060510594429305,0.09160969729074714,0.11346648552464633,0.053904941786155354,0.017295178683516876,0.06658802281630136,0.0,3,0.3,0,3,0.06541848899718464,77.90898475118503,0.07178307755243249,100.63852288999972,0.07154406034365213,0.0,0,0,0,0
