time,trans_flag,des_cont_state_fl,des_cont_state_fr,des_cont_state_rl,des_cont_state_rr,cont_state_fl,cont_state_fr,cont_state_rl,cont_state_rr,vel_cmd_x,vel_cmd_y,vel_cmd_yaw,base_pos_x,base_pos_y,base_pos_z,base_ang_roll,base_ang_pitch,base_ang_yaw,FL_foot_pos_x,FL_foot_pos_y,FL_foot_pos_z,FR_foot_pos_x,FR_foot_pos_y,FR_foot_pos_z,RL_foot_pos_x,RL_foot_pos_y,RL_foot_pos_z,RR_foot_pos_x,RR_foot_pos_y,RR_foot_pos_z,base_vel_x,base_vel_y,base_vel_z,base_vel_roll,base_vel_pitch,base_vel_yaw,x_vel_err,y_vel_err,z_vel_err,roll_vel_err,pitch_vel_err,yaw_vel_err,cmd_err,cont_err,terr_freq,terr_height,failed,gait_id
0.002,0.0,1,1,1,1,0,0,0,0,0.0,0.0,0.0,0.0,0.0,0.31,0.0,0.0,0.0,0.18299879258108157,0.13204979837857894,0.01732525509966959,0.18299873126666114,-0.13205019373656599,0.017325256725137905,-0.1830003705275704,0.13205008495006126,0.017325255068786988,-0.18300026279432827,-0.1320499150137048,0.017325255146808466,0.0,0.0,0.0,0.0,0.0,0.0,0.0,0.0,0.0,0.0,0.0,0.0,0.0,100.0,3,0.4,0,0
0.004,0.0,1,1,1,1,0,0,0,0,0.0,0.0,0.0,-3.6936110055408213e-06,-9.352817901359982e-07,0.30999292144802876,-4.1374598376532555e-05,3.665190583390654e-05,-1.236721608035786e-05,0.18299520540665618,0.13204919150837155,0.017326835217507552,0.1829951556472118,-0.13205078989011687,0.017326837870150574,-0.18300155953263966,0.13205022094323463,0.01732683318062861,-0.18300098025888686,-0.13204974905152506,0.01732682927366394,-0.0036933399935252112,-0.0009350345911035166,-0.007078726036681067,-0.041374371730353875,0.03665216167247975,-0.012366457848267346,0.0036933399935252112,0.0009350345911035166,0.007078726036681067,0.041374371730353875,0.03665216167247975,0.012366457848267346,0.016994832432896075,100.0,3,0.4,0,0
0.006,0.0,1,1,1,1,0,0,0,0,0.0,0.0,0.0,-1.4841223943448005e-05,-4.242727407440811e-06,0.3099718541895212,-0.00018637882659961814,0.00014109615985846702,-4.60189742078187e-05,0.18298927550343277,0.13204823270230814,0.017328428295268927,0.18298963039303184,-0.1320517325893829,0.017328426582533696,-0.1830036737751127,0.1320503404157219,0.017328409702337705,-0.18300204190262967,-0.13204959698150734,0.01732840305983349,-0.0074519189329639544,-0.002369899414286219,-0.013990200054757922,-0.10362692420027264,0.06779552265556497,-0.021274399371630993,0.0074519189329639544,0.002369899414286219,0.013990200054757922,0.10362692420027264,0.06779552265556497,0.021274399371630993,0.031096217718881165,100.0,3,0.4,0,0
0.008,0.0,1,1,1,1,0,0,0,0,0.0,0.0,0.0,-3.341253246656814e-05,-1.0267635148025335e-05,0.3099374338278104,-0.0004578882662555741,0.0003053876447782766,-9.300614347448358e-05,0.18298129233639363,0.1320470477036869,0.017330037523173053,0.1829823113152702,-0.13205289537987644,0.017330026191469977,-0.18300673679898685,0.13205037808417627,0.017329984525299463,-0.18300371562275455,-0.13204951781182253,0.017329977652440015,-0.011110726721697842,-0.0036444205234742837,-0.020436720085740295,-0.16787233874830745,0.09651017821130692,-0.02566122265932567,0.011110726721697842,0.0036444205234742837,0.020436720085740295,0.16787233874830745,0.09651017821130692,0.02566122265932567,0.0404163699044978,100.0,3,0.4,0,0
0.01,0.0,1,1,1,1,1,1,1,0,0.0,0.0,0.0,-5.90465904008091e-05,-1.8657767532156112e-05,0.3098898905289566,-0.0008031809424401691,0.0005147789981228001,-0.00014515705655478896,0.18297158363921537,0.13204574850305134,0.017331662671949355,0.1829731755360483,-0.1320541655069844,0.017331639218919143,-0.18301073607449006,0.13205037426557104,0.01733156011641329,-0.18300637445280135,-0.13204947767510727,0.017331552392015948,-0.014502105097671405,-0.00471771254885476,-0.027122910576251498,-0.17739930379656343,0.11291388957229982,-0.026355813260488355,0.014502105097671405,0.00471771254885476,0.027122910576251498,0.17739930379656343,0.11291388957229982,0.026355813260488355,0.045575630907014525,25.0,3,0.4,0,0
0.012,0.0,1,1,1,1,1,1,1,1,0.0,0.0,0.0,-9.083081519876699e-05,-2.8188290866707353e-05,0.30982820347393036,-0.0011516053268156674,0.0007560796424121996,-0.00020000910246734498,0.18296040426528978,0.13204451365532793,0.017333303650380605,0.18296270576845064,-0.13205537202775075,0.017333265677234228,-0.18301572736443478,0.13205027840066064,0.017333135859721183,-0.18300999583033686,-0.13204953685675874,0.01733312992260641,-0.01724036774108059,-0.004756752997460373,-0.034593957163174795,-0.1709904187997737,0.12844075878294184,-0.028256872127196644,0.01724036774108059,0.004756752997460373,0.034593957163174795,0.1709904187997737,0.12844075878294184,0.028256872127196644,0.050253992865737604,0.0,3,0.4,0,0
0.014,0.0,1,1,1,1,1,1,1,1,0.0,0.0,0.0,-0.00012725069675170633,-3.814599954336994e-05,0.3097535458990468,-0.001494007838251592,0.0010140525739210648,-0.0002466575497485753,0.18294805120969065,0.1320434534431941,0.01733495888221681,0.18295138946733458,-0.13205641754058478,0.01733489743918004,-0.18302166273380124,0.1320498925587648,0.017334715918617627,-0.18301451767792445,-0.1320498864499023,0.017334708615082794,-0.01911047837402735,-0.005109379945205686,-0.040109241395288465,-0.1713721472203631,0.1295918990314166,-0.018050120429898092,0.01911047837402735,0.005109379945205686,0.040109241395288465,0.1713721472203631,0.1295918990314166,0.018050120429898092,0.04226997874913113,0.0,3,0.4,0,0
0.016,0.0,1,1,1,1,1,1,1,1,0.0,0.0,0.0,-0.00016740797467461492,-4.8907539366772367e-05,0.30966835392591585,-0.0018159302602047804,0.001275468826821946,-0.000272724249094809,0.18293450837475617,0.13204253907888838,0.01733662548253531,0.18293934536869072,-0.13205731738371734,0.017336536317624718,-0.18302857153301036,0.1320491575845647,0.017336301821563066,-0.18301984091833537,-0.13205059001552427,0.017336288721207543,-0.020945789390295438,-0.005520720298245702,-0.04514666167842461,-0.15052183054764506,0.1318657187570249,-0.0075807989992839175,0.020945789390295438,0.005520720298245702,0.04514666167842461,0.15052183054764506,0.1318657187570249,0.0075807989992839175,0.03404730868782506,0.0,3,0.4,0,0
0.018000000000000002,0.0,1,1,1,1,1,1,1,1,0.0,0.0,0.0,-0.0002112416213596118,-6.127400282499444e-05,0.30957320590103743,-0.002141351813267334,0.0015397332187745416,-0.00027793270869735194,0.18292003443064192,0.13204168249994663,0.017338303092877122,0.1829265073034486,-0.1320581555502832,0.01733818345168303,-0.18303641069680876,0.13204814298504033,0.017337894202029858,-0.18302615412004156,-0.13205157097637324,0.017337872126477888,-0.02274982198350956,-0.00666860203813064,-0.05008769793108644,-0.17489377431633876,0.13240670160170015,0.002892106329620823,0.02274982198350956,0.00666860203813064,0.05008769793108644,0.17489377431633876,0.13240670160170015,0.002892106329620823,0.032310530351261024,0.0,3,0.4,0,0
0.02,0.0,1,1,1,1,1,1,1,1,0.0,0.0,0.0,-0.00025863086644336994,-7.543928589948858e-05,0.30946815125665295,-0.002446372050998207,0.0018001963158045253,-0.00026912083980180375,0.18290486646771,0.1320407727215532,0.01733998860525854,0.1829128609462168,-0.13205904843383948,0.017339840752643304,-0.183045301920491,0.13204695330875982,0.017339493959831837,-0.1830336964398615,-0.13205272623884962,0.01733946047359,-0.024459396860895394,-0.007267674485796977,-0.05507849424332359,-0.13014167049535738,0.12803473379999236,0.006522353882805976,0.024459396860895394,0.007267674485796977,0.05507849424332359,0.13014167049535738,0.12803473379999236,0.006522353882805976,0.03824942522949835,0.0,3,0.4,0,0
0.022,0.0,1,1,1,1,1,1,1,1,0.0,0.0,0.0,-0.00030917082895829886,-9.129191895755677e-05,0.3093522942867138,-0.0027270076157952234,0.0020453920756986488,-0.000255920185260959,0.18288917722265904,0.13203979382506928,0.017341681090097066,0.18289855154871626,-0.13206000739927864,0.0173415077748158,-0.18305543375432845,0.13204571963362094,0.01734110342080089,-0.18304259960626054,-0.13205392415545514,0.017341056972408925,-0.02585283214995072,-0.008297407399944398,-0.060916400927376366,-0.1505194468372883,0.11712609134851336,0.00730844811285402,0.02585283214995072,0.008297407399944398,0.060916400927376366,0.1505194468372883,0.11712609134851336,0.00730844811285402,0.04145868766274914,0.0,3,0.4,0,0
0.024,0.0,1,1,1,1,1,1,1,1,0.0,0.0,0.0,-0.0003621836450186538,-0.00010806227155241762,0.30922497967348056,-0.0029972068027749005,0.002262789414428923,-0.00024433422758346723,0.1828731488124996,0.13203872411601522,0.01734337801321359,0.1828832407731482,-0.1320610606450991,0.01734318649692032,-0.18306646698698958,0.13204464564757837,0.017342721132427324,-0.18305291908409754,-0.132054962129273,0.01734266523896863,-0.02688080378587301,-0.008120653649739799,-0.0665597064806318,-0.11970453767366053,0.10023733470611426,0.004900716071682248,0.02688080378587301,0.008120653649739799,0.0665597064806318,0.11970453767366053,0.10023733470611426,0.004900716071682248,0.03990217350729506,0.0,3,0.4,0,0
0.026000000000000002,0.0,1,1,1,1,1,1,1,1,0.0,0.0,0.0,-0.00041824640876778735,-0.0001243121709427055,0.30908719075125013,-0.003201383356764533,0.002461152175064374,-0.0002433930892284137,0.18285684137998964,0.13203761675805187,0.017345077516016022,0.1828663477499269,-0.13206215986084296,0.017344886560833522,-0.18307780175805988,0.13204380805314625,0.01734434234685653,-0.18306467503397308,-0.13205577086712011,0.01734428529045587,-0.028851905022879064,-0.007714885049707704,-0.07141113909859796,-0.08447342277037191,0.09812237075908649,-0.0033415228268305923,0.028851905022879064,0.007714885049707704,0.07141113909859796,0.08447342277037191,0.09812237075908649,0.0033415228268305923,0.03990831289941736,0.0,3,0.4,0,0
0.028,0.0,1,1,1,1,1,1,1,1,0.0,0.0,0.0,-0.00047849357382932816,-0.00013907637889141983,0.3089402097841299,-0.003240908324601174,0.0026621494988345873,-0.0002547219041991434,0.1828401871020121,0.13203648222946787,0.01734677775458543,0.1828481349196732,-0.13206329213659734,0.01734661143873059,-0.1830895466493462,0.13204319177277402,0.017345963911140988,-0.18307766411484647,-0.1320563594816621,0.017345919826765976,-0.031014437981915086,-0.006590234463626495,-0.07577070691139612,0.04497785049911606,0.10291117190405306,-0.007326649103942811,0.031014437981915086,0.006590234463626495,0.07577070691139612,0.04497785049911606,0.10291117190405306,0.007326649103942811,0.04493132154948439,0.0,3,0.4,0,0
0.03,0.0,1,1,1,1,1,1,1,1,0.0,0.0,0.0,-0.0005430075610086037,-0.00015234099902235193,0.3087851845939655,-0.00316181943218525,0.0028637160377440463,-0.0002769514717801119,0.18282283562967022,0.13203527118052416,0.017348487186842593,0.18282932557860268,-0.13206449717775637,0.01734834595946541,-0.18310217532120834,0.13204267625955993,0.017347592275945845,-0.1830913423245405,-0.13205684729464345,0.017347562406862582,-0.033067082077434286,-0.0061947763129422875,-0.07947407726643994,0.03417320438782805,0.09872510776414209,-0.014258356668240794,0.033067082077434286,0.0061947763129422875,0.07947407726643994,0.03417320438782805,0.09872510776414209,0.014258356668240794,0.05352021505861737,0.0,3,0.4,0,0
0.032,0.0,1,1,1,1,1,1,1,1,0.0,0.0,0.0,-0.0006118608860251233,-0.00016524265487581627,0.30862378071465324,-0.0031215911130309322,0.0030598922042175403,-0.00030573418542872906,0.18280455385762012,0.13203412416329152,0.017350208311425253,0.18280986241788993,-0.13206563813537642,0.017350087867439995,-0.1831153204628234,0.13204203946688398,0.01734922627253782,-0.18310537009199476,-0.13205745282005862,0.01734920857662503,-0.03530386840924224,-0.0062192402653126885,-0.08217303114672057,0.006140345820996851,0.0975401290313957,-0.013910489112283297,0.03530386840924224,0.0062192402653126885,0.08217303114672057,0.006140345820996851,0.0975401290313957,0.013910489112283297,0.05543359778683823,0.0,3,0.4,0,0
0.034,0.0,1,1,1,1,1,1,1,1,0.0,0.0,0.0,-0.000685438479500805,-0.00017857155640924987,0.3084578725763,-0.003097178664636517,0.003270397204709008,-0.0003265070141473331,0.18278519613141478,0.13203300553172959,0.017351946340030705,0.18278990663147504,-0.13206673621664564,0.017351839086164667,-0.18312896852619745,0.13204109116130505,0.017350862313240928,-0.18311952867559614,-0.1320583690566803,0.017350855178003666,-0.03774382014019076,-0.00661630970780892,-0.08400811291189711,0.01833688447281609,0.11302866111599054,-0.006206500623561414,0.03774382014019076,0.00661630970780892,0.08400811291189711,0.01833688447281609,0.11302866111599054,0.006206500623561414,0.0505666304715611,0.0,3,0.4,0,0
0.036000000000000004,0.0,1,1,1,1,1,1,1,1,0.0,0.0,0.0,-0.0007627758991890523,-0.00019394885459517297,0.30828745583093436,-0.0031181736702957487,0.003499393652613758,-0.00033200317968262136,0.18276486867796843,0.13203171930782936,0.017353702653584574,0.18277004683643233,-0.13206799489196824,0.017353589936061536,-0.1831437664575197,0.1320397775040558,0.017352509968851293,-0.18313388412411738,-0.13205966167858957,0.01735249925569285,-0.039010933976866356,-0.008255942041254188,-0.08671662356732711,-0.03931416596169066,0.11598354333139375,0.0014154683483322058,0.039010933976866356,0.008255942041254188,0.08671662356732711,0.03931416596169066,0.11598354333139375,0.0014154683483322058,0.04868234436645275,0.0,3,0.4,0,0
0.038,0.0,1,1,1,1,1,1,1,1,0.0,0.0,0.0,-0.0008423775635159837,-0.0002132848833613587,0.3081110433752255,-0.0032968706673121464,0.003719122447130685,-0.0003292519530201522,0.18274403376431592,0.1320302545492085,0.017355470070467338,0.18275000589456739,-0.13206942824172702,0.017355338944640558,-0.1831594605475982,0.13203826535982058,0.017354172910417853,-0.18314881391153393,-0.13206114485602924,0.017354147980854967,-0.03994673699755621,-0.010539242073676364,-0.09004346703056523,-0.1393928487043248,0.10373541478947995,0.002028421024271251,0.03994673699755621,0.010539242073676364,0.09004346703056523,0.1393928487043248,0.10373541478947995,0.002028421024271251,0.05251440009550383,0.0,3,0.4,0,0
0.04,0.0,1,1,1,1,1,1,1,1,0.0,0.0,0.0,-0.0009240503647043479,-0.0002355606160311317,0.3079286794566488,-0.0035418925718485187,0.003923657247608903,-0.0003261116526410494,0.18272304698285863,0.13202869441184398,0.017357240127370138,0.1827294483964965,-0.1320709583436937,0.017357095490510094,-0.18317558305889328,0.13203673383146983,0.017355841660104565,-0.18316449490345849,-0.1320626403235037,0.017355807241374227,-0.04102101179709531,-0.011138160336023465,-0.0927065731796667,-0.10564103902473898,0.10078741412229647,0.001814309585547575,0.04102101179709531,0.011138160336023465,0.0927065731796667,0.10564103902473898,0.10078741412229647,0.001814309585547575,0.05397348171866635,0.0,3,0.4,0,0
0.042,0.0,1,1,1,1,1,1,1,1,0.0,0.0,0.0,-0.0010079460908525312,-0.0002587158848741878,0.3077416361458407,-0.003746872110002495,0.004118293674237217,-0.0003260351423626556,0.18270203218035752,0.13202704106175073,0.017359008015723987,0.18270840643638578,-0.1320725975645943,0.017358858423796558,-0.18319204677411371,0.1320352929004093,0.01735751464254165,-0.18318085844289303,-0.13206404758524404,0.01735747461554324,-0.042114188153597465,-0.011361219529994358,-0.09475590985656997,-0.09933853219221767,0.09384773037440716,-0.0010285703502105024,0.042114188153597465,0.011361219529994358,0.09475590985656997,0.09933853219221767,0.09384773037440716,0.0010285703502105024,0.05450397803380233,0.0,3,0.4,0,0
0.044,0.0,1,1,1,1,1,1,1,1,0.0,0.0,0.0,-0.0010946170748541593,-0.00028193257530205056,0.3075515654329505,-0.003912888171332678,0.004302992706862296,-0.00033426883997425907,0.1826811320847915,0.13202543277376605,0.017360770104515783,0.18268655891938856,-0.13207419967880707,0.01736063214861841,-0.1832085909874347,0.13203397484747426,0.01735918654817009,-0.18319818497260557,-0.1320653258701991,0.01735915490308515,-0.043747948232437175,-0.011154498870075217,-0.09576579040568739,-0.06664234355412534,0.09088205828981441,-0.00649484663169182,0.043747948232437175,0.011154498870075217,0.09576579040568739,0.06664234355412534,0.09088205828981441,0.00649484663169182,0.06139729373420422,0.0,3,0.4,0,0
0.046,0.0,1,1,1,1,1,1,1,1,0.0,0.0,0.0,-0.0011845485197776618,-0.0003039459948537847,0.30735822014758546,-0.003940421168528283,0.004480854820277269,-0.00034547175136195575,0.18266017961568798,0.13202403006653962,0.017362525721564354,0.18266397290086184,-0.13207559244339842,0.017362420915487398,-0.1832252429303794,0.13203265291325342,0.01736085601708373,-0.18321643608860122,-0.13206661503399328,0.017360850590997234,-0.045325789374264645,-0.010128549704101271,-0.09805776048248874,0.03915834696073737,0.08702319476328865,-0.0040001108619237506,0.045325789374264645,0.010128549704101271,0.09805776048248874,0.03915834696073737,0.08702319476328865,0.0040001108619237506,0.059454449940289665,0.0,3,0.4,0,0
0.048,0.0,1,1,1,1,1,1,1,1,0.0,0.0,0.0,-0.0012781526979899023,-0.00032436739279995364,0.3071616917007084,-0.0038187773344491053,0.004654059584191517,-0.00034777911402011593,0.18263897597933335,0.13202286111403191,0.01736427854814515,0.18264092894407818,-0.13207675281536468,0.0173642182697841,-0.1832420640693845,0.1320312351837036,0.01736252406082034,-0.18323525488439635,-0.1320679950239919,0.01736255559218053,-0.04737261754272445,-0.009561095876326727,-0.09897421887430806,0.08249547467325616,0.08618964013237419,0.0023685569855214574,0.04737261754272445,0.009561095876326727,0.09897421887430806,0.08249547467325616,0.08618964013237419,0.0023685569855214574,0.05930227040457263,0.0,3,0.4,0,0
0.05,0.0,1,1,1,1,1,1,1,1,0.0,0.0,0.0,-0.0013765631718679707,-0.00034374873810232574,0.306964424141636,-0.0036088478563118037,0.004826729176862443,-0.0003368011295439989,0.18261739798532992,0.13202182669250295,0.017366030915908742,0.18261737907603995,-0.13207777006675886,0.01736602224739381,-0.18325897385672413,0.13202973841486676,0.017364189219906095,-0.18325442196249234,-0.13206945362726397,0.01736426450174805,-0.05009499844665973,-0.009119431032486159,-0.09882861817356842,0.12738137026674853,0.08643845428460917,0.009254337672058336,0.05009499844665973,0.009119431032486159,0.09882861817356842,0.12738137026674853,0.08643845428460917,0.009254337672058336,0.06846876715120423,0.0,3,0.4,0,0
0.052000000000000005,0.0,1,1,1,1,1,1,1,1,0.0,0.0,0.0,-0.0014805792533493611,-0.0003627121472321515,0.3067676371740352,-0.0033425387708988343,0.005008139074509144,-0.0003170315547943698,0.182595365508653,0.13202076902149007,0.017367786680840214,0.18259347573306808,-0.13207880904703323,0.017367830353154395,-0.18327613533624282,0.13202816165263773,0.017365853574611567,-0.18327377010543458,-0.13207100667198576,0.017365970114099627,-0.05294596496904685,-0.009192059209438637,-0.09853251854421656,0.13883041408714974,0.09490177104839292,0.011145314195112483,0.05294596496904685,0.009192059209438637,0.09853251854421656,0.13883041408714974,0.09490177104839292,0.011145314195112483,0.07328333837359796,0.0,3,0.4,0,0
0.054,0.0,1,1,1,1,1,1,1,1,0.0,0.0,0.0,-0.0015901795658884153,-0.0003824073771272868,0.3065715951300412,-0.003088510229802477,0.005196837083914163,-0.00029523451365744114,0.18257296246601626,0.13201969605892586,0.01736954472967131,0.18256928958769283,-0.13207986661670526,0.017369637721522363,-0.18329359374919238,0.1320265279264598,0.0173675198877771,-0.18329335151057322,-0.1320726172145088,0.01736767503413006,-0.05564663460038489,-0.009904371658235296,-0.09812876314105012,0.11508688396911208,0.09372545546023385,0.01125600263843848,0.05564663460038489,0.009904371658235296,0.09812876314105012,0.11508688396911208,0.09372545546023385,0.01125600263843848,0.07680700889705867,0.0,3,0.4,0,0
0.056,0.0,1,1,1,1,1,1,1,1,0.0,0.0,0.0,-0.001704878499406575,-0.00040267068282537534,0.30637605882283386,-0.0028451708926216742,0.005387891225791641,-0.00027179795970565295,0.18255010725294527,0.1320186568274671,0.01737130643064444,0.1825448387650717,-0.13208089035215734,0.017371446736102303,-0.183311310028278,0.1320248565395295,0.017369186756073185,-0.18331304787006894,-0.13207426036176484,0.017369380245087773,-0.05801010294549355,-0.00980941056789217,-0.09807139167707585,0.1281283182100339,0.09725833948643633,0.012747762117237833,0.05801010294549355,0.00980941056789217,0.09807139167707585,0.1281283182100339,0.09725833948643633,0.012747762117237833,0.08056727563062355,0.0,3,0.4,0,0
0.058,0.0,1,1,1,1,1,1,1,1,0.0,0.0,0.0,-0.0018238029585075752,-0.00042298701318401523,0.3061805367141769,-0.00261931689354783,0.0055856925450021855,-0.00024521512924420563,0.18252655124303646,0.13201769510877115,0.017373076543602123,0.1825203035169529,-0.13208183571142354,0.01737325324898356,-0.1833293207313732,0.13202312319243714,0.017370856098754828,-0.18333250499907688,-0.1320759656248648,0.017371080315985554,-0.05983452089911696,-0.010001582390820973,-0.09815527730722104,0.09757970940289291,0.10047020977248118,0.014371627233071432,0.05983452089911696,0.010001582390820973,0.09815527730722104,0.09757970940289291,0.10047020977248118,0.014371627233071432,0.08420773052300937,0.0,3,0.4,0,0
0.06,0.0,1,1,1,1,1,1,1,1,0.0,0.0,0.0,-0.0019468248549588097,-0.00044318914394672523,0.3059858170729595,-0.0024657988298071505,0.005797870273155592,-0.00021259556637285695,0.18250269457359922,0.1320168545741884,0.017374853646483474,0.1824954698399206,-0.1320826608852322,0.01737505892912311,-0.18334747420376166,0.13202145653162156,0.017372525760877028,-0.18335214219221246,-0.1320776065076127,0.017372776183488536,-0.06207254484897946,-0.009731683165430449,-0.09731245812198391,0.055752408612774695,0.11162492860484922,0.018781484638664404,0.06207254484897946,0.009731683165430449,0.09731245812198391,0.055752408612774695,0.11162492860484922,0.018781484638664404,0.09058571265307432,0.0,3,0.4,0,0
0.062,0.0,1,1,1,1,1,1,1,1,0.0,0.0,0.0,-0.0020735966817985855,-0.00046202917349633235,0.3057912800238893,-0.002294256854166175,0.006015333269386858,-0.00017740922159320378,0.1824789373043315,0.13201604242994674,0.017376625238075843,0.18247026904008193,-0.1320834533944201,0.01737687036146407,-0.18336575733456548,0.13201998113371063,0.017374194513572305,-0.1833722744763235,-0.13207905496760625,0.017374477035252717,-0.06354425319560411,-0.008668269817471454,-0.09801456051328282,0.11558183235928506,0.10575248224490126,0.016928720202433377,0.06354425319560411,0.008668269817471454,0.09801456051328282,0.11558183235928506,0.10575248224490126,0.016928720202433377,0.08914124321550895,0.0,3,0.4,0,0
0.064,0.0,1,1,1,1,1,1,1,1,0.0,0.0,0.0,-0.0022039908012518325,-0.0004792017368750095,0.3055969084541405,-0.0020684515754674205,0.006225690503769199,-0.00014975020337468838,0.18245530219737324,0.13201513816346563,0.01737839121891399,0.18244494142652734,-0.13208433742108047,0.017378680230397264,-0.18338437720695164,0.13201868544566064,0.017375865417296465,-0.1833928302925041,-0.13208032636038652,0.017376180542595876,-0.0656550461468768,-0.008099733431867684,-0.09718875519442556,0.11005474581292493,0.10454334922184746,0.01118813278660246,0.0656550461468768,0.008099733431867684,0.09718875519442556,0.11005474581292493,0.10454334922184746,0.01118813278660246,0.08494291236534693,0.0,3,0.4,0,0
0.066,0.0,1,1,1,1,1,1,1,1,0.0,0.0,0.0,-0.0023377185405019205,-0.0004955707464641984,0.3054029168685343,-0.001843216478337884,0.00642103745915068,-0.0001336167469197992,0.1824318810388413,0.13201407918524488,0.01738014922087,0.1824196842822219,-0.13208537902028034,0.017380484323145873,-0.18340336030109186,0.13201753914924552,0.01737754058274152,-0.1834137110404485,-0.1320814472340578,0.017377889177645184,-0.06684097889123919,-0.007907175354645678,-0.09767636002569234,0.11507879201200998,0.09077097820660159,0.005329077248209397,0.06684097889123919,0.007907175354645678,0.09767636002569234,0.11507879201200998,0.09077097820660159,0.005329077248209397,0.08007723149409426,0.0,3,0.4,0,0
0.068,0.0,1,1,1,1,1,1,1,1,0.0,0.0,0.0,-0.0024739363718336194,-0.0005118904000579946,0.3052098279288438,-0.0016438890708218884,0.006597216073566559,-0.0001302071570505219,0.18240829735057806,0.13201285407117277,0.01738190425742331,0.18239461417402494,-0.13208658659753464,0.017382278869735035,-0.18342261391592132,0.1320164701497909,0.01737921898814207,-0.18343436390323759,-0.1320824858239925,0.017379594296403428,-0.0681151012218089,-0.008092085526081464,-0.09632341424271348,0.0842270233521366,0.08540078942095282,-0.001614570685988781,0.0681151012218089,0.008092085526081464,0.09632341424271348,0.0842270233521366,0.08540078942095282,0.001614570685988781,0.07782175743387915,0.0,3,0.4,0,0
0.07,0.0,1,1,1,1,1,1,1,1,0.0,0.0,0.0,-0.0026134653543452672,-0.0005287375661044861,0.3050198097255541,-0.0015407406630436635,0.006772058641829615,-0.00013684327254604827,0.18238440607269368,0.13201157707195588,0.0173836634899405,0.18236951766624485,-0.13208784464556395,0.017384065229956724,-0.18344198050680663,0.1320153682289393,0.01738089835281406,-0.1834548456464137,-0.1320835582785383,0.017381292141214755,-0.0701384654699362,-0.008469562752033002,-0.09464999427863806,0.01896600500423252,0.08945175464004564,-0.0047488983949814725,0.0701384654699362,0.008469562752033002,0.09464999427863806,0.01896600500423252,0.08945175464004564,0.0047488983949814725,0.08335692661695068,0.0,3,0.4,0,0
0.07200000000000001,0.0,1,1,1,1,1,1,1,1,0.0,0.0,0.0,-0.0027569679972983905,-0.0005461008803110422,0.30483254782802327,-0.0014841252605395747,0.00695448868956805,-0.00014334493884846756,0.18236036140648304,0.13201038010922506,0.01738542250494826,0.18234431607187102,-0.13208902320052013,0.01738585024548528,-0.1834613972562979,0.1320141997103801,0.017382575929384775,-0.18347541956453228,-0.1320846959809025,0.017382989108367608,-0.07207323842615093,-0.008629108299080836,-0.09361861507675824,0.03769371006304935,0.09298806861381152,-0.0014750860863790123,0.07207323842615093,0.008629108299080836,0.09361861507675824,0.03769371006304935,0.09298806861381152,0.0014750860863790123,0.08217743281161079,0.0,3,0.4,0,0
0.074,0.0,1,1,1,1,1,1,1,1,0.0,0.0,0.0,-0.002904109780109683,-0.000563436180657075,0.3046472877081072,-0.0014108297395630399,0.007138993038388053,-0.0001435311048464474,0.1823361966577161,0.13200928701416897,0.017387180056777946,0.1823191716693145,-0.132090093063051,0.017387631861169844,-0.18348099134653725,0.13201297481809832,0.017384254066095284,-0.18349608719002877,-0.1320858899849321,0.01738468548685318,-0.0737570192836878,-0.008457591736430422,-0.09269883944391498,0.035602842887996686,0.09151646758944922,0.0015558517503800533,0.0737570192836878,0.008457591736430422,0.09269883944391498,0.035602842887996686,0.09151646758944922,0.0015558517503800533,0.08377046277049827,0.0,3,0.4,0,0
0.076,0.0,1,1,1,1,1,1,1,1,0.0,0.0,0.0,-0.0030545356644670393,-0.0005804675324153642,0.30446394218331113,-0.0013385535135247001,0.00731920443421008,-0.00013720536272789747,0.18231199474128468,0.13200823239644105,0.017388935511282372,0.1822941907290106,-0.13209112373020948,0.017389407389502592,-0.18350082747690083,0.13201171187524505,0.01738593429443208,-0.18351683721493697,-0.13208711728321793,0.017386381355616876,-0.0753372164280154,-0.00834128759734854,-0.0917527264311944,0.03662733272394104,0.08868618393342781,0.005017648653732956,0.0753372164280154,0.00834128759734854,0.0917527264311944,0.03662733272394104,0.08868618393342781,0.005017648653732956,0.08869615267909689,0.0,3,0.4,0,0
0.078,0.0,1,1,1,1,1,1,1,1,0.0,0.0,0.0,-0.0032080040838086397,-0.0005974638884212927,0.3042827818377123,-0.001286344460415755,0.0074903426131121,-0.000128025160308692,0.1822877506849169,0.13200708542372738,0.01739068907504701,0.1822696242227628,-0.1320922482954311,0.01739117208497068,-0.18352115239657887,0.1320103924059106,0.017387618895467555,-0.18353759721235127,-0.13208839946326786,0.01738807620813987,-0.07678340409351009,-0.008436119375694218,-0.09056132297322765,0.015513768295696609,0.0824398821735077,0.004385260563981788,0.07678340409351009,0.008436119375694218,0.09056132297322765,0.015513768295696609,0.0824398821735077,0.004385260563981788,0.0896047840331861,0.0,3,0.4,0,0
0.08,0.0,1,1,1,1,1,1,1,1,0.0,0.0,0.0,-0.00336355231623845,-0.000615528678781552,0.30410315112899367,-0.001316109776867437,0.0076441651267500355,-0.00012002450129786014,0.18226376015940168,0.1320058264797731,0.017392438643078323,0.18224539646545135,-0.132093483355257,0.01739292532389211,-0.18354171275845196,0.13200902984573887,0.017389308467691572,-0.18355846690567842,-0.13208972893801849,0.017389769923372128,-0.07739886223807131,-0.009412684031221414,-0.09026472828562968,-0.04533962830432881,0.07137234895874342,0.0038104755406781973,0.07739886223807131,0.009412684031221414,0.09026472828562968,0.04533962830432881,0.07137234895874342,0.0038104755406781973,0.09062202180997092,0.0,3,0.4,0,0
0.082,0.0,1,1,1,1,1,1,1,1,0.0,0.0,0.0,-0.003520824687720945,-0.0006347098521547023,0.30392608167859275,-0.001375761856817326,0.007779414980920496,-0.00011474861150944111,0.18223998927267362,0.13200442558928593,0.01739417918029576,0.1822212843224678,-0.13209486388900063,0.017394672990068083,-0.1835622108650798,0.13200768075389688,0.017390996173724416,-0.1835792808221271,-0.1320910441680399,0.01739146298716071,-0.07850122246769566,-0.009547047571264587,-0.0880380379771494,-0.014353012027059327,0.0638702618787408,0.0016491616052402224,0.07850122246769566,0.009547047571264587,0.0880380379771494,0.014353012027059327,0.0638702618787408,0.0016491616052402224,0.08969743164420046,0.0,3,0.4,0,0
0.084,0.0,1,1,1,1,1,1,1,1,0.0,0.0,0.0,-0.0036800980543282066,-0.0006548484191042699,0.303752559606804,-0.0014508613648042264,0.007910324815335379,-0.00011624767731693083,0.18221632300733942,0.1320029112841175,0.017395916886247975,0.18219734779093513,-0.13209635662130678,0.01739641549902121,-0.1835827374096608,0.13200627063008183,0.017392682560570916,-0.18360002343234239,-0.1320924228749396,0.01739315236800154,-0.07940375582024677,-0.010362944628807309,-0.0867565458832621,-0.06073443598573419,0.0670417032067438,-0.0029660803323184885,0.07940375582024677,0.010362944628807309,0.0867565458832621,0.06073443598573419,0.0670417032067438,0.0029660803323184885,0.09273278078137256,0.0,3,0.4,0,0
0.08600000000000001,0.0,1,1,1,1,1,1,1,1,0.0,0.0,0.0,-0.003841069330113861,-0.000676273383035948,0.30358182473350404,-0.0015517440335838808,0.008036360185146973,-0.0001195363535306421,0.18219299554075205,0.13200143169491393,0.017397646727087657,0.18217350997744053,-0.1320978162430446,0.017398153270190952,-0.18360325059081478,0.13200477111381634,0.01739436777240591,-0.18362106786235585,-0.132093893101643,0.017394843537620386,-0.08019865529520288,-0.010822804205365065,-0.08528841947547008,-0.040122177311908466,0.058998350805215656,-0.000132377097818985,0.08019865529520288,0.010822804205365065,0.08528841947547008,0.040122177311908466,0.058998350805215656,0.000132377097818985,0.09115383659838693,0.0,3,0.4,0,0
0.088,0.0,1,1,1,1,1,1,1,1,0.0,0.0,0.0,-0.004003607081710062,-0.0006981494528040261,0.30341313708772366,-0.0015989049977049273,0.008147926008817308,-0.0001178329446372196,0.18216995723763835,0.13200013546701625,0.01739936866145056,0.18214964404724407,-0.13209909641941261,0.01739988885916599,-0.18362351404312352,0.1320032508531386,0.017396049361137728,-0.1836423100262258,-0.13209537144642214,0.01739654014784739,-0.08096617820945434,-0.010804740203754973,-0.08474327068411917,-0.007052696565189311,0.05256456943077036,0.00201317332077763,0.08096617820945434,0.010804740203754973,0.08474327068411917,0.007052696565189311,0.05256456943077036,0.00201317332077763,0.09378409173398695,0.0,3,0.4,0,0
0.09,0.0,1,1,1,1,1,1,1,1,0.0,0.0,0.0,-0.004168553280503437,-0.0007189627552780927,0.30324790911707866,-0.0015573608013584107,0.008255226870895749,-0.00010739535504300385,0.1821470895301708,0.13199907977945505,0.01740108378728969,0.1821256878960166,-0.13210013556547318,0.01740162395211836,-0.1836433223882194,0.13200175384945292,0.017397724270253295,-0.18366348771953464,-0.13209682894917632,0.017398235320658206,-0.0826171626032869,-0.009764165313971625,-0.08186470578923176,0.048510947436424146,0.05471952948971629,0.008596323069123283,0.0826171626032869,0.009764165313971625,0.08186470578923176,0.048510947436424146,0.05471952948971629,0.008596323069123283,0.10097765098638181,0.0,3,0.4,0,0
0.092,0.0,1,1,1,1,1,1,1,1,0.0,0.0,0.0,-0.004336639883647347,-0.0007379270904792589,0.3030878650804787,-0.0014319420800153534,0.00837093072111661,-8.841481198888781e-05,0.18212416883497212,0.13199810565593212,0.017402796663202574,0.18210173079876932,-0.13210109196260433,0.017403357984985324,-0.18366291729038434,0.13200030119548414,0.017399394859000605,-0.18368441752313527,-0.13209825213752863,0.017399924341262085,-0.08413145534596203,-0.008975158549845132,-0.07959941330003524,0.07674993510727543,0.06095567567329488,0.01055772253137617,0.08413145534596203,0.008975158549845132,0.07959941330003524,0.07674993510727543,0.06095567567329488,0.01055772253137617,0.10366433642718333,0.0,3,0.4,0,0
0.094,0.0,1,1,1,1,1,1,1,1,0.0,0.0,0.0,-0.004507444852557317,-0.0007559038664130956,0.30293188318102093,-0.0013051089573555056,0.008496506842883722,-6.836626482866203e-05,0.18210119635091773,0.13199715122411665,0.017404509833230136,0.18207788908385858,-0.13210203054028957,0.01740508721487563,-0.18368241540624727,0.13199886523537277,0.017401063617355023,-0.18370508897160012,-0.13209965876457958,0.01740160814691219,-0.08535064627635318,-0.008799437385517398,-0.07784199186033171,0.04991419870292851,0.06459310706851865,0.009660031997207396,0.08535064627635318,0.008799437385517398,0.07784199186033171,0.04991419870292851,0.06459310706851865,0.009660031997207396,0.10381011565907798,0.0,3,0.4,0,0
0.096,0.0,1,1,1,1,1,1,1,1,0.0,0.0,0.0,-0.004679973280826229,-0.0007735577981818072,0.30277906496436263,-0.0012006113869810384,0.008627580730806272,-4.781746308201476e-05,0.18207819469432537,0.1319961257062181,0.01740622166177347,0.1820545038425467,-0.13210303807612953,0.017406809642927734,-0.18370208423768689,0.13199741932055692,0.01740273234382214,-0.1837254005638906,-0.13210107865448378,0.017403286004372992,-0.08586210085710852,-0.008671122565223848,-0.07646984262818138,0.05440736197450112,0.06645496030922352,0.011052414954714936,0.08586210085710852,0.008671122565223848,0.07646984262818138,0.05440736197450112,0.06645496030922352,0.011052414954714936,0.10558563837704729,0.0,3,0.4,0,0
0.098,0.0,1,1,1,1,1,1,1,1,0.0,0.0,0.0,-0.004853736842652494,-0.0007917379513955042,0.3026296737105561,-0.0011854598663932204,0.008753690338689113,-3.003753542437621e-05,0.18205529481376334,0.1319949319341687,0.017407931427697004,0.1820317832393834,-0.13210420639740506,0.017408519279809687,-0.18372219929622008,0.13199599870011852,0.017404405098714354,-0.18374547419708578,-0.1321024683924196,0.01740495889022664,-0.08659603645497366,-0.009335736138706464,-0.07444749212949885,-0.03941015589340026,0.05963415625091924,0.00687141835178449,0.08659603645497366,0.009335736138706464,0.07444749212949885,0.03941015589340026,0.05963415625091924,0.00687141835178449,0.10280319094546461,0.0,3,0.4,0,0
0.1,0.0,1,1,1,1,1,1,1,1,0.0,0.0,0.0,-0.005028501784219889,-0.0008108865866637754,0.30248328172981515,-0.0012929522429958498,0.008860382145807977,-2.0071228187943064e-05,0.18203290122864388,0.13199365531244855,0.017409634326409545,0.18200945730602186,-0.13210545626235806,0.017410220017428674,-0.18374258003968283,0.13199469462431676,0.017406079852838208,-0.18376580948668417,-0.13210374004982509,0.01740663279876728,-0.08687243712860003,-0.00963400246311374,-0.0735016004906697,-0.06816986213572333,0.04704556055066763,0.003224496656260981,0.08687243712860003,0.00963400246311374,0.0735016004906697,0.06816986213572333,0.04704556055066763,0.003224496656260981,0.09973093624797476,0.0,3,0.4,0,0
0.10200000000000001,0.0,1,1,1,1,1,1,1,1,0.0,0.0,0.0,-0.005203657498373035,-0.0008297396784968089,0.3023386363248386,-0.0014109446904271782,0.008938833600535157,-1.8017907060752637e-05,0.18201128896902194,0.13199235358944986,0.017411324812330348,0.18198734778680042,-0.13210673371910733,0.017411916331276728,-0.18376288468116223,0.1319935473221763,0.01740775375867734,-0.1837865220403317,-0.13210485675436934,0.01740831016502567,-0.08698874128097125,-0.00902480105119652,-0.07272219803246294,-0.04984070736666276,0.03140327999079657,-0.0010654004562425307,0.08698874128097125,0.00902480105119652,0.07272219803246294,0.04984070736666276,0.03140327999079657,0.0010654004562425307,0.0970789427884103,0.0,3,0.4,0,0
0.10400000000000001,0.0,1,1,1,1,1,1,1,1,0.0,0.0,0.0,-0.005379264405488483,-0.0008475980127019281,0.3021969802055336,-0.0014660878671835618,0.008991632640401592,-2.4095976179004403e-05,0.18199048767949894,0.13199099627899427,0.017413002446813153,0.18196522992060926,-0.13210807091973753,0.01741361033983932,-0.18378270786251885,0.13199257583615423,0.01740942207118215,-0.1838074400572625,-0.1321058028800162,0.017409989904194123,-0.08734082863395308,-0.008631242846473755,-0.07052810606083577,-0.0052478466077517305,0.021404688721068283,-0.0049355638416009465,0.08734082863395308,0.008631242846473755,0.07052810606083577,0.0052478466077517305,0.021404688721068283,0.0049355638416009465,0.10090763532202777,0.0,3,0.4,0,0
0.106,0.0,1,1,1,1,1,1,1,1,0.0,0.0,0.0,-0.005556028183708402,-0.0008644807219068515,0.30206036206103754,-0.0014257479781954472,0.009033958258487962,-3.991942893453172e-05,0.18197003374577103,0.1319895847265507,0.017414672146306903,0.1819430198901106,-0.1321094675179278,0.0174153034605333,-0.1838021636294227,0.13199174724489496,0.01741108369384578,-0.18382832030143703,-0.13210660791864332,0.01741166979307096,-0.08818399959078912,-0.008057221927545913,-0.06770190327434994,0.045730475534496856,0.020944046140970944,-0.01082494160802721,0.08818399959078912,0.008057221927545913,0.06770190327434994,0.045730475534496856,0.020944046140970944,0.01082494160802721,0.10706616312636225,0.0,3,0.4,0,0
0.108,0.0,1,1,1,1,1,1,1,1,0.0,0.0,0.0,-0.005734508648265938,-0.0008805607350845959,0.30192776221212714,-0.0013430818009078098,0.009079111999755085,-6.349849307555475e-05,0.18194974340493683,0.1319881340697911,0.017416338905874545,0.18192063545229556,-0.13211090410470006,0.01741699727375917,-0.18382127533397538,0.13199098261999456,0.017412741561920075,-0.1838491342127686,-0.13210735029217072,0.017413347734493795,-0.08908746404270433,-0.00784616363832536,-0.06653106753954072,0.03714924681992731,0.024242115500897464,-0.012690952023140906,0.08908746404270433,0.00784616363832536,0.06653106753954072,0.03714924681992731,0.024242115500897464,0.012690952023140906,0.1096245797041706,0.0,3,0.4,0,0
0.11,0.0,1,1,1,1,1,1,1,1,0.0,0.0,0.0,-0.005914857030538323,-0.0008963821733103847,0.30179837945447163,-0.0012233838594202695,0.00913239697062318,-9.142001974133285e-05,0.18192956568382507,0.13198666346053453,0.01741800315555947,0.18189831689980682,-0.13211236126100587,0.017418690323082242,-0.18384014888049252,0.13199018926117695,0.017414395219152612,-0.18386976717738066,-0.1321081217978714,0.017415024156051923,-0.0900741585891059,-0.007820995115867311,-0.0645087412486608,0.08280293615276299,0.029079127531836817,-0.015160090084460998,0.0900741585891059,0.007820995115867311,0.0645087412486608,0.08280293615276299,0.029079127531836817,0.015160090084460998,0.11305524378943421,0.0,3,0.4,0,0
0.112,0.0,1,1,1,1,1,1,1,1,0.0,0.0,0.0,-0.006096816708864371,-0.0009124918379237585,0.30167269842777167,-0.001095951377848768,0.009190161886806436,-0.00011849655492272543,0.18190933734885717,0.13198532014316686,0.01741966783374954,0.18187647827793638,-0.13211369077394974,0.017420377245362856,-0.18385912558369186,0.13198920925126803,0.017416048785098615,-0.1838901573948938,-0.13210906233128056,0.01741669803753504,-0.09072485272174675,-0.00815998471030318,-0.06285257183296111,0.04487750682929202,0.02871684750597904,-0.011849375425750827,0.09072485272174675,0.00815998471030318,0.06285257183296111,0.04487750682929202,0.02871684750597904,0.011849375425750827,0.11073421285780076,0.0,3,0.4,0,0
0.114,0.0,1,1,1,1,1,1,1,1,0.0,0.0,0.0,-0.006280403243646807,-0.0009291861745747231,0.30155062972391133,-0.001004438396113365,0.0092418999758197,-0.00013244425572301048,0.18188914901752143,0.1319841269333606,0.017421331661886474,0.18185511469354854,-0.13211485872542075,0.01742205773139588,-0.1838781451107748,0.13198804419229113,0.01741770369384088,-0.18391035026273791,-0.13211018726472945,0.01741836861723764,-0.09172686483440523,-0.008427328450290265,-0.060920346111573515,0.04676380121456343,0.02303632260732631,-0.002043081205434796,0.09172686483440523,0.008427328450290265,0.060920346111573515,0.04676380121456343,0.02303632260732631,0.002043081205434796,0.10219727449013029,0.0,3,0.4,0,0
0.116,0.0,1,1,1,1,1,1,1,1,0.0,0.0,0.0,-0.006465303632588072,-0.0009463429632158533,0.30143225065254803,-0.0009313570780884075,0.009286315863962447,-0.00013289388121757396,0.18186904571274484,0.131983100666629,0.017422994818144966,0.1818340806480111,-0.1321158599400434,0.017423731922943525,-0.18389701524903848,0.1319867569609504,0.017419357835654764,-0.18393032584495386,-0.13211144217387302,0.017420035160031322,-0.09206668980619016,-0.00863768734762941,-0.05918311045434412,0.026321600747437654,0.02138011020338975,0.0016360717854421254,0.09206668980619016,0.00863768734762941,0.05918311045434412,0.026321600747437654,0.02138011020338975,0.0016360717854421254,0.10234044893926171,0.0,3,0.4,0,0
0.11800000000000001,0.0,1,1,1,1,1,1,1,1,0.0,0.0,0.0,-0.006651339657230383,-0.0009633621059587544,0.3013177883529595,-0.0008486209141034396,0.009329582914312073,-0.0001211301778877554,0.18184893410592715,0.13198227307436744,0.017424657148176675,0.18181315437457632,-0.13211666443409076,0.01742540296984149,-0.18391569590041149,0.13198537757278025,0.017421010731009545,-0.18395016736398528,-0.13211279004609613,0.017421698744989833,-0.09289376384022333,-0.008301576277452361,-0.05702095330811768,0.056304887286245324,0.02187662939429356,0.010166252469964051,0.09289376384022333,0.008301576277452361,0.05702095330811768,0.056304887286245324,0.02187662939429356,0.010166252469964051,0.11136159258763974,0.0,3,0.4,0,0
0.12,0.0,1,1,1,1,1,1,1,1,0.0,0.0,0.0,-0.0068387673082006845,-0.0009797833599856185,0.30120616217281326,-0.0007361052171153666,0.009377074131071916,-9.775443937761525e-05,0.18182878390404816,0.13198148589320743,0.0174263199357185,0.18179238440190978,-0.13211742730974707,0.01742707179635672,-0.18393439630699657,0.1319840081807368,0.01742266363311465,-0.1839698475114222,-0.13211413584522935,0.017423358445768228,-0.09347984188810889,-0.008050307766892173,-0.05636639457923241,0.05599214234512942,0.02559622779742581,0.013245870222736232,0.09347984188810889,0.008050307766892173,0.05636639457923241,0.05599214234512942,0.02559622779742581,0.013245870222736232,0.11477601987773728,0.0,3,0.4,0,0
0.122,0.0,1,1,1,1,1,1,1,1,0.0,0.0,0.0,-0.007027436182237802,-0.000995807325209603,0.301096640865606,-0.000648005052837189,0.009424829147090197,-7.344480245902746e-05,0.1818089182031189,0.1319806610879338,0.01742797978187338,0.18177183133365216,-0.13211823098551242,0.017428737693164054,-0.18395311631818284,0.13198276535104214,0.017424316291542924,-0.18398951231807814,-0.1321153544000954,0.017425016969194324,-0.0941497659962341,-0.007912713598254021,-0.05493479713430076,0.03187950085012143,0.022142152917311596,0.011095311987686401,0.0941497659962341,0.007912713598254021,0.05493479713430076,0.03187950085012143,0.022142152917311596,0.011095311987686401,0.11315779158217452,0.0,3,0.4,0,0
0.124,0.0,1,1,1,1,1,1,1,1,0.0,0.0,0.0,-0.007217474519417701,-0.0010111388023036933,0.30099021927499825,-0.0005721356583146946,0.009462421003519461,-5.623840224639247e-05,0.18178958183030694,0.13197970260143477,0.017429634019975493,0.18175161148608823,-0.13211916798127996,0.017430400817801506,-0.18397199807961498,0.13198168784231565,0.01742596834089022,-0.18400935163189516,-0.13211640726660842,0.017426676113841133,-0.0948741383629529,-0.0073649977418866076,-0.053286037900552016,0.04382744077211002,0.015438909142488218,0.006133729709462491,0.0948741383629529,0.0073649977418866076,0.053286037900552016,0.04382744077211002,0.015438909142488218,0.006133729709462491,0.108372865814302,0.0,3,0.4,0,0
0.126,0.0,1,1,1,1,1,1,1,1,0.0,0.0,0.0,-0.007408208368180792,-0.0010260483698446106,0.30088636253572837,-0.000511657449212272,0.009476266081029028,-5.166813291581158e-05,0.18177088623596432,0.13197855404436032,0.01743128155276022,0.1817317799691002,-0.1321203027332505,0.017432059017872925,-0.1839910296834865,0.1319808009710735,0.017427620214721246,-0.18402936482230767,-0.13211726906334623,0.017428337096636992,-0.09486692051842366,-0.0074975751538071435,-0.052380200294749234,0.016607505757118043,-0.0015964802243583576,-0.0015558369837427696,0.09486692051842366,0.0074975751538071435,0.052380200294749234,0.016607505757118043,0.0015964802243583576,0.0015558369837427696,0.10392033265597357,0.0,3,0.4,0,0
0.128,0.0,1,1,1,1,1,1,1,1,0.0,0.0,0.0,-0.007599613630484462,-0.001040747711212878,0.300785703771148,-0.000470375987537441,0.009463468305761724,-6.273099468402206e-05,0.1817528015285013,0.13197729919195136,0.017432922517894467,0.18171216898859863,-0.13212154483494362,0.017433715135663413,-0.18400991714728057,0.13198010674305216,0.017429269786188833,-0.1840494479202923,-0.1321179302266496,0.017430000325683176,-0.09557569468702999,-0.007162356415369401,-0.0500938112922282,0.02477872041613591,-0.0111959811241089,-0.009512664948000387,0.09557569468702999,0.007162356415369401,0.0500938112922282,0.02477872041613591,0.0111959811241089,0.009512664948000387,0.11225071605039978,0.0,3,0.4,0,0
0.13,0.0,1,1,1,1,1,1,1,1,0.0,0.0,0.0,-0.007791777388447586,-0.0010546706089422325,0.3006890327906203,-0.0004108046527675304,0.009435742662533109,-8.602580564435101e-05,0.1817353231597926,0.13197610612900842,0.017434558063220196,0.1816927858067925,-0.13212272557516427,0.017435368460986644,-0.1840285498408907,0.13197952428602386,0.017430916376628497,-0.18406963001628004,-0.13211848058308223,0.017431663755710147,-0.09566494017300765,-0.0067313925603571505,-0.048394830766976954,0.03501274055873289,-0.01651940512251089,-0.013793302029666393,0.09566494017300765,0.0067313925603571505,0.048394830766976954,0.03501274055873289,0.01651940512251089,0.013793302029666393,0.1161896347630312,0.0,3,0.4,0,0
0.132,0.0,1,1,1,1,1,1,1,1,0.0,0.0,0.0,-0.007984093093843382,-0.0010672388706154134,0.3005960915953422,-0.0002923011937282527,0.009394572470831752,-0.00011128292752036171,0.1817185044826029,0.13197520488347186,0.017436188922221596,0.18167351118870803,-0.13212361531412772,0.017437018384864278,-0.18404664419990432,0.1319789790051749,0.01743255899720611,-0.18408999174400253,-0.13211898113583698,0.01743332988683166,-0.09576592718473298,-0.005822412529681129,-0.046357360681066745,0.08372866500333899,-0.024641152218961095,-0.011477692762711595,0.09576592718473298,0.005822412529681129,0.046357360681066745,0.08372866500333899,0.024641152218961095,0.011477692762711595,0.11306603247712571,0.0,3,0.4,0,0
0.134,0.0,1,1,1,1,1,1,1,1,0.0,0.0,0.0,-0.00817699525465842,-0.0010775409183428355,0.3005077976919862,-3.400187806221368e-05,0.009345208812073125,-0.00012562856475867797,0.18170179254587265,0.1319745833245115,0.0174378195066906,0.18165430063451643,-0.1321242132164671,0.017438666499213218,-0.18406421627885813,0.1319783839222555,0.017434198115536537,-0.18411007969197363,-0.13211952828084933,0.01743499396052997,-0.09629919724429546,-0.0044874517600366525,-0.04374194452645084,0.17470527850133902,-0.024718401436273664,-0.0028776037317366637,0.09629919724429546,0.0044874517600366525,0.04374194452645084,0.17470527850133902,0.024718401436273664,0.0028776037317366637,0.10366425273606877,0.0,3,0.4,0,0
0.136,0.0,1,1,1,1,1,1,1,1,0.0,0.0,0.0,-0.008371341974141319,-0.0010862324928003128,0.3004243285633667,0.0002918958246005925,0.009308019549331137,-0.00012608386589759864,0.18168501034194623,0.1319740864058918,0.017439452513581144,0.18163524071884327,-0.1321246843617765,0.01744031336818777,-0.1840814953137754,0.1319777687482443,0.01743583589415512,-0.18412973632197516,-0.13212011310179858,0.017436650002369852,-0.09725946023311738,-0.004239219356389515,-0.04153501330862877,0.15119676633205886,-0.01247006100768375,0.0024255590934279658,0.09725946023311738,0.004239219356389515,0.04153501330862877,0.15119676633205886,0.01247006100768375,0.0024255590934279658,0.10392423868293486,0.0,3,0.4,0,0
0.138,0.0,1,1,1,1,1,1,1,1,0.0,0.0,0.0,-0.00856714092987907,-0.0010941975921977378,0.30034507882009626,0.0006093084399881901,0.009283232243927353,-0.00012084923514877835,0.18166836286464472,0.1319735887587453,0.017441084996490358,0.1816166438493646,-0.1321251577264252,0.017441957793218776,-0.18409878050364412,0.13197718816311083,0.01743747279697766,-0.18414904267608334,-0.13212066260345115,0.017438302636572756,-0.09779335990828758,-0.0037862626584807715,-0.03952780260382365,0.1661671958629009,-0.01231486005452195,0.0028198040531128886,0.09779335990828758,0.0037862626584807715,0.03952780260382365,0.1661671958629009,0.01231486005452195,0.0028198040531128886,0.10439942661988123,0.0,3,0.4,0,0
0.14,0.0,1,1,1,1,1,1,1,1,0.0,0.0,0.0,-0.008763963907539099,-0.0011019348375312244,0.30027016334859774,0.0008706471475671744,0.009253213968588359,-0.00011727507534775191,0.1816516584678948,0.13197288170061802,0.017442716487276744,0.1815989755121899,-0.1321258417422669,0.017443596971403325,-0.18411658383534577,0.13197656200365762,0.01743911167180842,-0.1841677617071106,-0.13212127519659816,0.017439948460362925,-0.0983258839039107,-0.004030893248587543,-0.03720281287275469,0.09513834573503806,-0.017700901492201403,0.0007781838148469401,0.0983258839039107,0.004030893248587543,0.03720281287275469,0.09513834573503806,0.017700901492201403,0.0007781838148469401,0.10313496096734519,0.0,3,0.4,0,0
0.14200000000000002,0.0,1,1,1,1,1,1,1,1,0.0,0.0,0.0,-0.008961226778454711,-0.0011114372872540177,0.30019902809702037,0.0009416513226152562,0.009207310971435234,-0.00012104046605942153,0.18163491128836626,0.13197189055287517,0.01744434766965275,0.1815821809208554,-0.132126797074929,0.01744523094852299,-0.18413487010576943,0.1319758178004898,0.017440752201518,-0.18418594008133563,-0.1321220043744028,0.017441589689181636,-0.09827082620578298,-0.005561112164929214,-0.035741445289855,-0.024099517211585347,-0.02820589811644153,-0.004498707599683534,0.09827082620578298,0.005561112164929214,0.035741445289855,0.024099517211585347,0.02820589811644153,0.004498707599683534,0.10833064597039573,0.0,3,0.4,0,0
0.14400000000000002,0.0,1,1,1,1,1,1,1,1,0.0,0.0,0.0,-0.009158189102515247,-0.0011237624155406001,0.30013077404534055,0.0008314767976641089,0.00914624775991757,-0.00013115002281550306,0.1816181365149328,0.13197068724270403,0.017445978097495013,0.18156616597091899,-0.13212795779083755,0.01744686152475558,-0.1841533960780265,0.13197488685359535,0.01744239336805037,-0.18420352207371551,-0.13212290518869346,0.0174432270891747,-0.0980552550131519,-0.006851036544854384,-0.034306273761783204,-0.08598224464781268,-0.03286650481992625,-0.0055546499403368215,0.0980552550131519,0.006851036544854384,0.034306273761783204,0.08598224464781268,0.03286650481992625,0.0055546499403368215,0.11046094149834311,0.0,3,0.4,0,0
0.146,0.0,1,1,1,1,1,1,1,1,0.0,0.0,0.0,-0.009355019140229603,-0.0011390135364760293,0.3000663501481319,0.0005756478690168151,0.00907739064356683,-0.00014245128543217026,0.18160145580495943,0.13196926572260353,0.017447607610634686,0.18155088156247992,-0.13212932840628785,0.017448489862234406,-0.18417211857906282,0.13197379002782839,0.0174440347681942,-0.1842206185647472,-0.13212396116351008,0.017444860153742248,-0.09817742087184564,-0.008473901832282431,-0.03189782336569693,-0.16974369747481077,-0.03599899877132219,-0.005695211912659082,0.09817742087184564,0.008473901832282431,0.03189782336569693,0.16974369747481077,0.03599899877132219,0.005695211912659082,0.11234653461678715,0.0,3,0.4,0,0
0.148,0.0,1,1,1,1,1,1,1,1,0.0,0.0,0.0,-0.00955147021181213,-0.0011570882019010412,0.3000055231590142,0.00019647855660274118,0.008997958386582905,-0.00015627849511020802,0.18158520108148135,0.13196768350709132,0.017449234631674276,0.1815361882817031,-0.13213085081593604,0.01745011703516247,-0.18419095568570545,0.13197272490563125,0.01744567442115086,-0.1842375473265391,-0.13212497011747545,0.0174464918709141,-0.09771314293552345,-0.009654497462541751,-0.030695343269458115,-0.20930069483684427,-0.04343840771459679,-0.008100605029971411,0.09771314293552345,0.009654497462541751,0.030695343269458115,0.20930069483684427,0.04343840771459679,0.008100605029971411,0.11546824542803662,0.0,3,0.4,0,0
0.15,0.0,1,1,1,1,1,1,1,1,0.0,0.0,0.0,-0.009747177121377324,-0.001176046304663053,0.2999477992379405,-0.000241824433112168,0.008899584652422687,-0.00017788535332726664,0.18156968850789587,0.13196617307747274,0.017450856203013176,0.18152166066857206,-0.13213232148906312,0.017451744080928117,-0.18420946128178775,0.13197181169364505,0.017447310934584015,-0.18425466426514836,-0.13212582903885473,0.01744812252988709,-0.09746611811819228,-0.009335373468342975,-0.028777925518787294,-0.22880908408189055,-0.05493386332889561,-0.013509177229492148,0.09746611811819228,0.009335373468342975,0.028777925518787294,0.22880908408189055,0.05493386332889561,0.013509177229492148,0.1203106688160274,0.0,3,0.4,0,0
0.152,0.0,1,1,1,1,1,1,1,1,0.0,0.0,0.0,-0.009942634033878251,-0.0011934473917612125,0.29989357706403924,-0.000597679806724288,0.008786248188896284,-0.0002039289265507251,0.18155518217413108,0.1319649209885145,0.017452473380412892,0.1815069538136897,-0.1321335512951772,0.01745336864976549,-0.184227275290371,0.13197104992414993,0.017448942224284864,-0.18427236195675525,-0.13212653907839428,0.01744975702217938,-0.09750027673994252,-0.00807982667741062,-0.027177576257630547,-0.1268158936635942,-0.058390492792753886,-0.012587342658277642,0.09750027673994252,0.00807982667741062,0.027177576257630547,0.1268158936635942,0.058390492792753886,0.012587342658277642,0.11816744607563079,0.0,3,0.4,0,0
0.154,0.0,1,1,1,1,1,1,1,1,0.0,0.0,0.0,-0.010138100506718971,-0.0012080250845653315,0.2998427350451692,-0.0007360197370999379,0.00865881039948535,-0.0002250614890177214,0.1815413052417755,0.13196382576209428,0.017454088634258597,0.1814923659605247,-0.13213462584997238,0.017454989872259852,-0.18424463403782335,0.1319703471960494,0.017450569943126687,-0.18429019036220493,-0.1321271986171429,0.01745139264181428,-0.09751206605583264,-0.006504874047687797,-0.025377049725849463,-0.011339344917686954,-0.06903222450202344,-0.008637485421932463,0.09751206605583264,0.006504874047687797,0.025377049725849463,0.011339344917686954,0.06903222450202344,0.008637485421932463,0.11265442552545289,0.0,3,0.4,0,0
0.156,0.0,1,1,1,1,1,1,1,1,0.0,0.0,0.0,-0.010333380228320116,-0.0012210459223816106,0.29979556373485505,-0.0007704543625913726,0.008523110002253143,-0.00024152619405985555,0.18152753646306707,0.13196284838444705,0.01745570310823219,0.18147799370133041,-0.13213558287031077,0.0174566089606569,-0.1842617117495495,0.1319696001681906,0.01745219528923664,-0.1843077258471644,-0.13212791207687571,0.01745302434801302,-0.09735203613293737,-0.006524754953094609,-0.02347995295981408,-0.022953806183365583,-0.06665584124069926,-0.00792799322040995,0.09735203613293737,0.006524754953094609,0.02347995295981408,0.022953806183365583,0.06665584124069926,0.00792799322040995,0.11180478430644193,0.0,3,0.4,0,0
0.158,0.0,1,1,1,1,1,1,1,1,0.0,0.0,0.0,-0.010528537370558266,-0.0012335912138562717,0.2997514431242352,-0.0007940519225708116,0.008392356983211391,-0.00025143640861112823,0.18151363488112937,0.13196197725606004,0.017457319327576576,0.18146391369360254,-0.13213642816468976,0.017458224695402036,-0.18427866057192682,0.13196871264623156,0.01745381987946451,-0.18432486212723978,-0.13212876634214119,0.0174546528972932,-0.09742179781559943,-0.006032845698949999,-0.022299447815291595,-0.0005595677221858246,-0.06408934236072197,-0.002085579598804107,0.09742179781559943,0.006032845698949999,0.022299447815291595,0.0005595677221858246,0.06408934236072197,0.002085579598804107,0.10554022311335354,0.0,3,0.4,0,0
0.16,0.0,1,1,1,1,1,1,1,1,0.0,0.0,0.0,-0.010724282787184394,-0.0012464383586769118,0.29971027937172423,-0.0008442048688217725,0.008268811104035656,-0.0002504379251434016,0.18149942468248348,0.13196113401899703,0.017458936736063052,0.18145025957637753,-0.13213724121395037,0.017459838649933918,-0.18429562499810515,0.1319676221360561,0.017455445695780336,-0.18434140698772414,-0.1321298273830623,0.017456276578417834,-0.09797057240932547,-0.006828406061244624,-0.02050403971307698,-0.04960138095449413,-0.05945741843424092,0.002985973806904101,0.09797057240932547,0.006828406061244624,0.02050403971307698,0.04960138095449413,0.05945741843424092,0.002985973806904101,0.1077849522774742,0.0,3,0.4,0,0
0.162,0.0,1,1,1,1,1,1,1,1,0.0,0.0,0.0,-0.010920617859291245,-0.0012606825523845467,0.29967207907035187,-0.0009806051498095427,0.008154230578789834,-0.00024026023967717782,0.18148509558805018,0.13196034132583595,0.017460554263675238,0.18143679940617752,-0.13213799552800234,0.017461450907474668,-0.18431240298710622,0.13196634184846703,0.017457071909215832,-0.18435759399275672,-0.1321310758759669,0.017457897131365863,-0.09804063622425195,-0.0074277084656676024,-0.019320197326384868,-0.08688221634087802,-0.05513243731756848,0.0070892516178551095,0.09804063622425195,0.0074277084656676024,0.019320197326384868,0.08688221634087802,0.05513243731756848,0.0070892516178551095,0.11255759630777466,0.0,3,0.4,0,0
0.164,0.0,1,1,1,1,1,1,1,1,0.0,0.0,0.0,-0.011117026578867414,-0.0012761241868333758,0.2996360987918623,-0.0011346056783716636,0.008048841487496405,-0.000220294082928896,0.18147087391295194,0.13195961906057677,0.01746217219816998,0.18142315002841608,-0.13213868266237982,0.017463061054860146,-0.18432876162654185,0.13196498237705798,0.01745869686774179,-0.18437375716679663,-0.13213240694708747,0.017459515956610855,-0.09806653506075061,-0.008019491878548881,-0.018266468840640464,-0.06727971956151597,-0.05027834277457207,0.012764119714048538,0.09806653506075061,0.008019491878548881,0.018266468840640464,0.06727971956151597,0.05027834277457207,0.012764119714048538,0.11885014665334802,0.0,3,0.4,0,0
0.166,0.0,1,1,1,1,1,1,1,1,0.0,0.0,0.0,-0.011313662225090063,-0.0012917994330294128,0.2996015403600713,-0.001220157231077328,0.007953749916868258,-0.0001938736599090956,0.18145680995071337,0.13195887821494204,0.017463789095248955,0.18140937890255893,-0.13213939404880937,0.017464670984542324,-0.1843448966480583,0.13196363168622277,0.017460319803435653,-0.18438995959317953,-0.13213373150883928,0.017461133775124843,-0.09828303449431866,-0.007653937293931435,-0.017882606626834878,-0.01848311999835454,-0.04484494307246296,0.013541392425422075,0.09828303449431866,0.007653937293931435,0.017882606626834878,0.01848311999835454,0.04484494307246296,0.013541392425422075,0.11947836421367217,0.0,3,0.4,0,0
0.168,0.0,1,1,1,1,1,1,1,1,0.0,0.0,0.0,-0.011510269149488724,-0.0013076284441070512,0.29956765144688674,-0.0012697237845242793,0.007861575332728465,-0.00016887466738826226,0.18144320092476535,0.1319580480894412,0.017465403817149172,0.18139557442923107,-0.13214019647941394,0.017466280402615414,-0.18436086894450238,0.1319623856085163,0.01746194011564739,-0.18440637430258702,-0.1321349572928198,0.017462750656018683,-0.09804688212138565,-0.008166607334911468,-0.017579656096382627,-0.03128124761884149,-0.04736047697778131,0.011342574725214993,0.09804688212138565,0.008166607334911468,0.017579656096382627,0.03128124761884149,0.04736047697778131,0.011342574725214993,0.11755606418151211,0.0,3,0.4,0,0
0.17,0.0,1,1,1,1,1,1,1,1,0.0,0.0,0.0,-0.011706225563554546,-0.001323239498365062,0.29953441590199037,-0.001273350048137786,0.007760250312595085,-0.00015194269873803847,0.18143018742268432,0.13195717315851074,0.017467014888579574,0.18138159307982343,-0.13214105760568845,0.01746789048724756,-0.1843764606408503,0.13196136583770485,0.017463556035575922,-0.18442301690394558,-0.13213595929145588,0.017464367807267678,-0.09764142550582976,-0.00743166622265154,-0.017205319373045338,0.027522377315821814,-0.05398647316890284,0.005457033043998423,0.09764142550582976,0.00743166622265154,0.017205319373045338,0.027522377315821814,0.05398647316890284,0.005457033043998423,0.11053012477247973,0.0,3,0.4,0,0
