time,trans_flag,des_cont_state_fl,des_cont_state_fr,des_cont_state_rl,des_cont_state_rr,cont_state_fl,cont_state_fr,cont_state_rl,cont_state_rr,vel_cmd_x,vel_cmd_y,vel_cmd_yaw,base_pos_x,base_pos_y,base_pos_z,base_ang_roll,base_ang_pitch,base_ang_yaw,FL_foot_pos_x,FL_foot_pos_y,FL_foot_pos_z,FR_foot_pos_x,FR_foot_pos_y,FR_foot_pos_z,RL_foot_pos_x,RL_foot_pos_y,RL_foot_pos_z,RR_foot_pos_x,RR_foot_pos_y,RR_foot_pos_z,base_vel_x,base_vel_y,base_vel_z,base_vel_roll,base_vel_pitch,base_vel_yaw,x_vel_err,y_vel_err,z_vel_err,roll_vel_err,pitch_vel_err,yaw_vel_err,cmd_err,cont_err,terr_freq,terr_height,failed,gait_id
0.002,0.0,1,1,1,1,0,0,0,0,0.0,0.0,0.0,0.0,0.0,0.31,0.0,0.0,0.0,0.1829991852274258,0.13204988015310726,0.017325254088950887,0.18299846321936558,-0.13205009232024295,0.01732525899735518,-0.18299985512336167,0.1320502122671585,0.017325255306735704,-0.18300037993400478,-0.13204978658791428,0.017325255298207803,0.0,0.0,0.0,0.0,0.0,0.0,0.0,0.0,0.0,0.0,0.0,0.0,0.0,100.0,3,0.4,0,0
0.004,0.0,1,1,1,1,0,0,0,0,0.0,0.0,0.0,-3.4825266493823144e-06,6.938295237917058e-07,0.3099946321819828,6.281176416347358e-05,4.209301889024353e-05,-1.4463645827080498e-05,0.18299663027552476,0.13204944130869548,0.017326829639800312,0.18299406414564068,-0.13205050329570292,0.017326843462134173,-0.18299963971511832,0.13205079013335924,0.01732683205688265,-0.18300140010864696,-0.1320491959947024,0.01732683204330085,-0.0034823107335721967,0.0006934419809920508,-0.00536800816980586,0.06281206856236282,0.042092564632022246,-0.014464967788577336,0.0034823107335721967,0.0006934419809920508,0.00536800816980586,0.06281206856236282,0.042092564632022246,0.014464967788577336,0.018640720503141583,100.0,3,0.4,0,0
0.006,0.0,1,1,1,1,0,0,0,0,0.0,0.0,0.0,-1.334076480924074e-05,1.8871066419900654e-06,0.30997716660268554,0.00019210194247801633,0.00016427237674676576,-5.883586932141636e-05,0.18299232706789076,0.13204863460090988,0.017328409776826564,0.1829871319824987,-0.13205128312876863,0.017328440109689397,-0.1829996476232987,0.13205171136214355,0.017328408314812277,-0.1830030038055225,-0.1320482614931885,0.01732841118652753,-0.006373753470858362,0.0004967482592090588,-0.012098904124519591,0.06648278933004656,0.08008021876633313,-0.029925059333579085,0.006373753470858362,0.0004967482592090588,0.012098904124519591,0.06648278933004656,0.08008021876633313,0.029925059333579085,0.03679556106364651,100.0,3,0.4,0,0
0.008,0.0,1,1,1,1,0,0,0,0,0.0,0.0,0.0,-2.9127234226216782e-05,2.9606866177143515e-06,0.3099467307211819,0.00032931990753107076,0.0003552402722752923,-0.00013368169100154436,0.18298638801370587,0.13204757399154604,0.017329997693929178,0.1829781414652509,-0.13205231833427042,0.017330052545104557,-0.18300013608959917,0.13205288081185312,0.017329983467054888,-0.1830052064597763,-0.13204707086054993,0.01732999393248935,-0.009404319540911026,0.0005668340905782709,-0.018341649838166385,0.07075490062761113,0.1108672846729162,-0.04497224955865212,0.009404319540911026,0.0005668340905782709,0.018341649838166385,0.07075490062761113,0.1108672846729162,0.04497224955865212,0.05494340319014142,100.0,3,0.4,0,0
0.01,0.0,1,1,1,1,1,1,1,1,0.0,0.0,0.0,-5.0822462156671896e-05,4.084581222688058e-06,0.309904449914256,0.0004520974031118508,0.0005978049869250768,-0.00022998602001379748,0.18297904728623587,0.13204661622093172,0.017331598749113997,0.182967966378127,-0.13205326064376505,0.01733167624811971,-0.18300200233425626,0.13205385828798374,0.017331557649902463,-0.18301094700758888,-0.13204586148859845,0.017331577138793186,-0.012270280884958639,0.0005361091525898454,-0.02395027103773627,0.0520682664556192,0.13165848720614445,-0.05143037642689797,0.012270280884958639,0.0005361091525898454,0.02395027103773627,0.0520682664556192,0.13165848720614445,0.05143037642689797,0.06423676646444645,0.0,3,0.4,0,0
0.012,0.0,1,1,1,1,1,1,1,1,0.0,0.0,0.0,-7.412732640847659e-05,4.6897699821306905e-06,0.30984435402241284,0.0005878084836162662,0.0008375066766801442,-0.00031259008322695215,0.1829705071122456,0.13204613214542255,0.017333211499647866,0.18295756381082168,-0.13205372730937354,0.017333309350449272,-0.18300610374361015,0.13205425434168827,0.017333135035964925,-0.18301858480094016,-0.1320452376455117,0.0173331628817541,-0.010990128603116083,3.072508091451295e-05,-0.03616244643612527,0.08370066004057018,0.10800289547161294,-0.031292891849732205,0.010990128603116083,3.072508091451295e-05,0.03616244643612527,0.08370066004057018,0.10800289547161294,0.031292891849732205,0.0423137455337628,0.0,3,0.4,0,0
0.014,0.0,1,1,1,1,1,1,1,1,0.0,0.0,0.0,-9.469386837036778e-05,4.2535140655193605e-06,0.30976145473612254,0.0007356356548017465,0.0010238407675235983,-0.00034965444485961374,0.18296083545025807,0.13204625671265613,0.017334837544821652,0.18294732647164877,-0.13205357384940603,0.017334949752155993,-0.1830122904919982,0.13205404473871318,0.017334721904174982,-0.1830255376125367,-0.13204543173147248,0.01733475861150724,-0.009498109693018054,-0.000529415393984621,-0.046755453399915166,0.06415919166853655,0.07830814281411277,-0.005894372098101286,0.009498109693018054,0.000529415393984621,0.046755453399915166,0.06415919166853655,0.07830814281411277,0.005894372098101286,0.01592189718510396,0.0,3,0.4,0,0
0.016,0.0,1,1,1,1,1,1,1,1,0.0,0.0,0.0,-0.00011193983101614836,3.7064174457477483e-06,0.3096587820579466,0.0008737925136243495,0.0011584632366123948,-0.0003350654663739016,0.18295022782210874,0.13204696345679126,0.01733647674204758,0.18293700139976352,-0.13205283675766458,0.017336599381763657,-0.1830201512590164,0.1320533570250722,0.017336321170028174,-0.18303393721558922,-0.1320461009533249,0.017336372719375742,-0.007635001853323071,-0.00010687008109939151,-0.055935407398569295,0.07397982048363218,0.05632776622339486,0.02037718390357865,0.007635001853323071,0.00010687008109939151,0.055935407398569295,0.07397982048363218,0.05632776622339486,0.02037718390357865,0.02811905583800111,0.0,3,0.4,0,0
0.018000000000000002,0.0,1,1,1,1,1,1,1,1,0.0,0.0,0.0,-0.00012575848255206616,3.901208733572349e-06,0.30953770928077073,0.0010519115507791202,0.001251817187813531,-0.00027567244091307864,0.18293847981309136,0.13204796565386637,0.017338129463129376,0.18292605013946653,-0.13205180783384882,0.017338265258942498,-0.1830294212222008,0.13205238836189329,0.017337934134469324,-0.18304355485587723,-0.13204705119786286,0.017338008742270206,-0.006037349485389477,0.0001799825031555342,-0.0651540142275204,0.10406620250593676,0.037084087889964576,0.038929003313155866,0.006037349485389477,0.0001799825031555342,0.0651540142275204,0.10406620250593676,0.037084087889964576,0.038929003313155866,0.045146335301700875,0.0,3,0.4,0,0
0.02,0.0,1,1,1,1,1,1,1,1,0.0,0.0,0.0,-0.00013789688773305756,4.0660980300671364e-06,0.30939892398091967,0.001238248998273406,0.0013283734257596436,-0.00019286731192929738,0.1829253388079168,0.1320489149343962,0.01733980367501531,0.18291383408294534,-0.13205083159966127,0.01733995041651895,-0.183039662306881,0.13205136524139255,0.01733956287865443,-0.1830539995597948,-0.13204805991490445,0.017339657068697445,-0.0059217264582400895,-0.00017767043257001393,-0.07364688740099336,0.08216433485946725,0.039568276563773055,0.0437872688799864,0.0059217264582400895,0.00017767043257001393,0.07364688740099336,0.08216433485946725,0.039568276563773055,0.0437872688799864,0.04988666577079651,0.0,3,0.4,0,0
0.022,0.0,1,1,1,1,1,1,1,1,0.0,0.0,0.0,-0.00015093302726568202,3.602935519931784e-06,0.3092446365466814,0.00139711936128648,0.001422232395344336,-0.00011140312104118158,0.18291101013875077,0.13204958260642982,0.01734149945455593,0.18290031636731954,-0.1320501427999816,0.01734165676353494,-0.18305078618472048,0.1320505319423721,0.017341203921665632,-0.1830651591207965,-0.13204887881295377,0.017341313630983596,-0.006901821135790381,-0.0004913167605759047,-0.08065760439402225,0.07659488612878496,0.05439768706063955,0.03755165909795585,0.006901821135790381,0.0004913167605759047,0.08065760439402225,0.07659488612878496,0.05439768706063955,0.03755165909795585,0.04494479699432214,0.0,3,0.4,0,0
0.024,0.0,1,1,1,1,1,1,1,1,0.0,0.0,0.0,-0.00016610413575105678,2.3459288983187748e-06,0.30907736869323993,0.0014932035581857479,0.0015339675614238768,-5.0526680138512334e-05,0.18289573628406247,0.1320498013709317,0.017343215909112475,0.1828855911263958,-0.1320499044971513,0.017343377567957063,-0.1830628561792937,0.1320500219246494,0.01734286233965701,-0.18307707492378678,-0.13204937511501408,0.017342975530902666,-0.008021611973358177,-0.0010089303917218922,-0.08663053575766726,0.019400225819753487,0.05742638402396941,0.02315983328087379,0.008021611973358177,0.0010089303917218922,0.08663053575766726,0.019400225819753487,0.05742638402396941,0.02315983328087379,0.03219037564595386,0.0,3,0.4,0,0
0.026000000000000002,0.0,1,1,1,1,1,1,1,1,0.0,0.0,0.0,-0.00018389489375097542,2.2504837777358207e-07,0.3088984322975158,0.0015027149602689107,0.001654819387629347,-2.2434019750269985e-05,0.18287959246311597,0.132049631930835,0.017344953647628225,0.1828696363036754,-0.13205004751692123,0.01734511653969384,-0.1830756765769862,0.13204974676185327,0.017344535459720006,-0.18308974538894648,-0.13204963625715144,0.0173446434361878,-0.009483411782405513,-0.0013806846691540883,-0.09233070604266883,-0.009932417351321514,0.06346771039712146,0.0047499271925396476,0.009483411782405513,0.0013806846691540883,0.09233070604266883,0.009932417351321514,0.06346771039712146,0.0047499271925396476,0.015614023644099247,0.0,3,0.4,0,0
0.028,0.0,1,1,1,1,1,1,1,1,0.0,0.0,0.0,-0.00020392289465483192,-2.971308204053991e-06,0.3087083361776537,0.001465469039327787,0.001787691351830878,-1.9993219601578837e-05,0.182862902642198,0.13204939213184633,0.017346707930809335,0.18285277907916628,-0.13205026146317103,0.017346874737529827,-0.1830891938419201,0.13204955726262116,0.017346219763104853,-0.18310338990625882,-0.13204980284376902,0.01734632558347568,-0.010216925676956623,-0.002098161423853945,-0.09779471423794472,-0.027317215951186247,0.06940788452011865,-0.0025073718625493197,0.010216925676956623,0.002098161423853945,0.09779471423794472,0.027317215951186247,0.06940788452011865,0.0025073718625493197,0.014822458963359887,0.0,3,0.4,0,0
0.03,0.0,1,1,1,1,1,1,1,1,0.0,0.0,0.0,-0.00022501022386680255,-6.147323911575068e-06,0.30850770488185936,0.001462265691556773,0.0019163524490779515,-2.318349567269294e-05,0.18284593664751495,0.13204943390645482,0.017348467764850217,0.18283548527342441,-0.1320501878042773,0.017348648850544268,-0.18310345918029836,0.1320492644721027,0.017347915913004497,-0.18311816818783147,-0.13205007223163368,0.017348030717450363,-0.010498400216390398,-0.0013720526700617762,-0.10287044394378247,0.02411968834342901,0.05924848901285296,-0.0008679454368384359,0.010498400216390398,0.0013720526700617762,0.10287044394378247,0.02411968834342901,0.05924848901285296,0.0008679454368384359,0.01273839832329061,0.0,3,0.4,0,0
0.032,0.0,1,1,1,1,1,1,1,1,0.0,0.0,0.0,-0.0002458760823875566,-7.91777036486658e-06,0.30829721476568495,0.0015533482687321652,0.0020219924574758075,-1.011792382051998e-05,0.18282864704963736,0.13205001207847478,0.017350230953636803,0.1828180822581736,-0.13204957551867388,0.017350435639018447,-0.18311841737389548,0.13204870450721065,0.01734962070497481,-0.1831338967166339,-0.1320505996878675,0.01734976554755968,-0.009952640131429978,-0.000716400282035086,-0.10765744471462922,0.0669363038681502,0.04641149011150899,0.013777038875265048,0.009952640131429978,0.000716400282035086,0.10765744471462922,0.0669363038681502,0.04641149011150899,0.013777038875265048,0.024446079288730112,0.0,3,0.4,0,0
0.034,0.0,1,1,1,1,1,1,1,1,0.0,0.0,0.0,-0.00026592862536364424,-7.772652891679664e-06,0.30807814252940446,0.0017513429948350216,0.0021037640716903283,3.7110752579453585e-05,0.18281076266623106,0.13205117751884593,0.017352000513620236,0.18280070819673025,-0.1320483680152559,0.01735223345901654,-0.18313397037594872,0.13204782383712102,0.01735132985009824,-0.18315011982650303,-0.13205144708376354,0.017351522883416987,-0.009647754622627598,0.0004993549204516684,-0.11145574155148308,0.13095993697459826,0.035438476699430295,0.03332006366122476,0.009647754622627598,0.0004993549204516684,0.11145574155148308,0.13095993697459826,0.035438476699430295,0.03332006366122476,0.04346717320430403,0.0,3,0.4,0,0
0.036000000000000004,0.0,1,1,1,1,1,1,1,1,0.0,0.0,0.0,-0.00028633756959058987,-5.5592302438317505e-06,0.307853085596109,0.002008255331834997,0.002175312939199925,0.00012227075350002364,0.1827922824476931,0.13205271684413789,0.017353780877957137,0.18278312728758328,-0.13204678297426606,0.017354039584161235,-0.18314994263667153,0.1320467455332746,0.01735304289491993,-0.18316668627553798,-0.13205249415007722,0.01735328835001354,-0.010279335320846841,0.001292293281432705,-0.11364823450519211,0.12576957309911083,0.0362729284016737,0.051704801499711274,0.010279335320846841,0.001292293281432705,0.11364823450519211,0.12576957309911083,0.0362729284016737,0.051704801499711274,0.06327643010199083,0.0,3,0.4,0,0
0.038,0.0,1,1,1,1,1,1,1,1,0.0,0.0,0.0,-0.0003082562262922051,-1.8495847157265808e-06,0.30762348198029654,0.00229977914238876,0.002247848872306557,0.00022993455200536538,0.18277322053137857,0.13205429053305512,0.017355569291561318,0.18276478103082594,-0.13204516558698995,0.017355861313154586,-0.18316607065526097,0.13204572930835673,0.017354755235974434,-0.18318356304986455,-0.1320534762235856,0.017355059337218454,-0.011130705827059823,0.001926232689536099,-0.11601088527301893,0.16551599274695064,0.0364932060063374,0.05580365486088551,0.011130705827059823,0.001926232689536099,0.11601088527301893,0.16551599274695064,0.0364932060063374,0.05580365486088551,0.06886059337748143,0.0,3,0.4,0,0
0.04,0.0,1,1,1,1,1,1,1,1,0.0,0.0,0.0,-0.0003325803193771088,2.4747112877996387e-06,0.3073892832012034,0.0026164480537733447,0.002338166341714132,0.00033521204807169397,0.18275335879937873,0.1320555770547513,0.01735737364257134,0.1827455014057808,-0.1320438367392232,0.017357696356142815,-0.1831824251733364,0.1320449157852548,0.017356471069630508,-0.18320051138552804,-0.13205426835614775,0.01735682185672277,-0.01265498301138878,0.001828827124876017,-0.11825304617228001,0.15091273706476344,0.05408250378014754,0.04924779225502522,0.01265498301138878,0.001828827124876017,0.11825304617228001,0.15091273706476344,0.05408250378014754,0.04924779225502522,0.06373160239129003,0.0,3,0.4,0,0
0.042,0.0,1,1,1,1,1,1,1,1,0.0,0.0,0.0,-0.00036047302381333573,6.246872133788464e-06,0.3071508929056615,0.002871640867919798,0.002457321445330729,0.0004192416348785495,0.18273306960789584,0.13205649449099227,0.017359192669278573,0.18272520569383674,-0.13204290910220282,0.017359537825838545,-0.18319894932530584,0.13204449666170545,0.01735819279104195,-0.18321778697174076,-0.13205466731848242,0.017358578092941168,-0.014664521966003638,0.0012993415514473386,-0.12021297706158818,0.10407994829138448,0.06530280480603746,0.03445004431387102,0.014664521966003638,0.0012993415514473386,0.12021297706158818,0.10407994829138448,0.06530280480603746,0.03445004431387102,0.05041390783132199,0.0,3,0.4,0,0
0.044,0.0,1,1,1,1,1,1,1,1,0.0,0.0,0.0,-0.0003916000572111423,1.0334601921292292e-05,0.3069083574833331,0.0031025504462768596,0.002595553717029686,0.00047197987785096876,0.18271269114961133,0.13205712967620745,0.01736101557057959,0.1827039887081629,-0.13204226144781628,0.017361394521793583,-0.1832153850313002,0.1320443948277162,0.01735991457422434,-0.18323546200021443,-0.13205474269303222,0.017360333958727353,-0.01584766440483326,0.0020773097795696712,-0.122411650340303,0.12669774034460252,0.07308387966498292,0.017875550002372835,0.01584766440483326,0.0020773097795696712,0.122411650340303,0.12669774034460252,0.07308387966498292,0.017875550002372835,0.03580052418677577,0.0,3,0.4,0,0
0.046,0.0,1,1,1,1,1,1,1,1,0.0,0.0,0.0,-0.00042569712469517666,1.4766600470342373e-05,0.3066636527406161,0.0033707949668686783,0.002747944644430733,0.0004996658620875318,0.18269207117014802,0.1320575981149559,0.017362836899454392,0.1826824059348985,-0.13204174361869803,0.01736326071715033,-0.1832319343522958,0.13204430846507506,0.017361633889299788,-0.1832532702497164,-0.13205480021205307,0.017362087201514914,-0.017593342904872092,0.001578936345179123,-0.12239649739115462,0.1414735480791688,0.07939451150975944,0.009317232157269352,0.017593342904872092,0.001578936345179123,0.12239649739115462,0.1414735480791688,0.07939451150975944,0.009317232157269352,0.028489511407320568,0.0,3,0.4,0,0
0.048,0.0,1,1,1,1,1,1,1,1,0.0,0.0,0.0,-0.0004630006463147554,1.8056843703665625e-05,0.3064187368191972,0.003622726806426167,0.002907705858548937,0.0005196736643515685,0.18267084456569993,0.13205810693364425,0.017364664679842184,0.18266074795045792,-0.13204118954867122,0.017365124404774557,-0.18324859790166467,0.1320440759675774,0.017363351130504467,-0.18327077843659545,-0.13205499856740682,0.0173638347636825,-0.019015757005225422,0.0008735067430467299,-0.12263402896215905,0.11040165768863898,0.08043609278147523,0.010129107948126773,0.019015757005225422,0.0008735067430467299,0.12263402896215905,0.11040165768863898,0.08043609278147523,0.010129107948126773,0.030018371696398927,0.0,3,0.4,0,0
0.05,0.0,1,1,1,1,1,1,1,1,0.0,0.0,0.0,-0.0005028957551502749,2.0407623300305174e-05,0.30617432539040557,0.003818307247144669,0.0030850483034814413,0.0005481892636124593,0.1826489684538364,0.13205877079242,0.017366504026168073,0.1826390018944994,-0.13204048791180478,0.017366987467374445,-0.18326524804805047,0.13204369185395862,0.017365061960081446,-0.1832878880690721,-0.13205535158076975,0.01736556890967128,-0.02014563284930001,0.0005888694146882205,-0.12190304694757242,0.08509289629971244,0.09701231179400512,0.01772249619178375,0.02014563284930001,0.0005888694146882205,0.12190304694757242,0.08509289629971244,0.09701231179400512,0.01772249619178375,0.03845699845577198,0.0,3,0.4,0,0
0.052000000000000005,0.0,1,1,1,1,1,1,1,1,0.0,0.0,0.0,-0.0005451300988067811,2.269867502790121e-05,0.30593078732505036,0.003973879747138107,0.003285586166551946,0.0005892215563439404,0.18262680425788658,0.1320595828131654,0.01736834904914622,0.18261714718492156,-0.1320396378997342,0.0173688497921706,-0.18328197638783206,0.13204326554064574,0.017366768630443175,-0.18330500728645727,-0.13205574325618183,0.01736729670643522,-0.021311450956695677,0.0007768531567707498,-0.12177561215376438,0.0703485547635668,0.10368456391274385,0.02252596663588792,0.021311450956695677,0.0007768531567707498,0.12177561215376438,0.0703485547635668,0.10368456391274385,0.02252596663588792,0.04461427074935435,0.0,3,0.4,0,0
0.054,0.0,1,1,1,1,1,1,1,1,0.0,0.0,0.0,-0.000589755290511074,2.5760389759392794e-05,0.30568759237615645,0.004136282667608908,0.0034924908690667777,0.0006380051032218051,0.18260464284938002,0.1320604193778316,0.017370190048223544,0.182595227214041,-0.13203876692604458,0.017370709874683782,-0.1832988688653034,0.13204288845844317,0.017368472938303348,-0.18332233979068055,-0.13205608468307395,0.017369023784927717,-0.022487408813807876,0.0013254827477334518,-0.12157986407708878,0.09188872996119585,0.1034159756314031,0.025420138350626207,0.022487408813807876,0.0013254827477334518,0.12157986407708878,0.09188872996119585,0.1034159756314031,0.025420138350626207,0.049233029912167534,0.0,3,0.4,0,0
0.056,0.0,1,1,1,1,1,1,1,1,0.0,0.0,0.0,-0.0006368543816452223,2.9333587753190646e-05,0.3054449995032647,0.0043074483885431865,0.003693278414577339,0.0006852740539239138,0.1825824570464563,0.13206116700378084,0.017372025561405102,0.18257325979393368,-0.13203798551837612,0.017372562988026752,-0.18331601267907183,0.1320425636491514,0.01737017951726319,-0.18333986298654853,-0.1320563833933369,0.017370748947866665,-0.02373743776738028,0.0012540083361532056,-0.12119383093011933,0.0791074673714893,0.09756926063872089,0.020999606094119463,0.02373743776738028,0.0012540083361532056,0.12119383093011933,0.0791074673714893,0.09756926063872089,0.020999606094119463,0.045991052197652954,0.0,3,0.4,0,0
0.058,0.0,1,1,1,1,1,1,1,1,0.0,0.0,0.0,-0.0006865126658740459,3.26765613011517e-05,0.3052028488831964,0.00445800265543953,0.0038868654372810063,0.0007265279561339259,0.18256031073373272,0.13206185200909878,0.01737385653670251,0.18255127480962444,-0.13203725963557664,0.017374410570364512,-0.1833331615456798,0.13204222652682787,0.01737188518088517,-0.1833574235000298,-0.13205669456005373,0.01737247169404263,-0.02500035901577004,0.0010619211178923608,-0.12115583617735011,0.07129057096001334,0.09619674360958758,0.01940451353384012,0.02500035901577004,0.0010619211178923608,0.12115583617735011,0.07129057096001334,0.09619674360958758,0.01940451353384012,0.04546679366750252,0.0,3,0.4,0,0
0.06,0.0,1,1,1,1,1,1,1,1,0.0,0.0,0.0,-0.0007384119293624162,3.549895838942816e-05,0.30496265802017053,0.004607603192717364,0.00407934951756328,0.000765944020163455,0.18253809760463482,0.1320625348886595,0.01737568101836348,0.18252946004320802,-0.13203653696772336,0.017376249971153362,-0.18335027158735692,0.13204175804846593,0.017373585436652905,-0.18337478302559027,-0.13205713274565642,0.017374188433241206,-0.02593985892997968,0.0007096733654630263,-0.11925039809548331,0.0781529985584964,0.09646387054433903,0.01913898468475026,0.02593985892997968,0.0007096733654630263,0.11925039809548331,0.0781529985584964,0.09646387054433903,0.01913898468475026,0.04578851698019297,0.0,3,0.4,0,0
0.062,0.0,1,1,1,1,1,1,1,1,0.0,0.0,0.0,-0.000792535225741031,3.730262353538973e-05,0.3047257534666236,0.004734516749654244,0.004274714998544482,0.0008107087093497935,0.1825154577273789,0.13206323061892972,0.017377507192639474,0.18250773658507805,-0.13203580197531103,0.01737807960040033,-0.18336735118275457,0.13204112080764008,0.017375281306758444,-0.1833917034762473,-0.13205774268219825,0.01737589422539626,-0.027192119973465864,2.9114754979161117e-05,-0.11788427514362786,0.04857308826416015,0.09910957668763104,0.024709205026089465,0.027192119973465864,2.9114754979161117e-05,0.11788427514362786,0.04857308826416015,0.09910957668763104,0.024709205026089465,0.05193043975453449,0.0,3,0.4,0,0
0.064,0.0,1,1,1,1,1,1,1,1,0.0,0.0,0.0,-0.0008494043211914432,3.790699130190577e-05,0.3044918881351757,0.004802881846188641,0.0044863907897010336,0.0008632321320644981,0.18249248235568286,0.13206398099049124,0.01737933761519217,0.18248584809388654,-0.13203501337894533,0.017379905833252524,-0.183384132381211,0.13204038367506338,0.017376968022818157,-0.1834082535038768,-0.13205845670772104,0.01737758693394717,-0.028651636942719334,-0.0004934686893662754,-0.11622851284594403,0.0195620585469862,0.11281509117190901,0.026800161309710278,0.028651636942719334,0.0004934686893662754,0.11622851284594403,0.0195620585469862,0.11281509117190901,0.026800161309710278,0.055945266941795885,0.0,3,0.4,0,0
0.066,0.0,1,1,1,1,1,1,1,1,0.0,0.0,0.0,-0.0009091972961136618,3.8075697512699445e-05,0.3042613627636422,0.00486825124849959,0.004721612397297514,0.0009225000121613011,0.18246921356616638,0.1320647787147806,0.017381168762474586,0.18246409190692647,-0.13203417690018135,0.017381728007772712,-0.1834009203693959,0.13203954415273014,0.01737864680968565,-0.18342447319033767,-0.13205927474303927,0.01737926967665812,-0.03007938738224954,-0.0004003800921964757,-0.11456824914280678,0.04553422839288336,0.12268974859297464,0.031331709463424236,0.03007938738224954,0.0004003800921964757,0.11456824914280678,0.04553422839288336,0.12268974859297464,0.031331709463424236,0.06181147693787025,0.0,3,0.4,0,0
0.068,0.0,1,1,1,1,1,1,1,1,0.0,0.0,0.0,-0.0009716212498941122,3.780157908114751e-05,0.3040338874918066,0.00488825622121042,0.004966600705953894,0.000987959198265346,0.18244590186321594,0.13206556875969516,0.017382998743531386,0.18244280534487423,-0.13203335074480374,0.017383533113499938,-0.18341801358574752,0.13203860986633506,0.01738032888069327,-0.18344053373138572,-0.13206018778637185,0.01738094452549363,-0.031242341934757813,-0.0009251945480051001,-0.1132031246867246,-0.025846543211739553,0.12261727566474809,0.03292206522996593,0.031242341934757813,0.0009251945480051001,0.1132031246867246,0.025846543211739553,0.12261727566474809,0.03292206522996593,0.06508960171272885,0.0,3,0.4,0,0
0.07,0.0,1,1,1,1,1,1,1,1,0.0,0.0,0.0,-0.0010357555159671984,3.678168027169089e-05,0.3038090614009691,0.004836742764477684,0.005200174012491177,0.0010569921171474518,0.18242299034108528,0.13206639303044496,0.01738481513786258,0.18242176307784283,-0.1320324995664366,0.017385325267442436,-0.1834350979307012,0.13203771261895522,0.01738201028342412,-0.18345672985825454,-0.13206106287721067,0.01738261814534675,-0.031749386874494585,-0.0011239150074123004,-0.11193884835212844,-0.02601845726933683,0.111288889042026,0.03497308630884735,0.031749386874494585,0.0011239150074123004,0.11193884835212844,0.02601845726933683,0.111288889042026,0.03497308630884735,0.06784638819075424,0.0,3,0.4,0,0
0.07200000000000001,0.0,1,1,1,1,1,1,1,1,0.0,0.0,0.0,-0.0011015115515278658,3.6214443811374684e-05,0.3035876347017741,0.0048095621648867526,0.005418413362380026,0.0011251270429332822,0.18240042637286447,0.1320672137134608,0.017386617059790166,0.18240080421787605,-0.13203165130677713,0.017387109055885225,-0.18345202153313792,0.1320369782685837,0.01738368555204184,-0.18347293402705608,-0.13206176926774482,0.017384289477292314,-0.03283089599081563,-0.0004412029657661264,-0.10982899032439188,-0.0015237105635434282,0.10727575944100308,0.03211011082075623,0.03283089599081563,0.0004412029657661264,0.10982899032439188,0.0015237105635434282,0.10727575944100308,0.03211011082075623,0.065382209777338,0.0,3,0.4,0,0
0.074,0.0,1,1,1,1,1,1,1,1,0.0,0.0,0.0,-0.001169523602876028,3.684460158640338e-05,0.30337047138781753,0.004804702682190463,0.0056311445765138135,0.0011863793681417159,0.1823783868575934,0.13206803332760847,0.017388403607564024,0.1823797742836539,-0.13203080072457998,0.017388886772886802,-0.18346860810112006,0.13203648512446614,0.017385353513557272,-0.18348925358211804,-0.13206223177715296,0.017385956582590456,-0.03397978039652375,0.00010426794011518037,-0.10770777057637172,-0.0036737967353909417,0.10574751421418466,0.02811771582545083,0.03397978039652375,0.00010426794011518037,0.10770777057637172,0.0036737967353909417,0.10574751421418466,0.02811771582545083,0.062201764162089765,0.0,3,0.4,0,0
0.076,0.0,1,1,1,1,1,1,1,1,0.0,0.0,0.0,-0.0012399301171842252,3.927484742089405e-05,0.30315806097366477,0.004864030850745125,0.005839225806274717,0.0012371042359312799,0.18235688132182706,0.13206885533509247,0.01739017196237777,0.1823585887848061,-0.13202994383875236,0.017390662694523606,-0.18348478950722655,0.13203626845404884,0.017387009856917462,-0.1835057042811136,-0.13206242487946218,0.017387621382379398,-0.0352046119122153,0.0013825678672740706,-0.10511276608811253,0.06271164946418992,0.10257465916805877,0.021606796534347834,0.0352046119122153,0.0013825678672740706,0.10511276608811253,0.06271164946418992,0.10257465916805877,0.021606796534347834,0.05819397631383721,0.0,3,0.4,0,0
0.078,0.0,1,1,1,1,1,1,1,1,0.0,0.0,0.0,-0.001312634330827446,4.37885103400695e-05,0.3029502178304339,0.005001463459661035,0.0060452161762873935,0.001276649227960581,0.1823357898638221,0.1320697049602321,0.017391927042565758,0.1823373738954681,-0.13202905484598715,0.017392433741125424,-0.1835006663601791,0.1320363092413625,0.01738865849765553,-0.18352216359833443,-0.13206235731990498,0.017389282373228676,-0.036257728918156554,0.002195222743745695,-0.10317904308416544,0.07448647810510324,0.10360771792300717,0.0169220650624753,0.036257728918156554,0.002195222743745695,0.10317904308416544,0.07448647810510324,0.10360771792300717,0.0169220650624753,0.05537501672437754,0.0,3,0.4,0,0
0.08,0.0,1,1,1,1,1,1,1,1,0.0,0.0,0.0,-0.0013876959694118071,5.051869630977222e-05,0.30274714226241656,0.005185199753063764,0.006249388175351589,0.001306693390832388,0.1823151518952452,0.13207056295179037,0.01739366726512251,0.18231634032748575,-0.13202815454269812,0.01739419655310856,-0.18351630070402536,0.1320365520452287,0.017390300921848123,-0.18353853357755684,-0.13206208068603287,0.01739093852453813,-0.03754564191556499,0.0035954422020175606,-0.1003864524340508,0.10906557745023274,0.10071370905519665,0.012085027576852807,0.03754564191556499,0.0035954422020175606,0.1003864524340508,0.10906557745023274,0.10071370905519665,0.012085027576852807,0.053226111694435356,0.0,3,0.4,0,0
0.082,0.0,1,1,1,1,1,1,1,1,0.0,0.0,0.0,-0.001464888201999889,5.8957976711649647e-05,0.30254969653834557,0.005388626499235427,0.00644739989352483,0.0013281310433805565,0.18229477883429673,0.13207138923188716,0.017395398073469404,0.18229580007051605,-0.13202728237846872,0.017395943550914034,-0.18353193972897888,0.13203686089441918,0.01739194026041138,-0.18355463288321547,-0.13206174007057542,0.01739258807260799,-0.03838066995678339,0.0038992557793038726,-0.09758776982343821,0.09422541516254075,0.09740834525692017,0.008303893467953774,0.03838066995678339,0.0038992557793038726,0.09758776982343821,0.09422541516254075,0.09740834525692017,0.008303893467953774,0.050583819204041036,0.0,3,0.4,0,0
0.084,0.0,1,1,1,1,1,1,1,1,0.0,0.0,0.0,-0.0015435670639244799,6.779261959077557e-05,0.3023574846599432,0.005545957478124581,0.0066354586445032115,0.0013465457212330782,0.18227434989369065,0.13207215714493362,0.0173971232123587,0.18227585650504838,-0.13202647448327462,0.017397672735295716,-0.18354770127943673,0.13203711371549437,0.01739357947948969,-0.183570196468371,-0.1320614676184223,0.01739422760730605,-0.03902751814776691,0.003986996692000828,-0.09518065238865096,0.06298497494126239,0.09074860356379565,0.009079532696239985,0.03902751814776691,0.003986996692000828,0.09518065238865096,0.06298497494126239,0.09074860356379565,0.009079532696239985,0.052094047536007715,0.0,3,0.4,0,0
0.08600000000000001,0.0,1,1,1,1,1,1,1,1,0.0,0.0,0.0,-0.0016241846400740555,7.574038491902316e-05,0.30217069893788007,0.005594450998166227,0.00682091859868561,0.0013649630479408614,0.18225384889068655,0.13207286414164218,0.01739884787952814,0.18225652470370604,-0.1320257257758064,0.01739938360016763,-0.18356351049107078,0.13203717319758396,0.01739521785172146,-0.18358520883666854,-0.13206139295561903,0.017395855303012908,-0.04032095072388513,0.003026591198254809,-0.09218524589876909,-0.014615261411001283,0.09481171446187008,0.008296748983958298,0.04032095072388513,0.003026591198254809,0.09218524589876909,0.014615261411001283,0.09481171446187008,0.008296748983958298,0.051644290906098234,0.0,3,0.4,0,0
0.088,0.0,1,1,1,1,1,1,1,1,0.0,0.0,0.0,-0.0017065251483681708,8.182094325446473e-05,0.30198947076776234,0.0055483176225799595,0.007005521469799936,0.0013898558227066016,0.1822336350209177,0.13207358726850088,0.01740056449095098,0.18223765681423154,-0.13202496099324854,0.017401080807125102,-0.18357922469761329,0.1320370000648242,0.017396853281603286,-0.18360009336369773,-0.13206154787181457,0.017397477688571777,-0.04075652232780868,0.002154394748202393,-0.08963951723493455,-0.03169093153437949,0.0899270102481096,0.015564866064973149,0.04075652232780868,0.002154394748202393,0.08963951723493455,0.03169093153437949,0.0899270102481096,0.015564866064973149,0.05847578314098422,0.0,3,0.4,0,0
0.09,0.0,1,1,1,1,1,1,1,1,0.0,0.0,0.0,-0.001790270302298901,8.624098037849311e-05,0.3018132137672633,0.005504169865690246,0.007179383545679041,0.0014249385049943646,0.1822138687551473,0.1320743252504314,0.01740226761984706,0.1822191429618588,-0.1320241827787847,0.017402768798918666,-0.18359475394284627,0.13203665310948492,0.017398483670131526,-0.18361499223013655,-0.13206187631971258,0.017399098102723137,-0.04173036074031772,0.0014061029817256062,-0.0872294380836161,-0.012706004786290095,0.08412589009571395,0.01855712230764913,0.04173036074031772,0.0014061029817256062,0.0872294380836161,0.012706004786290095,0.08412589009571395,0.01855712230764913,0.06169358602969245,0.0,3,0.4,0,0
0.092,0.0,1,1,1,1,1,1,1,1,0.0,0.0,0.0,-0.0018759195598824481,8.937102741799501e-05,0.3016424174424956,0.00549574167766635,0.007340405729709287,0.0014673411902359167,0.1821942976434342,0.13207508981778243,0.01740395970561212,0.18220100252463542,-0.13202337860690744,0.017404446593293765,-0.18361001690888082,0.13203615508202554,0.01740010785208379,-0.18362955377233664,-0.13206235437655492,0.01740071485526254,-0.04267232638196448,0.000904996531813352,-0.08419953366791533,0.003969480222833581,0.07712669869408981,0.02295950772118033,0.04267232638196448,0.000904996531813352,0.08419953366791533,0.003969480222833581,0.07712669869408981,0.02295950772118033,0.06653683063495816,0.0,3,0.4,0,0
0.094,0.0,1,1,1,1,1,1,1,1,0.0,0.0,0.0,-0.0019639589532412316,9.147017070120537e-05,0.3014783095232842,0.005482203443035995,0.007501998847421643,0.0015173061039965897,0.1821747673402798,0.13207594890414015,0.017405645620912596,0.18218305550936278,-0.13202247820187074,0.017406116733602067,-0.18362477399637908,0.13203555032297742,0.017401724591217332,-0.1836435739219422,-0.1320629389026962,0.01740232236942435,-0.04414385139877949,0.0004211645876465894,-0.08056707895033476,-0.017878579714704385,0.08473874596215175,0.026114586527130362,0.04414385139877949,0.0004211645876465894,0.08056707895033476,0.017878579714704385,0.08473874596215175,0.026114586527130362,0.07067960251355646,0.0,3,0.4,0,0
0.096,0.0,1,1,1,1,1,1,1,1,0.0,0.0,0.0,-0.002054716942072684,9.33527926874434e-05,0.30132161954201175,0.005474210563557794,0.0076797231361629414,0.0015751914467113267,0.18215560053980734,0.1320769850027827,0.01740732409491863,0.18216526584843584,-0.13202139841406918,0.017407782494520158,-0.18363906073603753,0.1320349345281401,0.01740333141672673,-0.18365745112163834,-0.1320635347478942,0.017403924184607455,-0.045419428054855895,0.0007396549914035704,-0.07681612323805354,0.009446131639738719,0.09329917582947987,0.030797082944304336,0.045419428054855895,0.0007396549914035704,0.07681612323805354,0.009446131639738719,0.09329917582947987,0.030797082944304336,0.0769561659905638,0.0,3,0.4,0,0
0.098,0.0,1,1,1,1,1,1,1,1,0.0,0.0,0.0,-0.00214724592458142,9.633351287368952e-05,0.30117084504366637,0.005537411624819807,0.007859013119186464,0.0016411945716692776,0.182136841069505,0.13207812496060953,0.017408992136716234,0.18214786368824365,-0.1320202189106626,0.017409441828608208,-0.1836532294373922,0.13203434204879066,0.017404933291301883,-0.18367127281994242,-0.13206410659119278,0.017405523687886587,-0.045930602853150135,0.0015558376122495278,-0.07468767738784668,0.05324159865396667,0.08635016125837744,0.03422006963458788,0.045930602853150135,0.0015558376122495278,0.07468767738784668,0.05324159865396667,0.08635016125837744,0.03422006963458788,0.08170651009998754,0.0,3,0.4,0,0
0.1,0.0,1,1,1,1,1,1,1,1,0.0,0.0,0.0,-0.0022411840401920665,0.0001002047199529204,0.3010250372305621,0.005620312428498269,0.00802561416497305,0.001710071647060715,0.1821184895840309,0.13207925431423223,0.0174106508399815,0.1821308874005119,-0.13201904997186825,0.01741109037583491,-0.1836672128532272,0.13203380009092286,0.01740653371220452,-0.18368484933165122,-0.13206462806014352,0.017407118286522028,-0.04684012341973962,0.001655280189201432,-0.07188183752776431,0.029112014541045582,0.08063333273217937,0.033722543017460825,0.04684012341973962,0.001655280189201432,0.07188183752776431,0.029112014541045582,0.08063333273217937,0.033722543017460825,0.08221794662640189,0.0,3,0.4,0,0
0.10200000000000001,0.0,1,1,1,1,1,1,1,1,0.0,0.0,0.0,-0.002336988546022909,0.00010448191954255524,0.3008857904516496,0.005690742092322821,0.0081838870508959,0.0017759017469565856,0.1821004301588404,0.1320802795161891,0.017412300674460007,0.1821142778126441,-0.13201798290238123,0.01741272964338164,-0.18368099628123685,0.1320333428791535,0.01740813027501828,-0.18369804135324616,-0.1320650650870062,0.01740870761725566,-0.04782537177830852,0.0019971153279529806,-0.06815975500990307,0.04078423248164028,0.07800884495805488,0.031210247859396117,0.04782537177830852,0.0019971153279529806,0.06815975500990307,0.04078423248164028,0.07800884495805488,0.031210247859396117,0.08103273496565762,0.0,3,0.4,0,0
0.10400000000000001,0.0,1,1,1,1,1,1,1,1,0.0,0.0,0.0,-0.002434745492109283,0.0001086472486802415,0.30075310493625973,0.005718641112425316,0.008340427445105547,0.0018340837224121778,0.18208236264054092,0.13208104476305427,0.017413946133681718,0.18209801614752844,-0.1320171798321221,0.017414358643016353,-0.1836947244114235,0.1320328904305075,0.01740972672560645,-0.18371065919117707,-0.13206550581701412,0.017410289197051454,-0.048824536644568865,0.001583147128131717,-0.06535151164321691,-0.013365488102815315,0.07886237969495648,0.026071526379623875,0.048824536644568865,0.001583147128131717,0.06535151164321691,0.013365488102815315,0.07886237969495648,0.026071526379623875,0.07647921015232445,0.0,3,0.4,0,0
0.106,0.0,1,1,1,1,1,1,1,1,0.0,0.0,0.0,-0.0025345468174842807,0.0001110298054808643,0.30062608694833165,0.005635542572549092,0.008502559834573153,0.001881100507976078,0.18206435749334512,0.13208152720707902,0.01741558928191525,0.18208202327876905,-0.13201665994041406,0.017415978915430147,-0.18370832121484718,0.13203239902898412,0.017411321475180874,-0.18372280255875995,-0.1320659855138562,0.017411865108394403,-0.04989924464726825,0.0002588263271721448,-0.06251506085830243,-0.07012839920966903,0.08353586572699372,0.020017984904987282,0.04989924464726825,0.0002588263271721448,0.06251506085830243,0.07012839920966903,0.08353586572699372,0.020017984904987282,0.07017605587942768,0.0,3,0.4,0,0
0.108,0.0,1,1,1,1,1,1,1,1,0.0,0.0,0.0,-0.002636501685814244,0.00011111208624511229,0.3005047102997831,0.005469518150502181,0.008669906111953951,0.0019188617666655782,0.1820466015774365,0.13208185639459077,0.01741722729499906,0.18206630269632856,-0.13201629301624881,0.017417592957119726,-0.18372174465037858,0.13203183749075592,0.017412913404255825,-0.18373470385331658,-0.13206652628675494,0.017413438497195455,-0.05100962039869072,-0.0006618284228121162,-0.05973232656532306,-0.09621996777072947,0.08401824117307487,0.01680996360233041,0.05100962039869072,0.0006618284228121162,0.05973232656532306,0.09621996777072947,0.08401824117307487,0.01680996360233041,0.06848141242383324,0.0,3,0.4,0,0
0.11,0.0,1,1,1,1,1,1,1,1,0.0,0.0,0.0,-0.0027403984684988645,0.00010952147714124447,0.3003887477922367,0.0052777790602757755,0.008834795311347232,0.0019535924085131193,0.18202911440421882,0.13208213277073183,0.017418858981099378,0.18205084595352677,-0.13201597525691464,0.01741920182747156,-0.18373501410123572,0.13203116449787644,0.01741450280005355,-0.18374649152245345,-0.13206717802295267,0.017415009843325058,-0.05187136363808702,-0.0013558269490834668,-0.05712607920410665,-0.09582316138945575,0.08105517191677876,0.017032542556567342,0.05187136363808702,0.0013558269490834668,0.05712607920410665,0.09582316138945575,0.08105517191677876,0.017032542556567342,0.07025973314373783,0.0,3,0.4,0,0
0.112,0.0,1,1,1,1,1,1,1,1,0.0,0.0,0.0,-0.002845504742876109,0.00010669872196292002,0.30027695735623455,0.005089075833951365,0.008994135127545544,0.001990830785129952,0.18201222395461983,0.13208251320119596,0.017420483032995815,0.18203568136838627,-0.1320155528841904,0.0174208061676549,-0.18374808717195187,0.1320303993304279,0.017416088611111435,-0.18375851542543534,-0.13206791935374895,0.01741658250090189,-0.05223969080220482,-0.0018440238739907287,-0.055581921681914406,-0.09321225437680852,0.078475248621159,0.01937789603555516,0.05223969080220482,0.0018440238739907287,0.055581921681914406,0.09321225437680852,0.078475248621159,0.01937789603555516,0.07346161071175071,0.0,3,0.4,0,0
0.114,0.0,1,1,1,1,1,1,1,1,0.0,0.0,0.0,-0.002951112741238543,0.00010376714732188822,0.30016882353311714,0.004982495109443716,0.009134565474982814,0.002036918789017406,0.18199619784637938,0.13208310490263686,0.017422094656925263,0.18202080156535086,-0.13201491831741555,0.017422407641537574,-0.18376076745173217,0.13202957046843122,0.01741767001945646,-0.18377088641524406,-0.13206872543550313,0.017418156144647368,-0.05238964713829703,-0.001424272402290558,-0.053489679222373215,-0.013787057779040518,0.06218324040484943,0.02600517049739494,0.05238964713829703,0.001424272402290558,0.053489679222373215,0.013787057779040518,0.06218324040484943,0.02600517049739494,0.07981909003798253,0.0,3,0.4,0,0
0.116,0.0,1,1,1,1,1,1,1,1,0.0,0.0,0.0,-0.003056900220001726,0.00010182073499346641,0.3000652870591771,0.005015062781731915,0.009252672189486555,0.0020936249252450187,0.18198067181469266,0.13208384673683843,0.0174236980540175,0.18200619673486867,-0.1320141307541788,0.017424006116771668,-0.18377308356947764,0.13202873737338117,0.017419246660062976,-0.1837832125419766,-0.13206954180658378,0.017419728203805912,-0.05244542403223126,-0.0008259865567487551,-0.051005080020638104,0.04583299195476181,0.05620383981325679,0.030111098937321494,0.05244542403223126,0.0008259865567487551,0.051005080020638104,0.04583299195476181,0.05620383981325679,0.030111098937321494,0.0833825095263015,0.0,3,0.4,0,0
0.11800000000000001,0.0,1,1,1,1,1,1,1,1,0.0,0.0,0.0,-0.0031632521117185186,0.00010091419194148036,0.29996668068697757,0.005113474495169795,0.009363276824195799,0.002156567612217586,0.1819652622264033,0.13208461749876177,0.017425297508649545,0.18199199132642888,-0.1320133184366418,0.017425598960425365,-0.18378528261595328,0.13202789586313754,0.0174208213047492,-0.18379515942804123,-0.13207036734903876,0.017421297163517424,-0.05298585442299726,-0.00035876095363759593,-0.04858227236452246,0.05199269489977499,0.05471803348226341,0.03226833949220029,0.05298585442299726,0.00035876095363759593,0.04858227236452246,0.05199269489977499,0.05471803348226341,0.03226833949220029,0.08561295486883515,0.0,3,0.4,0,0
0.12,0.0,1,1,1,1,1,1,1,1,0.0,0.0,0.0,-0.003270406097173022,0.00010012741606907599,0.2998726365397332,0.005173592096140356,0.009473302471595169,0.0022210877697997223,0.18195002765681323,0.13208535446413314,0.017426893785375236,0.18197825903540144,-0.1320125417947131,0.017427184755382352,-0.18379750723397964,0.1320270405305878,0.017422396633871018,-0.1838068122157904,-0.13207120021820343,0.01742286264312326,-0.05327924941989872,-0.0006822781734166534,-0.04646281904094548,0.0075173073814805485,0.05563940847713932,0.03167970355392091,0.05327924941989872,0.0006822781734166534,0.04646281904094548,0.0075173073814805485,0.05563940847713932,0.03167970355392091,0.08564123114723629,0.0,3,0.4,0,0
0.122,0.0,1,1,1,1,1,1,1,1,0.0,0.0,0.0,-0.003378243681752561,9.907761117828933e-05,0.299782715175347,0.005179717223569604,0.00957544805855326,0.002284292669022456,0.1819351900569704,0.132086043009302,0.01742848477694245,0.18196502676140233,-0.13201181541685608,0.017428764236027794,-0.18380972818966226,0.13202622159241223,0.01742397130242304,-0.18381830438834434,-0.13207199686172325,0.017424426430081436,-0.05369920257063236,-0.0005953555102695695,-0.04447618325589716,-0.0019943987970818373,0.046832279611175615,0.030992249023562055,0.05369920257063236,0.0005953555102695695,0.04447618325589716,0.0019943987970818373,0.046832279611175615,0.030992249023562055,0.08528680710446399,0.0,3,0.4,0,0
0.124,0.0,1,1,1,1,1,1,1,1,0.0,0.0,0.0,-0.003486840259486871,9.794081935939602e-05,0.2996975252846507,0.005155140092595363,0.009662629612072537,0.0023439782746548753,0.18192074925713642,0.13208664628080638,0.017430069977305063,0.1819523603859692,-0.13201117574000804,0.017430337231871512,-0.18382204922512943,0.13202544595426613,0.017425545391615532,-0.18382964667584006,-0.13207275187257023,0.017425988588644137,-0.05407538242782505,-0.0007357257595426133,-0.041748658823918504,-0.02315690386982598,0.04065717675727361,0.028238292734931555,0.05407538242782505,0.0007357257595426133,0.041748658823918504,0.02315690386982598,0.04065717675727361,0.028238292734931555,0.08304940092229922,0.0,3,0.4,0,0
0.126,0.0,1,1,1,1,1,1,1,1,0.0,0.0,0.0,-0.0035957667140051643,9.651555526652035e-05,0.29961646902936123,0.005081391552938847,0.009731244716885357,0.002398441610473394,0.18190682241064965,0.132087229272239,0.01743164841632841,0.1819399788776547,-0.13201056189046828,0.01743190603608169,-0.18383439666423043,0.13202482738933183,0.017427118909185524,-0.18384113030137017,-0.13207334790811667,0.017427550351857196,-0.05406309044710351,-0.0008515362546502735,-0.0403530074934119,-0.051120009431002277,0.028236617332984586,0.025869155852012053,0.05406309044710351,0.0008515362546502735,0.0403530074934119,0.051120009431002277,0.028236617332984586,0.025869155852012053,0.08078378255376584,0.0,3,0.4,0,0
0.128,0.0,1,1,1,1,1,1,1,1,0.0,0.0,0.0,-0.0037045133665077872,9.608778124844314e-05,0.29953760727795714,0.005019085212866985,0.009780350393914894,0.0024449572989859053,0.1818937012806151,0.1320878063807429,0.017433220244887915,0.18192769433751868,-0.13200995210030292,0.01743347397587741,-0.18384653364316836,0.13202451768862244,0.017428688557668992,-0.18385293384034387,-0.1320736310703222,0.01742911335033237,-0.0539097503605677,0.00028348100186732143,-0.0395640027179779,-0.011640151075677865,0.021102595084393848,0.020396481732071654,0.0539097503605677,0.00028348100186732143,0.0395640027179779,0.011640151075677865,0.021102595084393848,0.020396481732071654,0.07458971309450668,0.0,3,0.4,0,0
0.13,0.0,1,1,1,1,1,1,1,1,0.0,0.0,0.0,-0.003813182233390764,9.797233949199771e-05,0.2994616211964658,0.005033028669918637,0.009808971283487677,0.002478740205916446,0.18188129604323333,0.13208837492285724,0.017434785164632288,0.18191543200442972,-0.1320093394923428,0.017435041175319105,-0.18385832626699017,0.132024462563254,0.0174302545057409,-0.18386494008672585,-0.1320736574174613,0.017430677137430767,-0.054004699103682025,0.0014813464066349628,-0.03749259574235185,0.02525259867289055,0.00768704975930924,0.013241150818875953,0.054004699103682025,0.0014813464066349628,0.03749259574235185,0.02525259867289055,0.00768704975930924,0.013241150818875953,0.06872719632919294,0.0,3,0.4,0,0
0.132,0.0,1,1,1,1,1,1,1,1,0.0,0.0,0.0,-0.003922251991009827,0.00010183371468015853,0.2993892936023138,0.005126673223222929,0.009825506253535732,0.0025018712753400773,0.1818689548213652,0.1320889051980521,0.017436346917206413,0.1819032544295424,-0.1320087649277177,0.017436607729066272,-0.18386979244237592,0.1320244530286659,0.01743181731968671,-0.18387655027443658,-0.13207365582205682,0.01743223749992734,-0.0543398068684623,0.0022788246410919057,-0.03592224995331442,0.06816491837303436,0.008964548191791794,0.009804808325985933,0.0543398068684623,0.0022788246410919057,0.03592224995331442,0.06816491837303436,0.008964548191791794,0.009804808325985933,0.06642343983554014,0.0,3,0.4,0,0
0.134,0.0,1,1,1,1,1,1,1,1,0.0,0.0,0.0,-0.004032598319766651,0.00010578361159558135,0.29932144990075454,0.005203346471533083,0.009853448226994299,0.0025215111711065223,0.18185631671413688,0.13208937887587607,0.017437910798608208,0.1818915359529792,-0.1320082419120345,0.017438169714838248,-0.1838811545466172,0.13202427772227585,0.017433379230010676,-0.18388737184887505,-0.13207382314875746,0.017433793234207268,-0.05532342337188348,0.0015922773091325256,-0.03302469993168539,0.008315186961713883,0.019079066370557823,0.009688328885841495,0.05532342337188348,0.0015922773091325256,0.03302469993168539,0.008315186961713883,0.019079066370557823,0.009688328885841495,0.0666040295668575,0.0,3,0.4,0,0
0.136,0.0,1,1,1,1,1,1,1,1,0.0,0.0,0.0,-0.004144646600423297,0.00010815164414459974,0.2992592055094798,0.0051722663655353876,0.009895781183403063,0.0025467290632310976,0.18184340473755678,0.1320898867228885,0.017439475862608245,0.1818802695299476,-0.13200768706993582,0.017439727232329644,-0.18389247905869952,0.13202385455709456,0.01743494156589323,-0.18389759250136511,-0.1320742325592947,0.017435345848449108,-0.056098472694290205,0.0007309888541959011,-0.030335944874614374,-0.03964437136450079,0.023384650350946338,0.015307429435753821,0.056098472694290205,0.0007309888541959011,0.030335944874614374,0.03964437136450079,0.023384650350946338,0.015307429435753821,0.07213689098423993,0.0,3,0.4,0,0
0.138,0.0,1,1,1,1,1,1,1,1,0.0,0.0,0.0,-0.0042583104787736635,0.00010880396465103071,0.29920158104671096,0.00506196124239341,0.009947082357448123,0.0025836856051226625,0.18183043767947207,0.13209038398660836,0.017441041676542562,0.1818695443897467,-0.13200714038022765,0.017441280291713823,-0.18390380913804133,0.13202315708396323,0.017436504978428385,-0.18390737770445195,-0.1320749162328292,0.017436896265142554,-0.056986120987087795,-8.782712698949024e-05,-0.02841748046347354,-0.07102747736552587,0.028105192268495147,0.02138375022585889,0.056986120987087795,8.782712698949024e-05,0.02841748046347354,0.07102747736552587,0.028105192268495147,0.02138375022585889,0.07845769833993617,0.0,3,0.4,0,0
0.14,0.0,1,1,1,1,1,1,1,1,0.0,0.0,0.0,-0.0043733025278095,0.0001072556022273971,0.29914868334599953,0.004887833196503637,0.009996929183254455,0.0026318545922846184,0.1818179332950008,0.13209091415124125,0.01744260487693025,0.18185929611091514,-0.13200655954675206,0.017442829079914207,-0.18391514354123514,0.13202224896786116,0.01743806884355953,-0.1839172967429912,-0.13207580585639378,0.017438446177039435,-0.05747647224698441,-0.001429726004683462,-0.025617558753203835,-0.10358117759198447,0.021980970016656706,0.026532914265346888,0.05747647224698441,0.001429726004683462,0.025617558753203835,0.10358117759198447,0.021980970016656706,0.026532914265346888,0.08543911251701476,0.0,3,0.4,0,0
0.14200000000000002,0.0,1,1,1,1,1,1,1,1,0.0,0.0,0.0,-0.004488165208330931,0.0001042902500547051,0.2990986483960265,0.004742414311475111,0.0100249171328608,0.0026901248743854364,0.18180615681727205,0.13209152626178447,0.01744416248650843,0.18184929162098387,-0.13200590230846138,0.017444377478974593,-0.18392629344591954,0.1320213453906766,0.017439630523190197,-0.18392755115765821,-0.13207669206353298,0.01743999536693258,-0.05688705114880431,-0.0014764072737452707,-0.025551416381393566,-0.042421564775961346,0.006285071154277228,0.03159872625318792,0.05688705114880431,0.0014764072737452707,0.025551416381393566,0.042421564775961346,0.006285071154277228,0.03159872625318792,0.0899621846757375,0.0,3,0.4,0,0
0.14400000000000002,0.0,1,1,1,1,1,1,1,1,0.0,0.0,0.0,-0.004602386620940446,0.00010178713604757886,0.29905101844286475,0.004684389543527848,0.010030300363738087,0.0027504951870593614,0.1817951654552061,0.13209211348782926,0.01744571604550249,0.18183935051216985,-0.1320052676488281,0.017445925570288845,-0.18393696182965527,0.1320206711583676,0.017441188700775434,-0.18393790208428593,-0.13207734499001525,0.017441544016726512,-0.05685738934479303,-0.0009459111240866114,-0.0232106636653681,-0.016208763061462468,-0.0006180730088094627,0.02874237936578507,0.05685738934479303,0.0009459111240866114,0.0232106636653681,0.016208763061462468,0.0006180730088094627,0.02874237936578507,0.08654567983466471,0.0,3,0.4,0,0
0.146,0.0,1,1,1,1,1,1,1,1,0.0,0.0,0.0,-0.00471731714254697,0.00010090280561373584,0.2990086384531999,0.0047087175040048295,0.010026197685272908,0.002800326264319733,0.18178478773691314,0.1320926154316362,0.017447268090651835,0.18182921948573527,-0.13200476330934324,0.017447471083651578,-0.183947205656448,0.1320203839638893,0.017442742717986293,-0.18394836667970862,-0.13207761097504958,0.017443092589203762,-0.05764434138965099,0.0001761812597673254,-0.020316624361050646,0.04003693303597648,-0.0032520313570980662,0.021104833680642983,0.05764434138965099,0.0001761812597673254,0.020316624361050646,0.04003693303597648,0.0032520313570980662,0.021104833680642983,0.07892535633006129,0.0,3,0.4,0,0
0.148,0.0,1,1,1,1,1,1,1,1,0.0,0.0,0.0,-0.004833680072989114,0.00010251098299163768,0.29897034477201734,0.004800759521595925,0.010019653735609868,0.002831370800561595,0.1817746623635557,0.13209304381878983,0.017448817464385563,0.181818925444093,-0.1320043314746392,0.017449017839058223,-0.18395715677600122,0.13202040897132042,0.017444294441235825,-0.18395873119939052,-0.13207756867623008,0.017444641476501904,-0.058323921071676645,0.0015720801774448962,-0.019150181037904144,0.051693898726236566,-0.0031449355237009157,0.009968864790761678,0.058323921071676645,0.0015720801774448962,0.019150181037904144,0.051693898726236566,0.0031449355237009157,0.009968864790761678,0.06986486603988322,0.0,3,0.4,0,0
0.15,0.0,1,1,1,1,1,1,1,1,0.0,0.0,0.0,-0.004951684383469356,0.0001060258540877678,0.2989354266818319,0.004908144445387532,0.010019075333125516,0.0028466344769818193,0.18176464509542314,0.1320934538558216,0.01745036476978229,0.18180884977002865,-0.13200388045456476,0.017450567544429862,-0.1839670589103046,0.13202045709845886,0.017445845490540207,-0.18396890892440063,-0.1320775015650638,0.017446190167692777,-0.05931415679357283,0.002102632179268463,-0.016966652013695783,0.05553813826342455,0.0026403527654579907,0.005296362323230617,0.05931415679357283,0.002102632179268463,0.016966652013695783,0.05553813826342455,0.0026403527654579907,0.005296362323230617,0.06671315129607192,0.0,3,0.4,0,0
0.152,0.0,1,1,1,1,1,1,1,1,0.0,0.0,0.0,-0.0050711713855909266,0.00010957098488570826,0.29890402816142286,0.004990797887248781,0.01001644662636103,0.0028599679479181465,0.18175470897672094,0.13209388049363618,0.017451912091895977,0.18179932685439132,-0.13200341488202255,0.01745211542607142,-0.18397707714150505,0.13202029463734402,0.017447397510160945,-0.1839788570151941,-0.1320776507802771,0.01744773711542713,-0.0598417125119306,0.0016221050801041418,-0.01564597300609177,0.026981685498140406,-0.00520273313113963,0.008049647121451333,0.0598417125119306,0.0016221050801041418,0.01564597300609177,0.026981685498140406,0.00520273313113963,0.008049647121451333,0.06951346471348607,0.0,3,0.4,0,0
0.154,0.0,1,1,1,1,1,1,1,1,0.0,0.0,0.0,-0.005192129980924244,0.00011161259972546277,0.2988768354885709,0.005025375567232947,0.010003148909574211,0.0028824883994122016,0.18174468255151732,0.13209427477477062,0.017453460977298524,0.18179040446451927,-0.13200297338412595,0.017453660937877674,-0.18398715850017047,0.13201982012605934,0.017448950793585716,-0.18398834381596932,-0.1320781141034878,0.017449282488115142,-0.060832266565165806,0.0006245921861630575,-0.012767608714716815,0.007370584462593906,-0.007981705766028288,0.014536166607414126,0.060832266565165806,0.0006245921861630575,0.012767608714716815,0.007370584462593906,0.007981705766028288,0.014536166607414126,0.07599302535874299,0.0,3,0.4,0,0
0.156,0.0,1,1,1,1,1,1,1,1,0.0,0.0,0.0,-0.005314210189021605,0.00011103367541693734,0.29885408632511956,0.004982053712776853,0.009987422388688438,0.002917154476561636,0.1817345644778185,0.13209469026271742,0.017455010016893535,0.18178191662031898,-0.13200251223184914,0.01745520382779278,-0.1839972086043309,0.1320190912823718,0.017450505249279463,-0.18399743423017817,-0.13207882184567993,0.01745082753358057,-0.06101564368408447,-0.000969461756000519,-0.011199244192627087,-0.05103887924228597,-0.00757027764416271,0.020206898837245454,0.06101564368408447,0.000969461756000519,0.011199244192627087,0.05103887924228597,0.00757027764416271,0.020206898837245454,0.08219200427733045,0.0,3,0.4,0,0
0.158,0.0,1,1,1,1,1,1,1,1,0.0,0.0,0.0,-0.005436906789212958,0.0001085582798277043,0.2988347753927027,0.0048893661396119245,0.009973253686643258,0.0029633605992283843,0.18172447007405648,0.13209508434379655,0.01745655812873237,0.1817735953337671,-0.1320020692110923,0.017456746308202042,-0.18400701832437905,0.1320182727519758,0.017452059855236457,-0.18400617817544423,-0.132079618618502,0.01745237127171209,-0.06148886038830502,-0.0012465669331391048,-0.009324649411495477,-0.04210977037672306,-0.006370683572551339,0.026066285797468107,0.06148886038830502,0.0012465669331391048,0.009324649411495477,0.04210977037672306,0.006370683572551339,0.026066285797468107,0.08880171311891222,0.0,3,0.4,0,0
0.16,0.0,1,1,1,1,1,1,1,1,0.0,0.0,0.0,-0.005559976511896757,0.0001051156078043715,0.2988186661741185,0.004777911910100286,0.009966937147510402,0.0030119792129656097,0.1817147647309252,0.13209539151468588,0.017458104412367365,0.18176522571198167,-0.13200171192770258,0.01745828808779687,-0.1840165187949502,0.1320175734366166,0.017453612250774575,-0.18401493714320316,-0.13208030106485302,0.01745391416524872,-0.06142388583139278,-0.001912231883170427,-0.007995833901781704,-0.06982903188959894,0.00029007978622558924,0.022580332474667307,0.06142388583139278,0.001912231883170427,0.007995833901781704,0.06982903188959894,0.00029007978622558924,0.022580332474667307,0.08591645018923053,0.0,3,0.4,0,0
0.162,0.0,1,1,1,1,1,1,1,1,0.0,0.0,0.0,-0.005682516640916067,0.0001019234045078608,0.2988043528283474,0.004705468592827677,0.009959583805692063,0.003052423807672294,0.18170572757994136,0.13209574919748904,0.017459649990382187,0.18175658586525295,-0.1320013537590142,0.01745982665409282,-0.18402559560406878,0.13201711168059901,0.01745516072417483,-0.18402410990146695,-0.13208074806836337,0.017455455624082905,-0.060976651064004454,-0.0009820407366896901,-0.00752418994275167,-0.003017412214281045,-0.0074527549912269415,0.017896146097362682,0.060976651064004454,0.0009820407366896901,0.00752418994275167,0.003017412214281045,0.0074527549912269415,0.017896146097362682,0.07985483789805684,0.0,3,0.4,0,0
0.164,0.0,1,1,1,1,1,1,1,1,0.0,0.0,0.0,-0.005804441745558297,0.00010098228111102988,0.2987908793146056,0.004764444420666817,0.009944453680711174,0.003085355969227305,0.1816970844410973,0.13209620215869955,0.017461194220231846,0.18174785830718607,-0.13200089731851797,0.01746136517698149,-0.18403442321772884,0.1320168685922822,0.017456706091933116,-0.18403345158207926,-0.13208098048790584,0.01745699611200524,-0.06081061859458684,0.0003455717229608183,-0.00715925160492537,0.061665481922272176,-0.007522425504096513,0.015105173461153873,0.06081061859458684,0.0003455717229608183,0.00715925160492537,0.061665481922272176,0.007522425504096513,0.015105173461153873,0.07626136377870153,0.0,3,0.4,0,0
0.166,0.0,1,1,1,1,1,1,1,1,0.0,0.0,0.0,-0.005925888305722732,0.00010240318579808974,0.2987783171401748,0.004894384370887573,0.009924806459909341,0.003113525876005205,0.18168880989490932,0.1320966996684095,0.017462736703468595,0.18173921175509972,-0.13200039425924112,0.017462903000307922,-0.18404316613815555,0.1320168381307015,0.01745824961839476,-0.1840428976590047,-0.13208099814016278,0.017458536056161683,-0.06050014284671035,0.001385260585692587,-0.006617350006116877,0.06799453317591725,-0.011988744947416646,0.01315812672853109,0.06050014284671035,0.001385260585692587,0.006617350006116877,0.06799453317591725,0.011988744947416646,0.01315812672853109,0.07504353016093403,0.0,3,0.4,0,0
0.168,0.0,1,1,1,1,1,1,1,1,0.0,0.0,0.0,-0.0060470608641904474,0.00010583186116233393,0.2987670535739319,0.005054383776927173,0.009895746537059491,0.0031347284672395555,0.18168084248833294,0.13209711131635926,0.017464277436188114,0.18173080221794266,-0.13199997643229136,0.01746444063527222,-0.18405192261675854,0.13201692848820487,0.017459792661749213,-0.18405229213578805,-0.13208089587643723,0.01746007440060815,-0.06054351838166991,0.002359970222288565,-0.0058652465744542135,0.09179462766625911,-0.01696600529980082,0.008187768758835819,0.06054351838166991,0.002359970222288565,0.0058652465744542135,0.09179462766625911,0.01696600529980082,0.008187768758835819,0.07109125736279429,0.0,3,0.4,0,0
0.17,0.0,1,1,1,1,1,1,1,1,0.0,0.0,0.0,-0.006168432001134449,0.00010976013265157303,0.298758126166631,0.005191676788872175,0.009856492856803234,0.003146572945365832,0.18167290423664492,0.13209736517431195,0.017465816060122014,0.18172298518437027,-0.13199966960768428,0.017465981397795427,-0.18406085140420891,0.13201696407392874,0.017461335108884785,-0.18406122755173862,-0.1320808488208957,0.0174616126413967,-0.06072056928437321,0.001897645699042589,-0.004282163232639187,0.045381292155996865,-0.02222650090343446,0.003858343563731943,0.06072056928437321,0.001897645699042589,0.004282163232639187,0.045381292155996865,0.02222650090343446,0.003858343563731943,0.06647655854714773,0.0,3,0.4,0,0
