time,trans_flag,des_cont_state_fl,des_cont_state_fr,des_cont_state_rl,des_cont_state_rr,cont_state_fl,cont_state_fr,cont_state_rl,cont_state_rr,vel_cmd_x,vel_cmd_y,vel_cmd_yaw,base_pos_x,base_pos_y,base_pos_z,base_ang_roll,base_ang_pitch,base_ang_yaw,FL_foot_pos_x,FL_foot_pos_y,FL_foot_pos_z,FR_foot_pos_x,FR_foot_pos_y,FR_foot_pos_z,RL_foot_pos_x,RL_foot_pos_y,RL_foot_pos_z,RR_foot_pos_x,RR_foot_pos_y,RR_foot_pos_z,base_vel_x,base_vel_y,base_vel_z,base_vel_roll,base_vel_pitch,base_vel_yaw,x_vel_err,y_vel_err,z_vel_err,roll_vel_err,pitch_vel_err,yaw_vel_err,cmd_err,cont_err,terr_freq,terr_height,failed,gait_id
0.002,0.0,1,1,1,1,0,0,0,0,0.0,0.0,0.0,0.0,0.0,0.31,0.0,0.0,0.0,0.1829982548242803,0.13205008175334468,0.017325255855931393,0.1829982102910603,-0.13204993897414188,0.017325254423025044,-0.18300016471232428,0.13204995837617156,0.017325255071474588,-0.18300027873946081,-0.13205004276898025,0.017325255114365806,0.0,0.0,0.0,0.0,0.0,0.0,0.0,0.0,0.0,0.0,0.0,0.0,0.0,100.0,3,0.4,0,0
0.004,0.0,1,1,1,1,0,0,0,0,0.0,0.0,0.0,-5.295987780862742e-06,2.657295915534552e-07,0.3099912519465568,2.715006120568255e-05,6.147164650149861e-05,5.101137436977715e-06,0.18299322810669255,0.13205026692013894,0.017326839427632135,0.1829928783971774,-0.13204977272831114,0.017326838046899523,-0.1830005509978491,0.13204990882125453,0.017326832955540716,-0.18300108945434898,-0.13205006088700152,0.017326831305078866,-0.005295448658016035,0.0002655190879888656,-0.008748386191736965,0.02714990440941557,0.061471715745560485,0.005100302955575571,0.005295448658016035,0.0002655190879888656,0.008748386191736965,0.02714990440941557,0.061471715745560485,0.005100302955575571,0.010661270701580471,100.0,3,0.4,0,0
0.006,0.0,1,1,1,1,0,0,0,0,0.0,0.0,0.0,-2.1057890215812163e-05,1.4840141581844457e-06,0.30996544887146776,0.00011301319446115108,0.00024334197655284662,1.3638741685623297e-05,0.18298502200705966,0.13205056888627628,0.017328440856957505,0.1829841624851981,-0.13204948696468036,0.017328443562546925,-0.18300121334210742,0.13204989002494544,0.017328411985091025,-0.1830024280670461,-0.13205004716924856,0.017328407398368717,-0.01046175114895469,0.0009507699805736252,-0.017057675492544146,0.05871233094715285,0.1203990057838285,0.0034248957599295497,0.01046175114895469,0.0009507699805736252,0.017057675492544146,0.05871233094715285,0.1203990057838285,0.0034248957599295497,0.014837416889457864,100.0,3,0.4,0,0
0.008,0.0,1,1,1,1,0,0,0,0,0.0,0.0,0.0,-4.705099586261299e-05,3.835652805526334e-06,0.30992237721511356,0.0002495433323277116,0.0005388614401766745,2.544282783558459e-05,0.1829737172383367,0.13205106184273072,0.017330070399719427,0.18297228296511464,-0.1320490087257937,0.017330081416183057,-0.1830016666210987,0.13204682034713308,0.017329992376313164,-0.18300437277218662,-0.13205006011275686,0.01732998149490983,-0.015513133776151653,0.0013929843192482107,-0.026025346336264934,0.07781278684278416,0.17512281528883464,0.008324704790850256,0.015513133776151653,0.0013929843192482107,0.026025346336264934,0.07781278684278416,0.17512281528883464,0.008324704790850256,0.02523082288625012,100.0,3,0.4,0,0
0.01,0.0,1,1,1,1,1,0,0,1,0.0,0.0,0.0,-8.290448211971316e-05,7.53997437163879e-06,0.3098619711532945,0.0004348359209527758,0.0009371036118968057,4.543725054037254e-05,0.1829597254239542,0.13205186806206165,0.01733173478886052,0.1829572961702441,-0.13204818953001313,0.017331763587427995,-0.182957203015158,0.13198311831976944,0.017331592208338686,-0.18300726069033935,-0.1320500412588334,0.017331554643573638,-0.020293955123236836,0.002291199210597009,-0.03440945930352118,0.10746488119524424,0.22312617852476702,0.011534894600653314,0.020293955123236836,0.002291199210597009,0.03440945930352118,0.10746488119524424,0.22312617852476702,0.011534894600653314,0.03412004893448716,50.0,3,0.4,0,0
0.012,0.0,1,1,1,1,1,1,0,1,0.0,0.0,0.0,-0.0001278000621456155,1.3935013548165802e-05,0.3097841868849484,0.0007448473659899593,0.0014232017078452674,7.699333000073807e-05,0.1829437698110799,0.13205291472703745,0.017333432314983743,0.18294012340346724,-0.13204712129562313,0.017333492250903,-0.1828673777206127,0.13182153454983422,0.017333283157414836,-0.18301119108089678,-0.13205003620807815,0.017333126717594988,-0.024507185327707008,0.004059343264336991,-0.043432799514192474,0.20250794291002058,0.26299023532493593,0.019751359540235817,0.024507185327707008,0.004059343264336991,0.043432799514192474,0.20250794291002058,0.26299023532493593,0.019751359540235817,0.048317888132279815,25.0,3,0.4,0,0
0.014,0.0,1,1,1,1,1,1,1,1,0.0,0.0,0.0,-0.0001790463034942433,2.195200173142383e-05,0.3096909646378933,0.001137153259125094,0.001956414489069802,0.0001184119664305525,0.1829267866582881,0.1320540479051345,0.01733514908001721,0.18292203194465054,-0.13204599987387064,0.017335246217263428,-0.18281619336838734,0.1316148913034173,0.017335049716944773,-0.18301625758617213,-0.13205003359032635,0.017334699490746563,-0.026578957324765423,0.003873622578165504,-0.04988393785661617,0.18972772438113045,0.2702618258984035,0.021160613225641115,0.026578957324765423,0.003873622578165504,0.04988393785661617,0.18972772438113045,0.2702618258984035,0.021160613225641115,0.051613193128572044,0.0,3,0.4,0,0
0.016,0.0,1,1,1,1,1,1,1,1,0.0,0.0,0.0,-0.00023225236960344048,3.0281356351475736e-05,0.3095839514247675,0.0015227802398967035,0.0024815254868819636,0.0001619592679611786,0.1829094257874163,0.13205526763491815,0.017336877160405217,0.18290349993205854,-0.13204478927984648,0.01733701430792514,-0.18282440424111804,0.1314059946948463,0.01733680490221043,-0.18302287937932818,-0.1320500033179934,0.017336276815335255,-0.026386406629138603,0.004319277826460577,-0.057258105750738475,0.1958021486926831,0.254906599406688,0.021692718387756854,0.026386406629138603,0.004319277826460577,0.057258105750738475,0.1958021486926831,0.254906599406688,0.021692718387756854,0.052398402843356034,0.0,3,0.4,0,0
0.018000000000000002,0.0,1,1,1,1,1,1,1,1,0.0,0.0,0.0,-0.0002851233438551841,3.942747333700638e-05,0.3094626848560399,0.001933859278218602,0.002963995999229363,0.00020825420808155687,0.18289166879292412,0.13205650669797933,0.017338611129028264,0.18288506555595263,-0.1320435645097313,0.017338785974091525,-0.18286247688794172,0.1312268470787413,0.01733853483656042,-0.18303083329926798,-0.13205002249882541,0.017337862184964026,-0.026150825662870306,0.004625352548590078,-0.06416761883851012,0.21514970876202888,0.22764319656134532,0.02377838892129543,0.026150825662870306,0.004625352548590078,0.06416761883851012,0.21514970876202888,0.22764319656134532,0.02377838892129543,0.05455456713275582,0.0,3,0.4,0,0
0.02,0.0,1,1,1,1,1,1,1,1,0.0,0.0,0.0,-0.00033770037394709353,4.8290942287854976e-05,0.30932869573613714,0.0022782355633977273,0.003391704913386473,0.0002574989543443002,0.18287345485664222,0.13205770670577657,0.017340353614415188,0.18286691284057013,-0.1320423876152692,0.017340548705784775,-0.18291029742566245,0.1310974700238976,0.017340217739329367,-0.18303981587649734,-0.13205004921964866,0.017339456649140828,-0.025996844758147394,0.003966794999707563,-0.0700061535123274,0.1290692494787716,0.20017069604262155,0.024551540676991248,0.025996844758147394,0.003966794999707563,0.0700061535123274,0.1290692494787716,0.20017069604262155,0.024551540676991248,0.054515180434846204,0.0,3,0.4,0,0
0.022,0.0,1,1,1,1,1,1,1,1,0.0,0.0,0.0,-0.0003902916735300312,5.68282096986642e-05,0.30918386580530544,0.0025030134684895723,0.0037682646050880564,0.00030597559241671757,0.18285512758635458,0.1320588726383007,0.01734209964424016,0.18284893151724746,-0.13204125546437087,0.017342304643949896,-0.1829526666367158,0.1310100147020975,0.01734187126889672,-0.18304997905043735,-0.1320499569145357,0.017341062290031406,-0.026072270506568167,0.004238021233542917,-0.07503119482036433,0.09553483298393828,0.17650443473766858,0.023020778633428413,0.026072270506568167,0.004238021233542917,0.07503119482036433,0.09553483298393828,0.17650443473766858,0.023020778633428413,0.0533310703735395,0.0,3,0.4,0,0
0.024,0.0,1,1,1,1,1,1,1,1,0.0,0.0,0.0,-0.0004427981196025189,6.600110054567589e-05,0.30902918491954434,0.0026635853868634003,0.004090314859511501,0.00034800018765341413,0.18283668850393842,0.13205991839145684,0.0173438465289536,0.18283107576741578,-0.13204024825000882,0.017344053266840603,-0.18298313330308477,0.13095963666546503,0.01734351477992943,-0.183061235043373,-0.1320496765599922,0.01734268145594456,-0.02582219694052574,0.004551497646694603,-0.0798780087765175,0.06487210371375972,0.14565354894598218,0.018168936106330004,0.02582219694052574,0.004551497646694603,0.0798780087765175,0.06487210371375972,0.14565354894598218,0.018168936106330004,0.048542630693550345,0.0,3,0.4,0,0
0.026000000000000002,0.0,1,1,1,1,1,1,1,1,0.0,0.0,0.0,-0.0004953985070930776,7.572447635501932e-05,0.3088651382237185,0.002743241624949724,0.004361342452780859,0.00037737873223634235,0.18281795899732914,0.13206086297687303,0.017345598164967085,0.18281313180315967,-0.13203933580202662,0.01734579822426935,-0.18300154787581552,0.13094358917549925,0.017345157977445985,-0.1830732896503108,-0.13204920936594702,0.0173443112931424,-0.02608034233696783,0.004746660701488943,-0.08441526892417303,0.014660739765184028,0.12545288855881825,0.010470537139296238,0.02608034233696783,0.004746660701488943,0.08441526892417303,0.014660739765184028,0.12545288855881825,0.010470537139296238,0.041297540177753014,0.0,3,0.4,0,0
0.028,0.0,1,1,1,1,1,1,1,1,0.0,0.0,0.0,-0.0005490198635143051,8.615843523080018e-05,0.30869346938457476,0.002751338379398049,0.0046014807611698405,0.000394974003625754,0.18279894496393423,0.13206182190993648,0.017347354658929337,0.18279511961596734,-0.13203840912742298,0.017347541618662532,-0.18301491174583143,0.13094419564199078,0.01734680415444212,-0.18308585115019804,-0.13204865781478323,0.017345945810821273,-0.026766749536387403,0.005235679909693449,-0.08752028574703093,-0.006642446150728753,0.11473301667702338,0.006462247079852816,0.026766749536387403,0.005235679909693449,0.08752028574703093,0.006642446150728753,0.11473301667702338,0.006462247079852816,0.03846467652593367,0.0,3,0.4,0,0
0.03,0.0,1,1,1,1,1,1,1,1,0.0,0.0,0.0,-0.0006040274932054783,9.75173754734461e-05,0.30851708719876514,0.0027173352731491266,0.004823550434820412,0.0004088798668444433,0.18277967338162118,0.13206285881555901,0.01734911606029052,0.18277721721299794,-0.1320374028165095,0.01734928003958386,-0.18302911389535667,0.13094481920912054,0.017348459511700665,-0.18309892480484805,-0.13204808954894182,0.017347585676149274,-0.027404315324127636,0.005662366952810507,-0.08914966725431667,-0.027426281502876158,0.10737398153054095,0.0068337637729028716,0.027404315324127636,0.005662366952810507,0.08914966725431667,0.027426281502876158,0.10737398153054095,0.0068337637729028716,0.03990044604984102,0.0,3,0.4,0,0
0.032,0.0,1,1,1,1,1,1,1,1,0.0,0.0,0.0,-0.000660139028268477,0.00010968785557931117,0.3083362279093872,0.0026430153655301876,0.005022139479033072,0.00042600156540494646,0.18276027014842772,0.13206403185925325,0.017350878971764155,0.18275918588631307,-0.13203626010397568,0.01735101639431072,-0.1830440260422856,0.13094552422735561,0.017350126191204907,-0.18311274098516683,-0.13204744357719278,0.01734923491927426,-0.027810828358416726,0.0060461332695124,-0.09201569115881712,-0.046978336570898775,0.09126029157951343,0.009752871723785979,0.027810828358416726,0.0060461332695124,0.09201569115881712,0.046978336570898775,0.09126029157951343,0.009752871723785979,0.0436098333517151,0.0,3,0.4,0,0
0.034,0.0,1,1,1,1,1,1,1,1,0.0,0.0,0.0,-0.000717439211099783,0.00012345302284349563,0.3081501730531624,0.002587132257091252,0.005197491409699051,0.0004456072219087255,0.1827405712072426,0.1320653039926796,0.017352643218218666,0.18274092083044857,-0.13203501328715297,0.017352756467158115,-0.18305940421527775,0.13094630127421403,0.017351799397681167,-0.1831269750869672,-0.1320467266913231,0.017350891723929146,-0.028531682904493236,0.007256724162761472,-0.09436495264825467,-0.009004989512887007,0.08414195546019253,0.009397035156415892,0.028531682904493236,0.007256724162761472,0.09436495264825467,0.009004989512887007,0.08414195546019253,0.009397035156415892,0.0451854422236706,0.0,3,0.4,0,0
0.036000000000000004,0.0,1,1,1,1,1,1,1,1,0.0,0.0,0.0,-0.0007765070786757651,0.0001384884588695585,0.3079605514851266,0.0025329708451918994,0.005366093942857697,0.0004661993540422205,0.18272028403114068,0.13206652217589404,0.017354415847734117,0.1827227952482651,-0.13203382153296034,0.017354492452322928,-0.1830755096024397,0.13094702614884218,0.017353482355422445,-0.18314119777074858,-0.13204607069233745,0.017352546229379595,-0.029526857971313367,0.007319401710734983,-0.09560393792821775,-0.04526529632311034,0.0845130698621104,0.010760063923419551,0.029526857971313367,0.007319401710734983,0.09560393792821775,0.04526529632311034,0.0845130698621104,0.010760063923419551,0.0476063236054679,0.0,3,0.4,0,0
0.038,0.0,1,1,1,1,1,1,1,1,0.0,0.0,0.0,-0.0008377322684772759,0.00015275443509608309,0.3077686640897207,0.0023597349470682845,0.005529573612866212,0.00048642941999240275,0.18269976332733232,0.1320676726820263,0.017356193842484713,0.1827046448635005,-0.13203270046064397,0.017356221429423335,-0.18309211269203426,0.13094777488529122,0.01735517528593783,-0.1831556511406723,-0.13204539028868825,0.017354199422023847,-0.03064517880565557,0.006505561684114615,-0.09664867501155816,-0.12808072659451186,0.07901656850063705,0.009062465025506655,0.03064517880565557,0.006505561684114615,0.09664867501155816,0.12808072659451186,0.07901656850063705,0.009062465025506655,0.04621320551527684,0.0,3,0.4,0,0
0.04,0.0,1,1,1,1,1,1,1,1,0.0,0.0,0.0,-0.0009013488658498123,0.00016662714191875765,0.3075753850488868,0.002136938265698385,0.005683880080183945,0.0005027358253882846,0.18267918295192298,0.13206881973936777,0.017357969134737777,0.18268625633523036,-0.132031582877532,0.017357950950633333,-0.18310891051564357,0.1309485652132893,0.01735686938114972,-0.18317045141128507,-0.13204466352506286,0.01735585610225332,-0.03187986102054341,0.0069632718251499415,-0.09701478630259075,-0.09480724189057874,0.07532614641502176,0.006898866805302019,0.03187986102054341,0.0069632718251499415,0.09701478630259075,0.09480724189057874,0.07532614641502176,0.006898866805302019,0.04574199965099537,0.0,3,0.4,0,0
0.042,0.0,1,1,1,1,1,1,1,1,0.0,0.0,0.0,-0.0009673730625883645,0.00018076167906431906,0.3073812466299277,0.0019363328727734894,0.005833474988057974,0.000517159532749493,0.18265831549421424,0.13206996880726027,0.01735974649260913,0.1826678630646713,-0.13203045712768882,0.01735967758852064,-0.1831261502381011,0.13094925839135274,0.017358566631043376,-0.18318547742697622,-0.13204403513588245,0.017357514193688223,-0.03301801307851312,0.00680880615899108,-0.09752913622673849,-0.1058812428837817,0.07429787283960493,0.007218969769082389,0.03301801307851312,0.00680880615899108,0.09752913622673849,0.1058812428837817,0.07429787283960493,0.007218969769082389,0.04704578900658658,0.0,3,0.4,0,0
0.044,0.0,1,1,1,1,1,1,1,1,0.0,0.0,0.0,-0.0010358780253575898,0.00019425109544608522,0.3071858930709071,0.0017063078528241815,0.005975718912825334,0.0005365231826053963,0.18263708255125863,0.13207115093419,0.01736152580158129,0.18264963038665785,-0.13202929743223168,0.01736139822317384,-0.18314395038995593,0.13094978668625892,0.017360270490998447,-0.1832006507977241,-0.13204357216667423,0.017359173510172188,-0.03432511530424886,0.006360241162691529,-0.09824992318041946,-0.12425850270743088,0.06798072191606394,0.011883204605897578,0.03432511530424886,0.006360241162691529,0.09824992318041946,0.12425850270743088,0.06798072191606394,0.011883204605897578,0.052568561072837965,0.0,3,0.4,0,0
0.046,0.0,1,1,1,1,1,1,1,1,0.0,0.0,0.0,-0.0011070232232095927,0.00020669210926518744,0.30698966382222204,0.001419633645797999,0.006108095063116048,0.0005642125186490394,0.18261559604252772,0.13207236440425316,0.01736330625542956,0.1826314684419898,-0.1320281036176095,0.017363112468797265,-0.18316208550572288,0.1309501734997429,0.017361979396841476,-0.18321593272798323,-0.13204324822733068,0.017360832453885616,-0.03562633091392075,0.005812588218098655,-0.09842498557328833,-0.16258329372942668,0.06443853812348865,0.015595646879297029,0.03562633091392075,0.005812588218098655,0.09842498557328833,0.16258329372942668,0.06443853812348865,0.015595646879297029,0.057034566011316436,0.0,3,0.4,0,0
0.048,0.0,1,1,1,1,1,1,1,1,0.0,0.0,0.0,-0.0011808147595826872,0.00021824649098847894,0.30679361649381576,0.0011042299359036868,0.00623537296647414,0.0005990054585619199,0.18259407140434333,0.1320736368622721,0.017365083293702954,0.18261306107852546,-0.13202685103362136,0.01736482599949593,-0.1831803222656612,0.13095047539641044,0.017363687203332034,-0.18323160879749964,-0.13204300825647575,0.017362493740220974,-0.03694715009724691,0.005536702046616415,-0.09808859538838782,-0.15303539309774297,0.06288246157178243,0.019036349137693344,0.03694715009724691,0.005536702046616415,0.09808859538838782,0.15303539309774297,0.06288246157178243,0.019036349137693344,0.06152020128155667,0.0,3,0.4,0,0
0.05,0.0,1,1,1,1,1,1,1,1,0.0,0.0,0.0,-0.0012573568148126078,0.00022956779162487122,0.3065972731414108,0.000842063628506147,0.006358492489732193,0.0006396368250069503,0.18257246227936644,0.13207497955726732,0.01736685607391586,0.1825944692851453,-0.13202553316028895,0.017366541762187132,-0.18319876978059998,0.13095068533504306,0.017365393482396657,-0.1832476902412396,-0.1320428622676384,0.017364160066399126,-0.03834996700502702,0.005640573804816471,-0.09874384217454944,-0.10938696830841921,0.060275338899035184,0.021476725084488245,0.03834996700502702,0.005640573804816471,0.09874384217454944,0.10938696830841921,0.060275338899035184,0.021476725084488245,0.06546726589433174,0.0,3,0.4,0,0
0.052000000000000005,0.0,1,1,1,1,1,1,1,1,0.0,0.0,0.0,-0.0013364420681135573,0.0002406713762956211,0.30640005112098023,0.0006191408858755779,0.0064747786388899,0.0006868525757323332,0.18255081911933338,0.1320763962805848,0.017368625235761492,0.18257592557904886,-0.1320241418408017,0.0173682546424887,-0.18321739484022317,0.13095080458765707,0.017367100416041392,-0.18326396245211427,-0.1320428005180628,0.017365829416698286,-0.03946077607485383,0.005371053689987816,-0.09898972264451676,-0.11383908076125188,0.05604491352386613,0.025652351133927314,0.03946077607485383,0.005371053689987816,0.09898972264451676,0.11383908076125188,0.05604491352386613,0.025652351133927314,0.07048418089876896,0.0,3,0.4,0,0
0.054,0.0,1,1,1,1,1,1,1,1,0.0,0.0,0.0,-0.0014180582791712849,0.0002516138766209341,0.30620389974671436,0.0004080163294803249,0.0065834887105729045,0.0007407846704572706,0.1825291777324505,0.1320779131454212,0.01737038786470793,0.18255744260732149,-0.13202264793227797,0.017369963523575477,-0.18323609379720596,0.13095086374985726,0.017368804654238817,-0.18328034101818755,-0.13204279862287202,0.017367498439404716,-0.040865241066907775,0.00552859230331792,-0.0976959838482617,-0.09763783282337624,0.052692133509061476,0.028223282219582237,0.040865241066907775,0.00552859230331792,0.0976959838482617,0.09763783282337624,0.052692133509061476,0.028223282219582237,0.07461711558980794,0.0,3,0.4,0,0
0.056,0.0,1,1,1,1,1,1,1,1,0.0,0.0,0.0,-0.0015026961645653435,0.00026280565126181543,0.3060101489974743,0.0002135940826324676,0.006687334811873669,0.000801103372024829,0.18250755416763034,0.13207958048975962,0.01737214559421779,0.18253878636668364,-0.13202100459292174,0.01737167062027903,-0.183254764139926,0.13095089444062671,0.017370504653336255,-0.1832969923825815,-0.13204282526679528,0.01736916841038963,-0.04247657389603399,0.00566798127727899,-0.09661560643497258,-0.09718489542450438,0.051172322305800357,0.032061688252337656,0.04247657389603399,0.00566798127727899,0.09661560643497258,0.09718489542450438,0.051172322305800357,0.032061688252337656,0.08020624342565064,0.0,3,0.4,0,0
0.058,0.0,1,1,1,1,1,1,1,1,0.0,0.0,0.0,-0.0015899993148024653,0.0002748298744347295,0.3058174206612486,8.279843305458391e-05,0.006789408109589168,0.0008689466589174552,0.1824857343968127,0.13208133943005698,0.01737390059543542,0.1825198560707938,-0.13201927211217426,0.01737338188730228,-0.1832734146451995,0.13095092708059802,0.017372198968682084,-0.18331375161811547,-0.13204285054488824,0.01737083937069661,-0.04351582977731507,0.006400530778596797,-0.09669835933656687,-0.03406810192394699,0.050908644475565715,0.0357681351469847,0.04351582977731507,0.006400530778596797,0.09669835933656687,0.03406810192394699,0.050908644475565715,0.0357681351469847,0.08568449570289657,0.0,3,0.4,0,0
0.06,0.0,1,1,1,1,1,1,1,1,0.0,0.0,0.0,-0.0016799459375845013,0.0002874927943551663,0.3056250924375178,-1.921302831056493e-05,0.006899096684508388,0.0009400753718796099,0.18246356526622423,0.1320830657856065,0.017375658843768904,0.1825009119408061,-0.13201757170470485,0.017375089982723052,-0.1832921318416206,0.1309509931614645,0.017373892582338624,-0.18333019747221602,-0.13204284527575474,0.017372502809299695,-0.0451008911926447,0.006337640943348567,-0.09624138943669665,-0.06842987560151263,0.05878343490381747,0.03535394357741639,0.0451008911926447,0.006337640943348567,0.09624138943669665,0.06842987560151263,0.05878343490381747,0.03535394357741639,0.08679247571340966,0.0,3,0.4,0,0
0.062,0.0,1,1,1,1,1,1,1,1,0.0,0.0,0.0,-0.0017732487338136956,0.00030020581317054815,0.3054355265420069,-0.0001845399345272282,0.007020791449130925,0.0010081563265755475,0.18244135957516622,0.13208474306410706,0.01737741509875007,0.1824819069950296,-0.1320159239770059,0.017376792633036348,-0.18331081840283128,0.13095115847277425,0.017375583251301868,-0.18334654615767845,-0.1320427383910309,0.017374158768862724,-0.046867993900971405,0.006485509619701788,-0.09396799609185683,-0.09737056655104274,0.06290559581018416,0.03273634064135004,0.046867993900971405,0.006485509619701788,0.09396799609185683,0.09737056655104274,0.06290559581018416,0.03273634064135004,0.08608984416202323,0.0,3,0.4,0,0
0.064,0.0,1,1,1,1,1,1,1,1,0.0,0.0,0.0,-0.0018700407935749639,0.0003132799231863709,0.3052493874159498,-0.0003681029259267444,0.007146782915614436,0.0010697749872227054,0.1824193077876627,0.13208631909885563,0.017379165767675203,0.1824628184677075,-0.1320143765968737,0.017378492869951884,-0.1833295711541239,0.13095145706199146,0.017377271431129798,-0.18336305830439129,-0.13204250012696558,0.017375811742172648,-0.04858950631731796,0.0067407293086613005,-0.09284845031579247,-0.08662866872788719,0.06306886018774964,0.028916277538503194,0.04858950631731796,0.0067407293086613005,0.09284845031579247,0.08662866872788719,0.06306886018774964,0.028916277538503194,0.08424651316448245,0.0,3,0.4,0,0
0.066,0.0,1,1,1,1,1,1,1,1,0.0,0.0,0.0,-0.0019697370613123203,0.00032667182833981943,0.3050654173329735,-0.0005506080012834551,0.007266676876102496,0.0011213988528710691,0.1823974760748109,0.13208775928793712,0.017380909137037215,0.1824437624331159,-0.1320129543011363,0.01738018901491556,-0.18334845135887656,0.13095189019320252,0.017378959669469257,-0.18337972810679748,-0.1320421266848915,0.017377464044524116,-0.04976368877601908,0.006845165216098299,-0.09182906757475272,-0.09624823536146392,0.05680218616725543,0.022760166557384755,0.04976368877601908,0.006845165216098299,0.09182906757475272,0.09624823536146392,0.05680218616725543,0.022760166557384755,0.07936902054950214,0.0,3,0.4,0,0
0.068,0.0,1,1,1,1,1,1,1,1,0.0,0.0,0.0,-0.0020716250454593365,0.0003401381144855449,0.30488341019864773,-0.0007456097599195199,0.0073758167299260435,0.0011619618017893608,0.18237587815499978,0.13208902055089486,0.017382645524720297,0.18242465428136964,-0.1320117097975219,0.01738188157804557,-0.18336734625006756,0.13095251547850653,0.01738064701635761,-0.18339647982562315,-0.1320415652155861,0.0173791145376527,-0.050773667698959524,0.006855804495231273,-0.09091023011378963,-0.09905031629587073,0.05231189066266715,0.01787182998779226,0.050773667698959524,0.006855804495231273,0.09091023011378963,0.09905031629587073,0.05231189066266715,0.01787182998779226,0.07550130218198306,0.0,3,0.4,0,0
0.07,0.0,1,1,1,1,1,1,1,1,0.0,0.0,0.0,-0.002175606222528531,0.0003537835856450385,0.3047036983547485,-0.0009536488478908557,0.0074793628866483,0.0011871170379771266,0.18235466299747374,0.13209011476974888,0.017384372849955754,0.18240536654271938,-0.13201063792021622,0.017383572861666113,-0.18338608939477005,0.13095339900447267,0.017382331106115367,-0.18341338799033208,-0.13204074507642458,0.017380763101589924,-0.051853796811049326,0.007064995502176654,-0.08955713225504165,-0.10917508279487725,0.05121407799381229,0.007370040745088121,0.051853796811049326,0.007064995502176654,0.08955713225504165,0.10917508279487725,0.05121407799381229,0.007370040745088121,0.0662888330583141,0.0,3,0.4,0,0
0.07200000000000001,0.0,1,1,1,1,1,1,1,1,0.0,0.0,0.0,-0.002281859897627014,0.000368139779801053,0.3045268700698159,-0.001138661057068291,0.007578648247803743,0.0011941965674274887,0.1823338833170476,0.13209113484756377,0.017386088776223746,0.18238592694252667,-0.1320096412558981,0.01738526396071069,-0.1834046360418963,0.13095444562705516,0.017384009491630437,-0.18343054981836532,-0.13203975137346236,0.017382413370742034,-0.053048443031616675,0.007603378452522709,-0.08805075067807254,-0.07589006380678173,0.04806440248585295,-0.00018548717081164052,0.053048443031616675,0.007603378452522709,0.08805075067807254,0.07589006380678173,0.04806440248585295,0.00018548717081164052,0.060837308654951024,0.0,3,0.4,0,0
0.074,0.0,1,1,1,1,1,1,1,1,0.0,0.0,0.0,-0.002390919960067317,0.00038323120043545316,0.3043535454555475,-0.0012657286518426114,0.007670991979536135,0.0011913598519004826,0.1823134726796243,0.1320921066709789,0.017387794590831035,0.18236664238989644,-0.1320086816818669,0.017386951190182992,-0.18342318549652264,0.13095555640797046,0.017385683855391548,-0.18344786965483464,-0.13203869424562192,0.01738406406214657,-0.05466890646469843,0.007827341002765824,-0.08608187879671361,-0.05115578780711379,0.044282855987061824,-0.002539226862964725,0.05466890646469843,0.007827341002765824,0.08608187879671361,0.05115578780711379,0.044282855987061824,0.002539226862964725,0.06503547433042897,0.0,3,0.4,0,0
0.076,0.0,1,1,1,1,1,1,1,1,0.0,0.0,0.0,-0.002502582596548885,0.0003985416900962237,0.30418405205885374,-0.0013744456821723255,0.007749524514891082,0.0011843225257902063,0.18229348633747341,0.13209311343523053,0.017389489736788333,0.1823476158308224,-0.13200768782968986,0.017388631097446566,-0.18344165081503133,0.13095667098607908,0.01738735563913721,-0.18346529407986295,-0.132037629609343,0.017385715293104176,-0.05566539352955489,0.00784053436155389,-0.08424678241623083,-0.057506875774044,0.03425897939444143,-0.004395008206154946,0.05566539352955489,0.00784053436155389,0.08424678241623083,0.057506875774044,0.03425897939444143,0.004395008206154946,0.06790093609726372,0.0,3,0.4,0,0
0.078,0.0,1,1,1,1,1,1,1,1,0.0,0.0,0.0,-0.0026162211257229864,0.00041410756007317613,0.3040188857664055,-0.001450178563681548,0.007813937795442483,0.0011787585328001428,0.18227380499810855,0.1320942359796014,0.017391175513459478,0.18232884612931408,-0.13200658438628757,0.017390304027736142,-0.18346011413504096,0.13095771625297495,0.01738902311151372,-0.18348287891302878,-0.1320366349192862,0.017387366955094574,-0.05666603806520994,0.008093989269044857,-0.08177634480170584,-0.018182804320914656,0.03016207681393158,-0.001076727543617576,0.05666603806520994,0.008093989269044857,0.08177634480170584,0.018182804320914656,0.03016207681393158,0.001076727543617576,0.06583675487787237,0.0,3,0.4,0,0
0.08,0.0,1,1,1,1,1,1,1,1,0.0,0.0,0.0,-0.002731716458926679,0.00043002406869396636,0.3038569739891999,-0.0014862625753835745,0.007863876586366114,0.0011811217545325352,0.1822542806675495,0.1320954435375429,0.017392855022474424,0.18231028356498483,-0.13200539589594232,0.01739197091491823,-0.18347850051439463,0.13095870070540472,0.01739068884729217,-0.18350042167649647,-0.13203570497792644,0.0173890174734595,-0.05753770690266514,0.008197799634232332,-0.08101193336869682,-0.017919859510894764,0.019773107492627912,0.0035130142862441396,0.05753770690266514,0.008197799634232332,0.08101193336869682,0.017919859510894764,0.019773107492627912,0.0035130142862441396,0.0692485208231416,0.0,3,0.4,0,0
0.082,0.0,1,1,1,1,1,1,1,1,0.0,0.0,0.0,-0.0028495614350723276,0.0004460915681245164,0.30369908763866077,-0.0015066876832926482,0.007908828509851196,0.001189360782804263,0.1822346632829312,0.1320966908710596,0.01739453163405577,0.18229201515692917,-0.13200416257272252,0.017393631963357664,-0.18349670027381648,0.13095954698395618,0.017392348260566987,-0.18351749672885376,-0.13203491140213192,0.01739066130700534,-0.05903941662736306,0.008246974237411143,-0.07777431577408535,-0.002570229974830781,0.025166359681644403,0.004793418118361205,0.05903941662736306,0.008246974237411143,0.07777431577408535,0.002570229974830781,0.025166359681644403,0.004793418118361205,0.0720798089831354,0.0,3,0.4,0,0
0.084,0.0,1,1,1,1,1,1,1,1,0.0,0.0,0.0,-0.002970116590350829,0.0004614358102367111,0.303546929140146,-0.0015625020072904804,0.007962574412324841,0.001205294780667449,0.1822149340075842,0.1320979170371395,0.017396208110962458,0.1822743158312019,-0.13200294967855628,0.017395283263821615,-0.1835150203181887,0.13096025733502842,0.017394006263210193,-0.1835340719717442,-0.13203425819549874,0.01739229569369946,-0.060286085386400456,0.007476485885934927,-0.07531203103720967,-0.05337068564964932,0.028555255080574257,0.011221267671054547,0.060286085386400456,0.007476485885934927,0.07531203103720967,0.05337068564964932,0.028555255080574257,0.011221267671054547,0.07898383894338994,0.0,3,0.4,0,0
0.08600000000000001,0.0,1,1,1,1,1,1,1,1,0.0,0.0,0.0,-0.0030927380912838735,0.0004755649379526891,0.30339983115404795,-0.0017134714362434568,0.008014511616577513,0.0012259571392544484,0.18219554503425334,0.13209916112378292,0.017397878206826367,0.18225696247957876,-0.13200172430315477,0.01739692621659855,-0.18353324855336872,0.13096092163176665,0.017395662986876087,-0.18355058122435886,-0.13203364899329467,0.017393925459752352,-0.06113922248194703,0.007044029460688436,-0.07273714940316335,-0.09776381361040208,0.02334862474138928,0.009523930808300572,0.06113922248194703,0.007044029460688436,0.07273714940316335,0.09776381361040208,0.02334862474138928,0.009523930808300572,0.07770718275093605,0.0,3,0.4,0,0
0.088,0.0,1,1,1,1,1,1,1,1,0.0,0.0,0.0,-0.0032172047103061264,0.0004893963899297113,0.30325761372170373,-0.0018583049449947034,0.008055710362190549,0.0012487749756032453,0.1821764099918198,0.13210042034865124,0.017399540563996063,0.18223984374967833,-0.13200048453032573,0.01739856476342408,-0.18355133010470764,0.1309614926086995,0.0173973151103273,-0.18356702591733845,-0.132033128558864,0.017395554106093947,-0.062163494180638774,0.00719700824986778,-0.07045045159962722,-0.047253179491421056,0.01780844964862537,0.013367346647043454,0.062163494180638774,0.00719700824986778,0.07045045159962722,0.047253179491421056,0.01780844964862537,0.013367346647043454,0.08272784907755,0.0,3,0.4,0,0
0.09,0.0,1,1,1,1,1,1,1,1,0.0,0.0,0.0,-0.0033441526673484603,0.000502618361814051,0.30312034494525586,-0.001987236323130368,0.008091199912276137,0.001275911398308624,0.18215722247872018,0.13210162166666198,0.017401200148450757,0.18222306032527952,-0.13199930151827766,0.017400196808984886,-0.18356945299912136,0.13096198440895268,0.017398965676667044,-0.18358313392452882,-0.13203268465090132,0.01739717822420775,-0.0636553700997479,0.006450928219251542,-0.06781270155329427,-0.08189729167041807,0.017629300449172818,0.013835754344604427,0.0636553700997479,0.006450928219251542,0.06781270155329427,0.08189729167041807,0.017629300449172818,0.013835754344604427,0.08394205266360386,0.0,3,0.4,0,0
0.092,0.0,1,1,1,1,1,1,1,1,0.0,0.0,0.0,-0.0034738302102078765,0.0005148246986089196,0.30298782909762056,-0.0021788268784711383,0.008126725221176967,0.0013040420610683848,0.18213809910323334,0.1321027821504623,0.01740285746715825,0.18220670908112457,-0.13199815726856862,0.017401822492166374,-0.183587750929758,0.13096238369517518,0.0174006164134467,-0.18359907666191513,-0.13203233705871692,0.017398798101586593,-0.06492754251839312,0.006200685807870873,-0.06572418239098407,-0.10992137811908691,0.017837680537559526,0.014367445880585094,0.06492754251839312,0.006200685807870873,0.06572418239098407,0.10992137811908691,0.017837680537559526,0.014367445880585094,0.0854956742068491,0.0,3,0.4,0,0
0.094,0.0,1,1,1,1,1,1,1,1,0.0,0.0,0.0,-0.003605301663040383,0.00052601173473443,0.30285883965979105,-0.002425135060191632,0.008151964691438085,0.0013344127895961687,0.18211912283575643,0.13210398883785032,0.017404510435986675,0.18219050602454392,-0.13199696446658907,0.017403443371459548,-0.1836059744434904,0.13096267674276582,0.01740226702628267,-0.1836150327319597,-0.13203209378055755,0.017400416675091568,-0.065474834727744,0.005458968765533858,-0.06430454457326487,-0.13663417979153397,0.00733201036592389,0.0160586656904067,0.065474834727744,0.005458968765533858,0.06430454457326487,0.13663417979153397,0.00733201036592389,0.0160586656904067,0.08699246918368456,0.0,3,0.4,0,0
0.096,0.0,1,1,1,1,1,1,1,1,0.0,0.0,0.0,-0.003738456581009575,0.0005366974299896824,0.30273277898700407,-0.002650689161423628,0.008172475519882205,0.001370912513371282,0.1821004039910652,0.1321052615570261,0.017406159687207656,0.18217412989139245,-0.13199570847826242,0.017405065034559103,-0.1836237836897676,0.1309629703775938,0.017403911253228432,-0.1836310492157517,-0.1320318434139555,0.017402035188286313,-0.06663215934175892,0.005729325771722013,-0.06281063397455786,-0.08921777701563645,0.013084754871178016,0.020492913122813455,0.06663215934175892,0.005729325771722013,0.06281063397455786,0.08921777701563645,0.013084754871178016,0.020492913122813455,0.09285439823629439,0.0,3,0.4,0,0
0.098,0.0,1,1,1,1,1,1,1,1,0.0,0.0,0.0,-0.003873353738770538,0.0005478310762329694,0.3026099840233041,-0.0027960370084921782,0.008198191474703576,0.001410016678371377,0.18208212602936003,0.13210654007366193,0.017407802710699444,0.18215770755065566,-0.13199444683497014,0.017406687278205102,-0.18364116159955515,0.13096332100365154,0.01740554872481201,-0.18364709572151425,-0.13203153705546652,0.017403652773930467,-0.0672397808828535,0.00592913168162944,-0.06105295665497614,-0.05645013485387154,0.012524103692573393,0.018680209470177126,0.0672397808828535,0.00592913168162944,0.06105295665497614,0.05645013485387154,0.012524103692573393,0.018680209470177126,0.09184912203466006,0.0,3,0.4,0,0
0.1,0.0,1,1,1,1,1,1,1,1,0.0,0.0,0.0,-0.004009201616216814,0.0005594354395418998,0.30249101333374606,-0.002871130742047253,0.008223860238693481,0.001446866753594311,0.18206443900229927,0.1321078176098862,0.017409438501706342,0.18214114642117998,-0.13199318685609107,0.017408310111083097,-0.18365804225789661,0.1309638218906871,0.017407178991702354,-0.1836632922494585,-0.13203107895038876,0.017405269940488438,-0.06760996372015148,0.0062094143329798875,-0.05899510348672408,-0.018946157090128108,0.013039467312182047,0.01824170890998071,0.06760996372015148,0.0062094143329798875,0.05899510348672408,0.018946157090128108,0.013039467312182047,0.01824170890998071,0.09206108696311208,0.0,3,0.4,0,0
0.10200000000000001,0.0,1,1,1,1,1,1,1,1,0.0,0.0,0.0,-0.004146174438553172,0.0005722114124423533,0.3023760412477436,-0.0028496731550752157,0.008247244516120578,0.0014773300001673195,0.18204728010920798,0.13210907094347255,0.017411065694354133,0.1821244742517078,-0.13199195515151,0.017409934552737816,-0.1836745181263477,0.13096452719207924,0.01740880289849711,-0.18367958787830632,-0.13203041528676362,0.01740688772791868,-0.06839254910771402,0.007098872908592532,-0.057063389089956236,0.04015289210601958,0.01025661514745403,0.012287986242050308,0.06839254910771402,0.007098872908592532,0.057063389089956236,0.04015289210601958,0.01025661514745403,0.012287986242050308,0.08777940825835685,0.0,3,0.4,0,0
0.10400000000000001,0.0,1,1,1,1,1,1,1,1,0.0,0.0,0.0,-0.004284724820341253,0.000586358735955151,0.3022652286807821,-0.0027585515324740316,0.008268216378088722,0.0014978495190590769,0.18203037017063717,0.13211025269224896,0.017412687814657823,0.1821078981548146,-0.13199079433781347,0.01741155757474233,-0.18369067239165265,0.13096537500486108,0.017410422641127993,-0.18369558770019181,-0.13202960986107384,0.01740850307094255,-0.0692168792289058,0.007568521370890176,-0.0548486648075125,0.05079933369243062,0.010657336009466974,0.008289652864706759,0.0692168792289058,0.007568521370890176,0.0548486648075125,0.05079933369243062,0.010657336009466974,0.008289652864706759,0.08507505346450274,0.0,3,0.4,0,0
0.106,0.0,1,1,1,1,1,1,1,1,0.0,0.0,0.0,-0.0044247160198207895,0.0006011290854199535,0.30215933140861345,-0.0026741540763344884,0.00829441481836013,0.0015094432950894375,0.18201373729387987,0.13211126041523427,0.017414306272989816,0.182091657457847,-0.1319898047447714,0.017413176829920413,-0.18370675861773947,0.1309663326062112,0.017412039680615193,-0.18371129354211543,-0.13202869404086287,0.017410114730255027,-0.06987022874296302,0.007703163037456154,-0.05216301518621416,0.033502204427109106,0.015509409648897481,0.0033744161438408315,0.06987022874296302,0.007703163037456154,0.05216301518621416,0.033502204427109106,0.015509409648897481,0.0033744161438408315,0.08094780792426,0.0,3,0.4,0,0
0.108,0.0,1,1,1,1,1,1,1,1,0.0,0.0,0.0,-0.004565985396976021,0.0006155437493570498,0.3020582450966323,-0.0026448750960225437,0.008315344882446452,0.0015095651453772142,0.18199739883215338,0.1321120790419131,0.01741592008179846,0.18207574886918937,-0.1319890042253204,0.017414791576858185,-0.1837228330294665,0.13096737938970027,0.01741365599323244,-0.18372678385871502,-0.13202769493710778,0.01741172385119849,-0.07053287961732185,0.007196660944991949,-0.050053575334428474,-0.004224168181686123,0.0054201635150833965,-0.003197153847777258,0.07053287961732185,0.007196660944991949,0.050053575334428474,0.004224168181686123,0.0054201635150833965,0.003197153847777258,0.08092669441009107,0.0,3,0.4,0,0
0.11,0.0,1,1,1,1,1,1,1,1,0.0,0.0,0.0,-0.004708568065157369,0.000629294203784555,0.30196156095297844,-0.0026686404284017914,0.008328180405498431,0.0014983514033940154,0.18198123226221224,0.13211278618796948,0.01741753172257951,0.1820602158996796,-0.13198830871772269,0.017416402671873443,-0.18373882731894442,0.1309684182260396,0.017415270225512564,-0.18374193228657038,-0.1320267032084075,0.017413329913084225,-0.07121945140771281,0.007028145152912219,-0.047776132335543745,-0.019447827713365184,0.00744507690840955,-0.007982133404496711,0.07121945140771281,0.007028145152912219,0.047776132335543745,0.019447827713365184,0.00744507690840955,0.007982133404496711,0.08622972996512175,0.0,3,0.4,0,0
0.112,0.0,1,1,1,1,1,1,1,1,0.0,0.0,0.0,-0.004852311696982973,0.0006422785265076936,0.30186953911044356,-0.002742973125783253,0.008338326301133403,0.0014834274696588206,0.18196529635257674,0.13211346126724996,0.017419140857506954,0.18204523087289706,-0.13198764494251328,0.017418008890601994,-0.18375482286584013,0.13096937039858125,0.01741688324781404,-0.18375679519428392,-0.1320257894337499,0.01741493344677081,-0.07173284728158884,0.00642255382971163,-0.045404161726424426,-0.054760476587284786,0.002740858782894653,-0.006914129122894442,0.07173284728158884,0.00642255382971163,0.045404161726424426,0.054760476587284786,0.002740858782894653,0.006914129122894442,0.0850695302341949,0.0,3,0.4,0,0
0.114,0.0,1,1,1,1,1,1,1,1,0.0,0.0,0.0,-0.00499704386902552,0.000654344234402138,0.3017823529995084,-0.0028627653946643045,0.008338444126496647,0.0014709343604269282,0.1819497805013968,0.13211417178713847,0.017420745901055495,0.18203055690783584,-0.1319869533788274,0.017419610916728473,-0.18377073486935988,0.13097024165503043,0.017418494973343912,-0.1837717518340334,-0.13202495635304576,0.01741653552786404,-0.07224932797996297,0.006104482756053844,-0.042950841219398884,-0.06492758795828994,-0.0025881620292653017,-0.005578486171176405,0.07224932797996297,0.006104482756053844,0.042950841219398884,0.06492758795828994,0.0025881620292653017,0.005578486171176405,0.08393229690719321,0.0,3,0.4,0,0
0.116,0.0,1,1,1,1,1,1,1,1,0.0,0.0,0.0,-0.0051425636669894265,0.0006660004337086804,0.3016985553407308,-0.002950042630644291,0.008323686969839317,0.0014630708361888832,0.18193456140359893,0.1321149290543485,0.017422347114296827,0.182016272262246,-0.13198621546102204,0.017421209775825397,-0.18378676890682635,0.13097099938529053,0.017420106277995062,-0.18378683320380687,-0.1320242363459784,0.017418138081869955,-0.07255004140451397,0.006012154137897603,-0.04202123157475288,-0.022284075514639092,-0.012146051704098269,-0.0023283531082811102,0.07255004140451397,0.006012154137897603,0.04202123157475288,0.022284075514639092,0.012146051704098269,0.0023283531082811102,0.08089054865069269,0.0,3,0.4,0,0
0.11800000000000001,0.0,1,1,1,1,1,1,1,1,0.0,0.0,0.0,-0.005288826044303063,0.0006770951981834568,0.3016170803072749,-0.003030134576745115,0.008290317494803912,0.0014618495773418357,0.18191965281685776,0.13211574890376912,0.017423945680253627,0.1820023295378818,-0.1319854142176408,0.017422805513714418,-0.18380269501977395,0.13097166834605856,0.017421717549730487,-0.18380186265196832,-0.13202360398229174,0.017419739402834533,-0.0730140789674464,0.005543636123364767,-0.04063167021729601,-0.05779766404925203,-0.021219779658500217,0.0010075934659092374,0.0730140789674464,0.005543636123364767,0.04063167021729601,0.05779766404925203,0.021219779658500217,0.0010075934659092374,0.07956530855672041,0.0,3,0.4,0,0
0.12,0.0,1,1,1,1,1,1,1,1,0.0,0.0,0.0,-0.005436189087059359,0.0006879101842501339,0.3015396306852234,-0.0030934717503050446,0.008247078442286337,0.0014666327735223146,0.18190492396658517,0.13211664224289107,0.017425542066922373,0.1819886022691513,-0.13198454016574204,0.01742439938867757,-0.18381836192650947,0.13097219051012732,0.017423325914172005,-0.18381672805995386,-0.1320231174053493,0.017421339119789242,-0.07368747540202109,0.005727837137295688,-0.03799949554013154,-0.00557900477678623,-0.022033919773276168,0.003641872400790379,0.07368747540202109,0.005727837137295688,0.03799949554013154,0.00557900477678623,0.022033919773276168,0.003641872400790379,0.08305718494010715,0.0,3,0.4,0,0
0.122,0.0,1,1,1,1,1,1,1,1,0.0,0.0,0.0,-0.005584806812749837,0.0006981130460544625,0.30146634905400055,-0.0031317271001242595,0.008204297474635247,0.0014804655561608765,0.18189024504376522,0.13211761320811408,0.017427138876071252,0.18197500971863387,-0.1319835932753375,0.01742599066071923,-0.18383384762856994,0.13097255937487406,0.017424932975034557,-0.1838314654873825,-0.13202278333676878,0.017422936368623715,-0.07430721493012402,0.004925826370051681,-0.03646920303648495,-0.03278998200728259,-0.020789831732567196,0.010057821966164242,0.07430721493012402,0.004925826370051681,0.03646920303648495,0.03278998200728259,0.020789831732567196,0.010057821966164242,0.08929086326633993,0.0,3,0.4,0,0
0.124,0.0,1,1,1,1,1,1,1,1,0.0,0.0,0.0,-0.005734836487726489,0.0007076746901359112,0.3013961918425305,-0.003150152751679375,0.008163891940260903,0.0015038758853560474,0.18187590502443454,0.13211868968626828,0.017428734728051898,0.18196144784823376,-0.1319825413307222,0.017427581592606933,-0.18384907197479985,0.13097290841385717,0.017426537025790168,-0.18384633289945934,-0.13202247111672066,0.0174245332722118,-0.07512880072163754,0.005083831428464045,-0.03488227831052189,0.014172817127728204,-0.01968960736120291,0.01322375635070914,0.07512880072163754,0.005083831428464045,0.03488227831052189,0.014172817127728204,0.01968960736120291,0.01322375635070914,0.09343638850081072,0.0,3,0.4,0,0
0.126,0.0,1,1,1,1,1,1,1,1,0.0,0.0,0.0,-0.005885773719065747,0.0007177823942551979,0.30132870275816964,-0.0030966541339928484,0.008118637467339873,0.0015327352097981865,0.1818618424342057,0.13211987555006724,0.017430328741136925,0.18194791000985666,-0.13198137143818306,0.017429172598829173,-0.1838640199807044,0.13097326305746715,0.017428138758285833,-0.1838612419141412,-0.1320221518592813,0.017426129526467604,-0.07523843809041489,0.005467635697024112,-0.03380063595250054,0.03909081752937115,-0.02565507835534735,0.015492717114860534,0.07523843809041489,0.005467635697024112,0.03380063595250054,0.03909081752937115,0.02565507835534735,0.015492717114860534,0.09619879090229955,0.0,3,0.4,0,0
0.128,0.0,1,1,1,1,1,1,1,1,0.0,0.0,0.0,-0.006037339073294735,0.0007287100317605764,0.3012637371036429,-0.0029830953162059927,0.008072034792945715,0.001565737200098861,0.1818479661082358,0.1321211255881901,0.017431922228157537,0.18193437398045584,-0.1319801359759348,0.01743076351152051,-0.18387866302567069,0.1309735752037873,0.017429737804888573,-0.18387609612525685,-0.1320218805127526,0.01742772340579457,-0.07577888510958034,0.0058960483466448214,-0.032355484000781906,0.07420096035684413,-0.0210481699804993,0.017365292443884166,0.07577888510958034,0.0058960483466448214,0.032355484000781906,0.07420096035684413,0.0210481699804993,0.017365292443884166,0.09904022590010933,0.0,3,0.4,0,0
0.13,0.0,1,1,1,1,1,1,1,1,0.0,0.0,0.0,-0.006189549042406009,0.0007397848583596832,0.3012013446006233,-0.0028237144811710368,0.008028767799431957,0.0016030578241642164,0.18183434662463985,0.13212238917091998,0.017433515161238894,0.18192105997196603,-0.13197889012753083,0.017432352454616773,-0.18389311720891105,0.13097381637533742,0.017431334921645975,-0.18389084957965016,-0.13202167905369241,0.017429315493850572,-0.07590611598194476,0.005604671594886763,-0.03122704387514699,0.08487946151232344,-0.02232699711311116,0.019828213720829727,0.07590611598194476,0.005604671594886763,0.03122704387514699,0.08487946151232344,0.02232699711311116,0.019828213720829727,0.10133900129766125,0.0,3,0.4,0,0
0.132,0.0,1,1,1,1,1,1,1,1,0.0,0.0,0.0,-0.006342281775215189,0.0007504245946680846,0.30114222973064697,-0.0026478280697041444,0.00798163872856783,0.0016440416582014015,0.18182101201370038,0.13212359132047416,0.017435106436735848,0.18190812611539883,-0.13197770498683548,0.017433939380614105,-0.18390748854000863,0.13097404197208865,0.01743293108699126,-0.18390539366613612,-0.1320214947540897,0.017430905106086664,-0.0763309790680481,0.005448240193357392,-0.029078400091426218,0.09067884491090036,-0.024914029483307152,0.021025309730490875,0.0763309790680481,0.005448240193357392,0.029078400091426218,0.09067884491090036,0.024914029483307152,0.021025309730490875,0.10280452899189638,0.0,3,0.4,0,0
0.134,0.0,1,1,1,1,1,1,1,1,0.0,0.0,0.0,-0.0064955669167999965,0.000760546255002163,0.30108711718018816,-0.002498168360593833,0.007926993175761288,0.001682910539793816,0.1818078578539442,0.13212473305164565,0.0174366955397757,0.1818956768642308,-0.13197658889458402,0.017435522858315705,-0.1839219404784959,0.13097424904675595,0.017434526811674483,-0.18391968563361397,-0.1320213297606481,0.017432492961163754,-0.07649384308567679,0.0050734360946438,-0.027224619079151236,0.058671505885035696,-0.029830977103129735,0.01770285415854164,0.07649384308567679,0.0050734360946438,0.027224619079151236,0.058671505885035696,0.029830977103129735,0.01770285415854164,0.09927013333886223,0.0,3,0.4,0,0
0.136,0.0,1,1,1,1,1,1,1,1,0.0,0.0,0.0,-0.00664906770626687,0.0007700973063286461,0.3010352512184343,-0.0024056040194121824,0.00786248653918653,0.001720130805454098,0.18179477227781796,0.13212582463654257,0.01743828313702378,0.18188356665939823,-0.1319755239185173,0.017437103937518406,-0.18393628230527026,0.1309744407045327,0.017436122056385478,-0.18393357252741854,-0.1320211767869707,0.017434078754792692,-0.07657618447277592,0.00486895883684851,-0.02582720254355376,0.033598956032044436,-0.034766181496387015,0.019359014467826573,0.07657618447277592,0.00486895883684851,0.02582720254355376,0.033598956032044436,0.034766181496387015,0.019359014467826573,0.10080415777745101,0.0,3,0.4,0,0
0.138,0.0,1,1,1,1,1,1,1,1,0.0,0.0,0.0,-0.006803009015718319,0.0007791646674078232,0.30098714937718524,-0.0023633716127102267,0.007800098612447126,0.0017558634124491517,0.1817818926962324,0.13212688086154398,0.017439867545695625,0.1818715310189476,-0.13197449347999568,0.01743868511652133,-0.18395025144886323,0.13097471732888374,0.017437714981892394,-0.18394713867618967,-0.13202093701618314,0.0174356619462864,-0.07696764875729903,0.004583537042328662,-0.023456168291237346,0.008353648696926962,-0.027706385759142357,0.016224272611312544,0.07696764875729903,0.004583537042328662,0.023456168291237346,0.008353648696926962,0.027706385759142357,0.016224272611312544,0.09777545841094024,0.0,3,0.4,0,0
0.14,0.0,1,1,1,1,1,1,1,1,0.0,0.0,0.0,-0.006956736339731006,0.0007885583437556907,0.30094235863127233,-0.0023198617645306427,0.0077458223726136755,0.001785883934117711,0.18176934047999188,0.13212786810611057,0.017441449239027046,0.1818596291719438,-0.13197353143955348,0.017440265351936463,-0.18396396403513915,0.1309750718028513,0.01743930469338212,-0.18396055524673868,-0.1320206191541204,0.017437243158055477,-0.07638996767708324,0.005190018724152842,-0.022505266715497324,0.034922799943405414,-0.02664045207269987,0.013667420796448922,0.07638996767708324,0.005190018724152842,0.022505266715497324,0.034922799943405414,0.02664045207269987,0.013667420796448922,0.095247407197685,0.0,3,0.4,0,0
0.14200000000000002,0.0,1,1,1,1,1,1,1,1,0.0,0.0,0.0,-0.007109944506396859,0.0007981021945946573,0.30090020426355385,-0.00226888340856241,0.0076903729188078085,0.0018097768841857033,0.18175713911471214,0.13212877205119722,0.017443028730822263,0.181847990960014,-0.13197265155349683,0.01744184410571109,-0.18397756424127068,0.1309754965154535,0.017440892420547888,-0.1839738584112046,-0.1320202311005066,0.017438823335268888,-0.07647084060254764,0.004728704629402997,-0.020807517920893324,0.01587102424720817,-0.02886353770547376,0.010098118345262653,0.07647084060254764,0.004728704629402997,0.020807517920893324,0.01587102424720817,0.02886353770547376,0.010098118345262653,0.09129766357721329,0.0,3,0.4,0,0
0.14400000000000002,0.0,1,1,1,1,1,1,1,1,0.0,0.0,0.0,-0.0072631806133715325,0.0008076586323773646,0.30086111576329844,-0.0022275063323527492,0.007627135889747283,0.0018275813102351965,0.18174533764454667,0.13212970257245718,0.017444606202059065,0.18183646280133445,-0.13197174523041205,0.017443421975739754,-0.1839909621550653,0.13097598995770726,0.017442477637899634,-0.18398723166075573,-0.13201976945355764,0.017440403880196603,-0.07644372534642038,0.0051969218385687,-0.019431084700628595,0.02536956434836424,-0.03441349430478689,0.007563385422783327,0.07644372534642038,0.0051969218385687,0.019431084700628595,0.02536956434836424,0.03441349430478689,0.007563385422783327,0.0892040326077724,0.0,3,0.4,0,0
0.146,0.0,1,1,1,1,1,1,1,1,0.0,0.0,0.0,-0.007416286549705067,0.0008179035761478846,0.30082420241134494,-0.002142240770119378,0.007556413141018403,0.0018440342033271373,0.18173390979841525,0.13213069564343405,0.01744618330819936,0.18182488448348072,-0.1319707761904497,0.017444998728269823,-0.18400398914204655,0.13097648723243763,0.017444060707932724,-0.1840007010651351,-0.1320193023282157,0.017441983625303498,-0.07635846816916686,0.005412274125139281,-0.01862031675106676,0.059771118043129616,-0.03634526259730152,0.008733339273154226,0.07635846816916686,0.005412274125139281,0.01862031675106676,0.059771118043129616,0.03634526259730152,0.008733339273154226,0.09050408156746037,0.0,3,0.4,0,0
0.148,0.0,1,1,1,1,1,1,1,1,0.0,0.0,0.0,-0.007569786274623845,0.0008286780554792121,0.30078978878788865,-0.0019781945574686125,0.007484726195145175,0.0018631726421806665,0.18172266242708257,0.13213175095526528,0.01744776081647942,0.18181335491333117,-0.13196974235935666,0.017446575103130635,-0.18401681450148347,0.13097689803997478,0.01744564234311799,-0.18401419156118215,-0.13201892425854617,0.0174435617519777,-0.07685780981227651,0.0057201099727626145,-0.01692372389727128,0.10413122765683042,-0.03538125591176134,0.010255157267089069,0.07685780981227651,0.0057201099727626145,0.01692372389727128,0.10413122765683042,0.03538125591176134,0.010255157267089069,0.09283307705212819,0.0,3,0.4,0,0
0.15,0.0,1,1,1,1,1,1,1,1,0.0,0.0,0.0,-0.007723816437037817,0.0008392384842060599,0.3007573001719232,-0.0017721902275778562,0.007412065415822067,0.0018884782617716233,0.18171131497005577,0.13213287680321295,0.017449339726189894,0.181802038430505,-0.1319686368666281,0.017448149376561084,-0.18402969220809343,0.13097714539823216,0.017447223639098952,-0.18402756319642088,-0.1320187096551887,0.017445137851345965,-0.07690601235045567,0.005192311009187791,-0.01669064870476396,0.10168476248555491,-0.037326337153359666,0.014913752168941903,0.07690601235045567,0.005192311009187791,0.01669064870476396,0.10168476248555491,0.037326337153359666,0.014913752168941903,0.09701207552858537,0.0,3,0.4,0,0
0.152,0.0,1,1,1,1,1,1,1,1,0.0,0.0,0.0,-0.007878005979478108,0.0008490514547649968,0.3007255500218416,-0.0015814367453415488,0.0073385447299239015,0.0019238342265075286,0.18169970949593028,0.13213402597548005,0.017450918865208748,0.181791147546886,-0.1319675100618384,0.01744972163706951,-0.18404271651665613,0.13097726947418883,0.017448805390488764,-0.18404047725132053,-0.1320186199312318,0.017446711055350755,-0.0770261720853948,0.004969731821016441,-0.016178663442178654,0.08880817872699094,-0.036252787613064934,0.02031829238971999,0.0770261720853948,0.004969731821016441,0.016178663442178654,0.08880817872699094,0.036252787613064934,0.02031829238971999,0.10231419629613124,0.0,3,0.4,0,0
0.154,0.0,1,1,1,1,1,1,1,1,0.0,0.0,0.0,-0.008032372290746673,0.000858032296877816,0.3006956618085017,-0.0014792961185537007,0.007267888056209593,0.001965094980538883,0.18168804058468446,0.13213520397030387,0.017452496492860542,0.18178058512823494,-0.13196635503217746,0.01745129191896508,-0.184055841875319,0.13097731719907588,0.017450387495178077,-0.18405315643589235,-0.13201860793597234,0.017448281935740467,-0.07709995473529942,0.004358776447140545,-0.0148217104362966,0.013031169542905554,-0.03446536022870563,0.020835770885962668,0.07709995473529942,0.004358776447140545,0.0148217104362966,0.013031169542905554,0.03446536022870563,0.020835770885962668,0.10229450206840263,0.0,3,0.4,0,0
0.156,0.0,1,1,1,1,1,1,1,1,0.0,0.0,0.0,-0.00818635618467687,0.0008665650012416614,0.300666822675229,-0.0014242762110045324,0.007194650325426988,0.002010449708800772,0.18167647587895341,0.13213640336159888,0.017454073435750117,0.18177013283071097,-0.13196517828624751,0.017452860837831236,-0.18406895942850282,0.130977345621817,0.017451968475457214,-0.18406584606425624,-0.13201861274747395,0.01744985119324735,-0.07665411388329736,0.004523451795776732,-0.015117190565954378,0.04166080065996001,-0.03883868694304355,0.024410468553512275,0.07665411388329736,0.004523451795776732,0.015117190565954378,0.04166080065996001,0.03883868694304355,0.024410468553512275,0.10558803423258636,0.0,3,0.4,0,0
0.158,0.0,1,1,1,1,1,1,1,1,0.0,0.0,0.0,-0.008340065491492764,0.0008751004092903317,0.3006384415149397,-0.0013640757032206483,0.007117184746610938,0.0020574418666260133,0.18166499876181086,0.13213758376516738,0.01745564795709903,0.1817596528727834,-0.13196402109150673,0.017454429644643527,-0.18408196126493892,0.13097742966526635,0.01745354840143204,-0.1840784852793278,-0.13201856105648463,0.017451419603169288,-0.07683046200620706,0.004365693851457967,-0.01435066242393755,0.018203366295092824,-0.03869183832831414,0.02247334479086551,0.07683046200620706,0.004365693851457967,0.01435066242393755,0.018203366295092824,0.03869183832831414,0.02247334479086551,0.10366950064853053,0.0,3,0.4,0,0
0.16,0.0,1,1,1,1,1,1,1,1,0.0,0.0,0.0,-0.00849377984535922,0.0008838681967056775,0.3006108408755583,-0.0012979571577033824,0.007041869026308989,0.002100828128375839,0.18165364133838915,0.132138766380787,0.0174572213255694,0.18174899585016335,-0.1319628608484501,0.017455998131028383,-0.1840946571796456,0.13097761518520626,0.017455125612995226,-0.18409106295439578,-0.13201840738701445,0.017452987306875972,-0.07666607143339094,0.004759840719269278,-0.014325268062577652,0.04760800835998843,-0.03668225273320591,0.020810370575332426,0.07666607143339094,0.004759840719269278,0.014325268062577652,0.04760800835998843,0.03668225273320591,0.020810370575332426,0.10223628272799265,0.0,3,0.4,0,0
0.162,0.0,1,1,1,1,1,1,1,1,0.0,0.0,0.0,-0.008647421194357461,0.0008934215419807373,0.3005842373129528,-0.0011958573400341344,0.006974993602705037,0.0021403666151665057,0.18164232666254404,0.13213996183860174,0.01745879371759973,0.18173800471670726,-0.13196169040438552,0.017457566310319916,-0.18410681835016235,0.1309779143222999,0.017456700722180335,-0.18410342606277005,-0.132018137855597,0.01745455381192612,-0.0767644122382737,0.005153852402656274,-0.013341949752530186,0.05421476327221449,-0.03024265917154164,0.018643178125087083,0.0767644122382737,0.005153852402656274,0.013341949752530186,0.05421476327221449,0.03024265917154164,0.018643178125087083,0.10056144276601706,0.0,3,0.4,0,0
0.164,0.0,1,1,1,1,1,1,1,1,0.0,0.0,0.0,-0.008801532329978455,0.0009039815069961888,0.30055966706904813,-0.001045457838218575,0.006928687715624493,0.00217561815248937,0.18163095116505656,0.13214107386671475,0.017460365516038523,0.18172686382475978,-0.13196060163909112,0.01745913475904526,-0.18411868129928863,0.13097820746256272,0.017458274857080375,-0.18411552936195416,-0.1320178790144931,0.017456117844523056,-0.0771490105752097,0.005767472191787363,-0.012286701316100787,0.09593987782120443,-0.016103594029287654,0.016553563845124252,0.0771490105752097,0.005767472191787363,0.012286701316100787,0.09593987782120443,0.016103594029287654,0.016553563845124252,0.09947004661212132,0.0,3,0.4,0,0
0.166,0.0,1,1,1,1,1,1,1,1,0.0,0.0,0.0,-0.00895623119889202,0.0009139929545363467,0.3005368416859323,-0.0008987817204973396,0.00689744777543666,0.0022071910489023616,0.18161931620042898,0.13214203247405298,0.017461936573422404,0.18171598925733826,-0.13195966229357695,0.017460701775831422,-0.18413070564268288,0.13097841776635955,0.01745984883192117,-0.18412722589275834,-0.13201770443066552,0.017457681375135925,-0.07736606712114073,0.004606235836432579,-0.011597255883082755,0.050517966357611695,-0.015166421561583278,0.014988835838398273,0.07736606712114073,0.004606235836432579,0.011597255883082755,0.050517966357611695,0.015166421561583278,0.014988835838398273,0.09696113879597158,0.0,3,0.4,0,0
0.168,0.0,1,1,1,1,1,1,1,1,0.0,0.0,0.0,-0.00911146641647889,0.0009223074350761118,0.3005153990535382,-0.0008529981572966855,0.006870860243975319,0.0022362492052732537,0.18160765570679244,0.13214292830807656,0.01746350639992761,0.1817054237809296,-0.13195878780657194,0.01746226781099966,-0.18414288046667152,0.13097861405486425,0.01746142240237325,-0.18413870806474722,-0.13201753526946927,0.017459245720369554,-0.07769900229346936,0.00407284722577663,-0.010905783464465812,-0.004934400939503611,-0.011445767324436012,0.014045986164030362,0.07769900229346936,0.00407284722577663,0.010905783464465812,0.004934400939503611,0.011445767324436012,0.014045986164030362,0.09581783568327634,0.0,3,0.4,0,0
0.17,0.0,1,1,1,1,1,1,1,1,0.0,0.0,0.0,-0.0092670881313472,0.0009300099005759219,0.30049554332149764,-0.0008688896455658692,0.006839852645564637,0.002263504429036502,0.1815962894305182,0.1321437930523047,0.01746507425216043,0.18169506580810746,-0.13195794689127638,0.017463833773784604,-0.18415501716000257,0.13097885473010198,0.01746299496382342,-0.184150189763114,-0.132017321329953,0.017460809560693236,-0.07776520284973745,0.00399773152587079,-0.010009253490184656,-0.011144054353873258,-0.019585192772969814,0.01318192217258139,0.07776520284973745,0.00399773152587079,0.010009253490184656,0.011144054353873258,0.019585192772969814,0.01318192217258139,0.09494485654818964,0.0,3,0.4,0,0
