time,trans_flag,des_cont_state_fl,des_cont_state_fr,des_cont_state_rl,des_cont_state_rr,cont_state_fl,cont_state_fr,cont_state_rl,cont_state_rr,vel_cmd_x,vel_cmd_y,vel_cmd_yaw,base_vel_x,base_vel_y,base_vel_z,base_vel_roll,base_vel_pitch,base_vel_yaw,gait_id,base,CoT,musculoskeletal,foot_force,MWE,WEXT,stability,FL_stride_t,FR_stride_t,RL_stride_t,RR_stride_t
0.011999999999943611,0.0,1,1,1,1,1,1,1,1,0.0,0.0,0.0,0.014879659046760692,-0.005568232619839323,-0.008157866049825956,0.003397750435397027,0.011869781650602807,0.00830945000052452,0,0.005751468333424907,0.0,0.017361505681818188,30.50999999999999,5.135356011748288,6.613877691453875,0.0,0,0,0,0
0.02400000000000091,0.0,1,1,1,1,1,1,1,1,0.0,0.0,0.0,0.011117767386523175,-0.0025218148732878316,-0.008263612928481587,0.0041094299904689885,0.006764881296268324,0.009424997904378733,0,0.026462358067132173,0.0,0.085661414094696,152.67426751972698,0.00891661423222548,33.06228994220796,0.0,0,0,0,0
0.033999999999991815,0.0,1,1,1,1,1,1,1,1,0.0,0.0,0.0,0.00605845009536205,0.0022863769000093835,0.04190133358624665,0.017813688181720605,0.020864130492441263,0.005524837412304396,0,0.01808044850370867,0.0,0.13961031288650022,153.76454123386742,0.058487747648212275,33.07903638620123,0.0,0,0,0,0
0.04399999999998272,0.0,1,1,1,1,1,1,1,1,0.0,0.0,0.0,-0.01864916904691969,0.012692595855243986,0.07789706901534876,0.15203927210677556,0.13371043320952897,-0.008964530192158645,0,0.022818269070415443,0.0,0.1693771161682309,169.16374627745822,0.09916255494366295,33.18974103385223,0.0,0,0,0,0
0.053999999999973625,0.0,1,1,1,1,1,1,1,1,0.0,0.0,0.0,-0.009069061646358557,0.003542135701082161,0.0720573875786956,0.10175295959612353,0.1393518854755029,0.017317467313573073,0,0.035735927569852145,0.0,0.1489018621059759,179.87587577121297,0.048149820334859025,33.24568562001873,0.0,0,0,0,0
0.06200000000001182,0.0,1,1,1,1,1,1,1,1,0.0,0.0,0.0,0.027665482156290357,-0.004456423325063177,0.08901839824035669,0.04064370894135012,0.11142603941503498,0.022676688232907,0,0.03792623679587516,0.0,0.15886101483650764,166.1885588879784,0.10258744401327696,33.32948661930116,0.0,0,0,0,0
0.07399999999995543,0.0,1,1,1,1,1,1,1,1,0.0,0.0,0.0,0.03829173559463552,-0.005192869470953539,0.09323146402802747,0.0619121909326122,0.09066943057207803,0.03990655491835836,0,0.07612156121148014,0.0,0.16011812195423897,163.8019918835138,0.08031875548036926,33.447612502781446,0.0,0,0,0,0
0.08399999999994634,0.0,1,1,1,1,1,1,1,1,0.0,0.0,0.0,0.032008378370976316,-0.0002546255979122514,0.08536621890357812,0.09787565066480801,0.0973836168083613,0.03324440332118448,0,0.07549484542430959,0.0,0.14235554919892043,160.07760138679555,0.07734170341589527,33.523416987849544,0.0,0,0,0,0
0.09400000000005093,0.0,1,1,1,1,1,1,1,1,0.0,0.0,0.0,0.032428306378211334,0.00035594180208003984,0.07351588611118146,0.045333890122438006,0.08955915779354283,0.003713022223703126,0,0.050571753804972606,0.0,0.14218824954748785,151.59320080201718,0.08520965789878715,33.59156266978453,0.0,0,0,0,0
0.10400000000004184,0.0,1,1,1,1,1,1,1,1,0.0,0.0,0.0,0.038826152930690444,-0.0012610144271674104,0.06582690551576847,0.039567203099955386,0.09235254000558184,-0.007801887488727887,0,0.04235055203822543,0.0,0.14467569823675816,149.5538407220302,0.07788339178366535,33.67042764753543,0.0,0,0,0,0
0.11199999999996635,0.0,1,1,1,1,1,1,1,1,0.0,0.0,0.0,0.04906905497900257,-0.003729443100702538,0.06386308465962436,0.041464914641162545,0.0813520871726264,-0.03118324117551831,0,0.06906174130565243,0.0,0.14451614124353573,150.60025988777264,0.061343977546043066,33.75544249631571,0.0,0,0,0,0
0.12400000000002365,0.0,1,1,1,1,1,1,1,1,0.0,0.0,0.0,0.05478053369410055,-0.0031522752767026738,0.05828002111578728,-0.018016321226581377,0.0648745799462078,-0.026876037792729554,0,0.08927341053382151,0.0,0.1449141045479641,150.29224924148838,0.05943893065000228,33.82980405016596,0.0,0,0,0,0
0.13199999999994816,0.0,1,1,1,1,1,1,1,1,0.0,0.0,0.0,0.05795932209192805,-4.8902909020803265e-06,0.0511097460821485,-0.011096073646294733,0.048562438994751066,-0.011650936568586125,0,0.07415185376881496,0.0,0.14200531822203183,148.63453499442093,0.056517809127095225,33.88409320324136,0.0,0,0,0,0
0.14200000000005275,0.0,1,1,1,1,1,1,1,1,0.0,0.0,0.0,0.060874873949323866,0.002837611831490632,0.04618852180188904,-0.007101380006438133,0.035249025593982845,0.00045758028419429935,0,0.0674749269755801,0.0,0.13997444775531323,148.4820984934388,0.05521366201619567,33.940819923921836,0.0,0,0,0,0
0.15399999999999636,0.0,1,1,1,1,1,1,1,1,0.0,0.0,0.0,0.0635569714078186,0.0041457316006723545,0.0415036865577398,0.02289870728901888,0.03647173492277042,0.009257438045702096,0,0.0736788114341054,0.0,0.13837057360330457,149.67112803640435,0.0471188727736451,33.996425596901226,0.0,0,0,0,0
0.16200000000003456,0.0,1,1,1,1,1,1,1,1,0.0,0.0,0.0,0.06658767136913192,0.003503935074912897,0.0363171254500346,0.0013480164957201607,0.057197989076927774,0.015701114008920863,0,0.08258684120082645,0.0,0.14047016506734533,148.44697684861043,0.036841944003040056,34.042658003144986,0.0,0,0,0,0
0.17399999999997817,0.0,1,1,1,1,1,1,1,1,0.0,0.0,0.0,0.06883695309730488,0.0031944943850678235,0.03181626082007181,-0.02120045904873262,0.05648681655848071,-0.0001038197496365102,0,0.07957928819558205,0.0,0.14077301575733753,147.94289271104927,0.03765029751064338,34.08365807738108,0.0,0,0,0,0
0.18200000000001637,0.0,1,1,1,1,1,1,1,1,0.0,0.0,0.0,0.06991812855878832,0.0025937451309214115,0.025750949144079324,-0.030617162193632683,0.07480818107610594,-0.009919290276244538,0,0.07910869549962922,0.0,0.1402337269619152,147.18570032790035,0.027127405469866722,34.116998524845464,0.0,0,0,0,0
0.19399999999995998,0.0,1,1,1,1,1,1,1,1,0.0,0.0,0.0,0.0716460826504891,0.0036106516662673424,0.019531681099472564,-0.014096722114862771,0.08040400452497297,-0.018252836501317524,0,0.09110652429811195,0.0,0.13979237265737846,147.1962351857976,0.01787739909880377,34.144733392757956,0.0,0,0,0,0
0.2039999999999509,0.0,1,1,1,1,1,1,1,1,0.0,0.0,0.0,0.07149737144525753,0.003752283398049662,0.013397934831314792,0.007394071722556076,0.0790718772932719,-0.019341175993513968,0,0.09523137115424007,0.0,0.13964092578481951,147.25357626035154,0.013733408154905737,34.16118386670796,0.0,0,0,0,0
0.21400000000005548,0.0,1,1,1,1,1,1,1,1,0.0,0.0,0.0,0.07119477074057606,0.0029528254584389874,0.010132851454450689,-0.012765143878731499,0.08442216072867341,-0.0033869026890911043,0,0.08465918420031601,0.0,0.14111783871848643,147.74006540424404,0.012603224108855102,34.172324545928724,0.0,0,0,0,0
0.22400000000004638,0.0,1,1,1,1,1,1,1,1,0.0,0.0,0.0,0.07057559532659519,0.003615772478215593,0.007427898363542022,-0.026657361354921826,0.0652223448287902,0.0035253598054617013,0,0.07538635764911522,0.0,0.14064343626585568,148.44837824002425,0.005815443712939256,34.17626084943484,0.0,0,0,0,0
0.2340000000000373,0.0,1,1,1,1,1,1,1,1,0.0,0.0,0.0,0.07051741671282594,0.004288004194040838,0.006927214682241497,-0.0066929076879416035,0.05305261268785107,0.009971528791730664,0,0.08338366399671104,0.0,0.14102083280889607,149.04043786407902,0.008295258599406035,34.18440248455516,0.0,0,0,0,0
0.2440000000000282,0.0,1,1,1,1,1,1,1,1,0.0,0.0,0.0,0.06940993438499946,0.004010157900195278,0.008171635538609124,0.005609808034926398,0.04831132208880815,0.019293368290587205,0,0.08756221051436584,0.0,0.14165736943345947,149.83451078687352,0.00852924345050312,34.19449595843075,0.0,0,0,0,0
0.2540000000000191,0.0,1,1,1,1,1,1,1,1,0.0,0.0,0.0,0.06690369935567851,0.003972462947880321,0.009317936394374596,0.0012957514942047266,0.04527550820552178,0.01714417294281064,0,0.09374002700816957,0.0,0.14275466368188544,150.2082538973151,0.009181433497520593,34.20080907333251,0.0,0,0,0,0
0.26400000000001,0.0,1,1,1,1,1,1,1,1,0.0,0.0,0.0,0.06534970858515701,0.0028383467552745103,0.009803573447321686,-0.025892933027589014,0.028771319411130706,0.0040229975194252185,0,0.07693266357933054,0.0,0.1431101902640305,150.01908130519007,0.010471763919377132,34.2044513560401,0.0,0,0,0,0
0.2740000000000009,0.0,1,1,1,1,1,1,1,1,0.0,0.0,0.0,0.06412496468570214,0.0023277775761350247,0.009490163979886643,-0.00835208532600091,0.0238130213325565,-0.000593989474260126,0,0.06871243805060008,0.0,0.14387590730749827,149.90961661660103,0.00890588520334529,34.21128698524256,0.0,0,0,0,0
0.2839999999999918,0.0,1,1,1,1,1,1,1,1,0.0,0.0,0.0,0.06313345222395116,0.0014088331105655768,0.00758310282468683,-0.004608956592209304,0.006330389878502745,-0.02176854384296296,0,0.07781402474907309,0.0,0.14226880990563126,149.53736288407072,0.0033637148263974195,34.21707138359992,0.0,0,0,0,0
0.2939999999999827,0.0,1,1,1,1,1,1,1,1,0.0,0.0,0.0,0.0621120531029677,0.00018987381485815162,0.006046911728139181,-0.0022965713780213966,-0.00892015127529291,-0.014961274046185562,0,0.08179931076861033,0.0,0.14037211442097006,148.8757164855959,0.00483446570542297,34.22133239919232,0.0,0,0,0,0
0.3039999999999736,0.0,1,1,1,1,1,1,1,1,0.0,0.0,0.0,0.061129071784851725,-0.00035728702901524265,0.003876214833492607,-0.010212982113924272,-0.015332474928983602,-0.014234997582429477,0,0.07599109617932935,0.0,0.14020424576251028,148.7556466289998,0.0030795943845955305,34.221606659452334,0.0,0,0,0,0
0.31399999999996453,0.0,1,1,1,1,1,1,1,1,0.0,0.0,0.0,0.06163022376581913,-0.00046920264350622134,0.0019571741641591007,-0.000308057154463853,-0.02091760851123178,-0.0012464532964499698,0,0.07063214313256172,0.0,0.14156154392043555,149.2938176777809,0.00212848879076832,34.222774355260604,0.0,0,0,0,0
0.32399999999995543,0.0,1,1,1,1,1,1,1,1,0.0,0.0,0.0,0.0623773764137899,-0.00029360006088749387,0.0012452074199938304,-0.0010005625643794733,-0.012369635340315826,-8.157737550740154e-05,0,0.06505893268441777,0.0,0.13959380319547895,149.9510846501886,0.0008081375448169871,34.22345474791338,0.0,0,0,0,0
0.33399999999994634,0.0,1,1,1,1,1,1,1,1,0.0,0.0,0.0,0.06286923582309113,-7.578175819067889e-05,0.001755574258794414,-0.002392115831805478,-0.01087780909623493,0.013010618147438377,0,0.06885998008450953,0.0,0.14189694939911512,151.01164349946825,0.0018868476322424048,34.22384059438474,0.0,0,0,0,0
0.34400000000005093,0.0,1,1,1,1,1,1,1,1,0.0,0.0,0.0,0.06383113460559937,0.00016314390486714736,0.0032132746948139125,0.0005905917950721296,-0.017752354362679454,0.007750346457061295,0,0.0769812853311031,0.0,0.14148185185295586,151.29702155440185,0.0026117167038751214,34.226025262858236,0.0,0,0,0,0
0.35400000000004184,0.0,1,1,1,1,1,1,1,1,0.0,0.0,0.0,0.06521999015235837,-3.8785655848399056e-05,0.0033279114466096176,0.00293109612073766,-0.0142990875428831,0.002710950495689448,0,0.0662400522151729,0.0,0.1420067658296657,152.08792531515599,0.0014370894816291037,34.22647955004601,0.0,0,0,0,0
0.36400000000003274,0.0,1,1,1,1,1,1,1,1,0.0,0.0,0.0,0.06795251726109186,-0.00021842057305769257,0.004172180443341939,0.006095017032073672,-0.00941183140979535,-0.0031677968699535142,0,0.06965923023286455,0.0,0.14093118489531803,151.93748657416697,0.002923903142026566,34.23196510255721,0.0,0,0,0,0
0.37400000000002365,0.0,1,1,1,1,1,1,1,1,0.0,0.0,0.0,0.07033939573861432,-0.00030731536633532314,0.0038643126129994025,0.0010173906046793176,-0.00195633745392345,-0.01068866790897556,0,0.07663732323301276,0.0,0.14054657291920153,152.33775640285407,0.0015141269024129891,34.23682343494015,0.0,0,0,0,0
0.38199999999994816,0.0,1,1,1,1,1,1,1,1,0.0,0.0,0.0,0.0716305989045375,-0.00021131023773776245,0.00356591409351861,-0.0018324278241840643,0.0008880723049107866,-0.016023215171673627,0,0.08712628256728275,0.0,0.1397007374384444,152.32314832845387,0.004478504358328715,34.2387873912564,0.0,0,0,0,0
0.39400000000000546,0.0,1,1,1,1,1,1,1,1,0.0,0.0,0.0,0.07371396028540796,0.00012662541406752333,0.0030555301901688276,0.00820555369259202,0.0013214564302173903,-0.017238496079995808,0,0.08784396326812319,0.0,0.13988812449382015,151.76423096304245,0.002895419173838676,34.238624501807706,0.0,0,0,0,0
0.40399999999999636,0.0,1,1,1,1,1,1,1,1,0.0,0.0,0.0,0.07525740181760598,6.91231654021754e-05,0.0022588372680003186,0.005413305119576757,0.006613455134556739,-0.01613802710282774,0,0.09469038669546939,0.0,0.13951982809972713,151.55589817774438,0.0029416369685274363,34.24112336634339,0.0,0,0,0,0
0.41399999999998727,0.0,1,1,1,1,1,1,1,1,0.0,0.0,0.0,0.07645731850825917,0.00046991521857130765,0.0017493748414886894,-0.004839714414696835,0.011015512068894994,0.003180216786782406,0,0.08085694862941457,0.0,0.13855656976942743,151.7028832669008,0.0029412935716416413,34.23846389158352,0.0,0,0,0,0
0.42399999999997817,0.0,1,1,1,1,1,1,1,1,0.0,0.0,0.0,0.07843374545593003,0.0013676166086360026,0.0021040600012992906,-0.005735002320848088,0.0035061500012610733,0.01313125727017187,0,0.08736963254516274,0.0,0.13913903929190702,151.34040855012134,0.003860919470442585,34.23888716828684,0.0,0,0,0,0
0.4339999999999691,0.0,1,1,1,1,1,1,1,1,0.0,0.0,0.0,0.07947901712915519,0.001468101902403258,0.002576146881430961,-0.001141013785975186,-0.005646115526309432,0.0162607098754332,0,0.09518556606383818,0.0,0.14143427545491719,151.99602954589963,0.0008108149205700022,34.241282722736635,0.0,0,0,0,0
0.44399999999996,0.0,1,1,1,1,1,1,1,1,0.0,0.0,0.0,0.08072763649276736,0.0018488879510313318,0.0032283380503777995,-0.006946462309933574,-0.0026146225855749766,0.02137962162862333,0,0.10279361402953499,0.0,0.14079330394243422,152.11276002074433,0.0016762820009794885,34.24533896883155,0.0,0,0,0,0
0.4539999999999509,0.0,1,1,1,1,1,1,1,1,0.0,0.0,0.0,0.08118114565219844,0.001915879520986783,0.0032215059998623374,0.0042985105952090125,0.002907556067621038,0.0036965020702450337,0,0.0926693560593004,0.0,0.14053030366328062,151.85509628426593,0.0022747195502333395,34.24486314257601,0.0,0,0,0,0
0.4640000000000555,0.0,1,1,1,1,1,1,1,1,0.0,0.0,0.0,0.08114950043714625,0.0014891403520972675,0.0024435983840519118,0.005994651207513696,0.015857682664309675,-8.920804017879824e-05,0,0.08567019056918045,0.0,0.14079738407473003,151.66889690009322,0.0013889483991850887,34.2436876908921,0.0,0,0,0,0
0.4740000000000464,0.0,1,1,1,1,1,1,1,1,0.0,0.0,0.0,0.0817786595782575,0.000872289717081833,0.0015165605895294501,-0.0002511120117761092,0.010088433156282182,-0.023350929047323075,0,0.09711065106421742,0.0,0.139406141551038,151.5868158231113,0.007011294118360718,34.242446958642425,0.0,0,0,0,0
0.4840000000000373,0.0,1,1,1,1,1,1,1,1,0.0,0.0,0.0,0.08323420152655261,0.0010346484903678709,0.0016249435825102516,0.001664210467093099,-0.00782902134187428,-0.013324981643466058,0,0.10307843217608074,0.0,0.14044115357864195,150.94934365684304,0.002082160456508282,34.243679579999174,0.0,0,0,0,0
0.4940000000000282,0.0,1,1,1,1,1,1,1,1,0.0,0.0,0.0,0.0840970213528613,0.0010717762995914911,0.0022120993927162613,-0.004129331666494127,-0.012087297486510228,0.0032105670971222964,0,0.08899225385678554,0.0,0.13941681412083692,151.82333095197612,0.001090686585889948,34.24288616173774,0.0,0,0,0,0
0.5040000000000191,0.0,1,1,1,1,1,1,1,1,0.0,0.0,0.0,0.08508526208174577,0.0016383120469887606,0.0024541319087511846,-0.005301528405196815,-0.011722681176209377,0.0007292991824602699,0,0.08793019354122104,0.0,0.13857477026400628,151.8100116374279,0.00046635262139442524,34.24497043199567,0.0,0,0,0,0
0.51400000000001,0.0,1,1,1,1,1,1,1,1,0.0,0.0,0.0,0.08442285206607165,0.0011430571307403585,0.002206515454487712,-0.01029584581344473,-0.0027904175513789207,0.006527076203380159,0,0.09115334336944998,0.0,0.1397270628966767,152.54822452369143,0.0010168544109206631,34.24618508474917,0.0,0,0,0,0
0.5240000000000009,0.0,1,1,1,1,1,1,1,1,0.0,0.0,0.0,0.08354438990181272,0.0013264584080656461,0.0017476732990470362,0.0014658321383884073,0.00918081088683051,-0.00850784598984707,0,0.08979440069890059,0.0,0.1391810154487401,152.63740164036366,0.0015203206593259397,34.243432940059925,0.0,0,0,0,0
0.5339999999999918,0.0,1,1,1,1,1,1,1,1,0.0,0.0,0.0,0.08404640021753433,0.0015648117095489263,0.001676464061566612,-0.001794124054569023,-0.006455675989017102,-0.013105035173278663,0,0.09554685799490083,0.0,0.1395425137650103,152.58496017510566,0.0036111788132733025,34.24154184814771,0.0,0,0,0,0
0.5439999999999827,0.0,1,1,1,1,1,1,1,1,0.0,0.0,0.0,0.08593959222375765,0.0017714493684081736,0.0022526661420095963,-0.003105648610299859,-0.019306384265652992,-0.031141513021833878,0,0.11023160322727373,0.0,0.13859447034895725,152.3809109392861,0.007056384642726669,34.24449813963178,0.0,0,0,0,0
0.5539999999999736,0.0,1,1,1,1,1,1,1,1,0.0,0.0,0.0,0.08704004821658491,0.0015855603578302058,0.0023494623151060308,-0.0011222901640766396,-0.01697514469761552,-0.029818080457497266,0,0.12015143026825245,0.0,0.13864302509695647,152.6598635048338,0.0033220401504305067,34.24860205742668,0.0,0,0,0,0
0.5639999999999645,0.0,1,1,1,1,1,1,1,1,0.0,0.0,0.0,0.08720018891226962,0.002146308305602871,0.0030713270927441466,-0.001682479922972617,0.000295444057672737,-0.01913744554962728,0,0.11400462425678914,0.0,0.13879294634047729,153.5369480178544,0.0066093677920531085,34.2493007279276,0.0,0,0,0,0
0.5739999999999554,0.0,1,1,1,1,1,1,1,1,0.0,0.0,0.0,0.08897558863881247,0.002193330214829705,0.003615012934382429,-0.0052886208947864315,0.013075385783211402,-0.013935483649070587,0,0.10558807045342433,0.0,0.13811882215364477,153.67288890567525,0.0011081497374473698,34.24980157009043,0.0,0,0,0,0
0.5839999999999463,0.0,1,1,1,1,1,1,1,1,0.0,0.0,0.0,0.09097043427993858,0.002069526052319166,0.0032405799365494287,-0.00840285782657721,-0.001896904195901532,-0.008163802946963714,0,0.10321233587093122,0.0,0.13706384047189668,153.27296785148127,0.0013482148733383048,34.251949775325784,0.0,0,0,0,0
0.5940000000000509,0.0,1,1,1,1,1,1,1,1,0.0,0.0,0.0,0.09223491642304348,0.0017785345170903196,0.0028829924646930328,-0.00019407715911653957,-0.012823586291026331,0.0026163221500349054,0,0.0964116385206946,0.0,0.13937607419883705,152.86815782661967,0.0010935442985625654,34.25344650768604,0.0,0,0,0,0
0.6040000000000418,0.0,1,1,1,1,1,1,1,1,0.0,0.0,0.0,0.09228416125315901,0.001538264398139538,0.0026886033618265127,-0.004946334134699796,-0.003990222058807787,0.0038546654571598856,0,0.09555664447206595,0.0,0.13832658634693898,152.66478303852472,0.0008785029519067719,34.253113889809484,0.0,0,0,0,0
0.6140000000000327,0.0,1,1,1,1,1,1,1,1,0.0,0.0,0.0,0.09274405476945688,0.002110752105315225,0.002843633368260955,-0.008690703064888788,0.005003231279001427,0.013897092426055987,0,0.10841212229864591,0.0,0.13906800724224044,153.1969902785871,0.0018927039904991227,34.255126008603455,0.0,0,0,0,0
0.6240000000000236,0.0,1,1,1,1,1,1,1,1,0.0,0.0,0.0,0.09396225482648615,0.00197166588326906,0.002392961326500808,-0.0024179597211137693,-0.0017472387231469368,-0.008110229326553465,0,0.10142506569627185,0.0,0.13952602608688464,153.1577298051786,0.0031198022877146625,34.25470938561009,0.0,0,0,0,0
0.6340000000000146,0.0,1,1,1,1,1,1,1,1,0.0,0.0,0.0,0.09486127754234047,0.0011773566758924478,0.002462746736649475,-0.00016237867856700757,-0.018284771127020955,-0.004172666235196229,0,0.10059430904163325,0.0,0.13919796972417456,153.18618768049745,0.002660351962672773,34.253579628704095,0.0,0,0,0,0
0.6440000000000055,0.0,1,1,1,1,1,1,1,1,0.0,0.0,0.0,0.09567831059412187,0.0009509935736502421,0.002523140578359714,0.006348923902271789,-0.010355335009745838,-0.0037344427340459925,0,0.10183307648543494,0.0,0.13864873633228383,153.45034455592713,0.0023837539784188344,34.253486880901775,0.0,0,0,0,0
0.6539999999999964,0.0,1,1,1,1,1,1,1,1,0.0,0.0,0.0,0.09593579573463716,0.0005157526066524562,0.0032943761600687698,0.00011209417896742625,-0.00010138857126385653,-0.0011668998984310783,0,0.09798134759933028,0.0,0.1378563401469385,153.99786465632616,0.0017244446454353843,34.254669706934706,0.0,0,0,0,0
0.6639999999999873,0.0,1,1,1,1,1,1,1,1,0.0,0.0,0.0,0.09629463272945225,0.0003872744636118161,0.002941537772833987,0.00021511089537195368,0.006398533345762737,-0.00559422785318214,0,0.10011984661706659,0.0,0.13712568110498083,153.55794700342614,0.0020090834725021017,34.25494850018705,0.0,0,0,0,0
0.6739999999999782,0.0,1,1,1,1,1,1,1,1,0.0,0.0,0.0,0.09632485946105673,0.0005498531952723469,0.0026883932148225524,-0.00354433710415775,0.0009478259344131977,-0.008102321267251562,0,0.10414657699412917,0.0,0.13779675255082116,152.4981602680691,0.0020047596574757492,34.25616540640206,0.0,0,0,0,0
0.6839999999999691,0.0,1,1,1,1,1,1,1,1,0.0,0.0,0.0,0.09648284345954498,0.0014131113085583122,0.0018243638266316718,0.0005385581631622905,0.0032675865899375652,-0.0073033639658573474,0,0.10608933519868917,0.0,0.1378007532380497,152.7368858542469,0.002952323055554533,34.255039355412194,0.0,0,0,0,0
0.69399999999996,0.0,1,1,1,1,1,1,1,1,0.0,0.0,0.0,0.09656520160017651,0.0019162494131816552,0.001350965094794964,0.0018234086225433844,-0.009674842546408484,-0.012015756591533816,0,0.10490039620267677,0.0,0.13723438618374365,152.91114003953257,0.0040828793229385,34.251759994203404,0.0,0,0,0,0
0.7039999999999509,0.0,1,1,1,1,1,1,1,1,0.0,0.0,0.0,0.0961721438351451,0.0016836902391871558,0.0010417276774673271,0.005037461634279047,0.005554217068421649,0.0011279566341989775,0,0.10690960226912098,0.0,0.13861929698821357,152.78713886843988,0.001424998558854161,34.24967294110225,0.0,0,0,0,0
0.7140000000000555,0.0,1,1,1,1,1,1,1,1,0.0,0.0,0.0,0.09759012029675392,0.0020939164770241332,0.001408644485824119,0.0016908837981487843,-0.0007357295346677164,0.002602851592821984,0,0.10336373676312852,0.0,0.13818154998998985,153.5385430056162,0.0016358080948410403,34.249069726940775,0.0,0,0,0,0
0.7240000000000464,0.0,1,1,1,1,1,1,1,1,0.0,0.0,0.0,0.09841944490075116,0.001643766864939956,0.0016761374172545986,-0.005950358394072402,-0.0011409285539656963,0.009874883535102697,0,0.10740742646762916,0.0,0.13911805716242867,153.5935944009199,0.002150889525235518,34.250948686651746,0.0,0,0,0,0
0.7340000000000373,0.0,1,1,1,1,1,1,1,1,0.0,0.0,0.0,0.09895842963464842,0.0018352523418498558,0.0016183049302368132,-0.0022567302174995034,-0.0021694397870794828,-0.0037206709326857157,0,0.10394128567266359,0.0,0.13804318812893115,153.61936927388024,0.002651892004782712,34.24887045219812,0.0,0,0,0,0
0.7440000000000282,0.0,1,1,1,1,1,1,1,1,0.0,0.0,0.0,0.09926974696931955,0.0015540448100720625,0.0013600225227923244,0.0009564018652673014,-0.0013088532160984508,-0.003160518230369196,0,0.10438412401218303,0.0,0.13834906594414142,153.13244321843004,0.001457012984801269,34.248114257457964,0.0,0,0,0,0
0.7540000000000191,0.0,1,1,1,1,1,1,1,1,0.0,0.0,0.0,0.10024174417893511,0.0018718832786182556,0.0016251311660304309,0.0003248492655071376,-0.00112607507403796,-0.007244141665374807,0,0.10622495763584223,0.0,0.13795279622654014,153.05817655964566,0.0021865042964527084,34.24892176602913,0.0,0,0,0,0
0.76400000000001,0.0,1,1,1,1,1,1,1,1,0.0,0.0,0.0,0.10046071027505338,0.0020060418804262203,0.0017041444793716844,0.0011315889027260538,-0.00014812053400504413,-0.005885177749851558,0,0.11150070953044074,0.0,0.13761867226911975,153.12283775721593,0.0018023908287194274,34.249066222735806,0.0,0,0,0,0
0.7740000000000009,0.0,1,1,1,1,1,1,1,1,0.0,0.0,0.0,0.09962892433791,0.0021133312428761224,0.000907724080139203,0.0004098525771030674,0.011748720107878922,0.01162899556259979,0,0.10896552951941199,0.0,0.1383233970768128,152.75713877198052,0.0019099711023323196,34.246919868613745,0.0,0,0,0,0
0.7839999999999918,0.0,1,1,1,1,1,1,1,1,0.0,0.0,0.0,0.09941031216622548,0.002485504823929787,0.0002970943874557962,0.0069026379432041915,0.010556280553649232,0.017682247165950904,0,0.11484926427837783,0.0,0.13787711375971984,153.07580936473374,0.003114349960825033,34.24549638721018,0.0,0,0,0,0
0.7939999999999827,0.0,1,1,1,1,1,1,1,1,0.0,0.0,0.0,0.0994602518509551,0.0027206507107482144,-0.00029862117266549236,-0.006121769903835789,0.0055578209579827,0.017075384641311083,0,0.12069738072468565,0.0,0.138866899372761,152.96482145334468,0.0019711742060980197,34.2437567048371,0.0,0,0,0,0
0.8039999999999736,0.0,1,1,1,1,1,1,1,1,0.0,0.0,0.0,0.09812404700602861,0.0028195513654054897,-0.0006851607822531951,-0.0004763762779218429,0.003533929879366865,0.004994440107704244,0,0.11234070912193798,0.0,0.13996272552265826,152.3190241406397,0.00045471226478339954,34.239644864419304,0.0,0,0,0,0
0.8120000000000118,0.0,1,1,1,1,1,1,1,1,0.0,0.0,0.0,0.09687832578190615,0.0029893006350511044,-1.843379959102923e-05,0.0022343674066174057,-0.00608584443911257,-0.011834184698038973,0,0.10551580910986483,0.0,0.13911001842709264,152.84011271883156,0.0020198335967798325,34.233309494482654,0.0,0,0,0,0
0.8239999999999554,0.0,1,1,1,1,1,1,1,1,0.0,0.0,0.0,0.09642057266287597,0.0034165396091712075,0.0008831574327881774,-0.0014659071632576876,-0.007003061977992546,-0.007433500005814508,0,0.10964524212947586,0.0,0.13742212805642,153.5628841734354,0.0011885003086380339,34.23187645568945,0.0,0,0,0,0
0.8339999999999463,0.0,1,1,1,1,1,1,1,1,0.0,0.0,0.0,0.09611719680709276,0.0034597728516499917,0.001776492191945935,-0.002930167518630335,-0.011906705627086761,-0.011657035354342172,0,0.11020848124156661,0.0,0.13756552877427697,153.17130623639483,0.0011695060872262686,34.2303414804132,0.0,0,0,0,0
0.8419999999999845,0.0,1,1,1,1,1,1,1,1,0.0,0.0,0.0,0.09547299792866545,0.0038315050930997165,0.0022266008043778963,-0.003102487959169714,-0.013290678962890316,-0.005586866202135483,0,0.10688026970486413,0.0,0.13886225103638228,153.06057370245156,0.001496630397494307,34.227634036390704,0.0,0,0,0,0
0.8519999999999754,0.0,1,1,1,1,1,1,1,1,0.0,0.0,0.0,0.09629490118136784,0.004375666646182185,0.0027092095162751214,-0.00037897460434078815,-0.005692373305716232,0.009021180613419142,0,0.10501435963512025,0.0,0.13837732698633917,152.72872576168362,0.0021648192856531037,34.23070637123717,0.0,0,0,0,0
0.8619999999999663,0.0,1,1,1,1,1,1,1,1,0.0,0.0,0.0,0.09740259634830253,0.004797593500408501,0.00253456169590131,0.0025849813748809597,-0.0006651364351225596,0.005230095999213885,0,0.10692821809211941,0.0,0.13756057966024823,153.0394992093248,0.0016912206191387683,34.23468780709753,0.0,0,0,0,0
0.8719999999999573,0.0,1,1,1,1,1,1,1,1,0.0,0.0,0.0,0.09766565535626182,0.004714009559055503,0.001961318837349347,-0.0010557482382367728,0.0018284717091109441,0.011113588535366817,0,0.11403875897165885,0.0,0.1396072598477792,153.24213964832907,0.0023512180819334344,34.23734753335954,0.0,0,0,0,0
0.8819999999999482,0.0,1,1,1,1,1,1,1,1,0.0,0.0,0.0,0.09773011636044583,0.004556338989344376,0.0013453306216631349,-0.0029230066237587154,0.005831373691167553,0.011013434379723418,0,0.1111858796585908,0.0,0.13948469676409606,152.51820325930848,0.0020003202412958512,34.23826841175315,0.0,0,0,0,0
0.8920000000000528,0.0,1,1,1,1,1,1,1,1,0.0,0.0,0.0,0.09761876342698377,0.003905640781564792,-0.0005466762176196793,0.003760781350123907,-0.0024461805544698546,0.0012858399588459258,0,0.11006526390502466,0.0,0.13859079262699064,153.486469498943,0.003894696586890567,34.23562354452401,0.0,0,0,0,0
0.9020000000000437,0.0,1,1,1,1,1,1,1,1,0.0,0.0,0.0,0.09841109199186412,0.003832983031443412,0.00019162282463651165,-0.00020731210472115714,-0.004801776436292663,-0.006749552336325327,0,0.1088718141924458,0.0,0.13993718543145997,153.433600749341,0.002903419928605405,34.232808428459805,0.0,0,0,0,0
0.9120000000000346,0.0,1,1,1,1,1,1,1,1,0.0,0.0,0.0,0.09869666423267742,0.003357048984260212,0.0009396760531935296,0.009359377955191116,-0.009995084404264581,-0.016469629075444005,0,0.11304106461446754,0.0,0.13891197376097786,153.58968090105805,0.0033810543639626323,34.235056436964435,0.0,0,0,0,0
0.9220000000000255,0.0,1,1,1,1,1,1,1,1,0.0,0.0,0.0,0.09859399631398635,0.0032708849576854773,0.0014391060452655117,0.005736554387250549,-0.0017902057115044838,-0.015178446235588502,0,0.1194210710022329,0.0,0.13701968282978155,153.95003372687844,0.0027099197573701647,34.23481635105669,0.0,0,0,0,0
0.9320000000000164,0.0,1,1,1,1,1,1,1,1,0.0,0.0,0.0,0.09880584467931168,0.0036733571906260236,0.0008830832951106267,0.0025935778269271658,0.010362337626506991,0.0011481932239659491,0,0.10738219328969648,0.0,0.1375775366885629,153.16734823929565,0.0017665678893555165,34.23360543984096,0.0,0,0,0,0
0.9420000000000073,0.0,1,1,1,1,1,1,1,1,0.0,0.0,0.0,0.10018017793832248,0.004067265143390982,0.0002817375388718227,0.005396531307519737,0.006270458706818501,0.008615116881607744,0,0.10851115494899125,0.0,0.13777589503815593,152.64060734297286,0.003383549189794735,34.23324511532536,0.0,0,0,0,0
0.9519999999999982,0.0,1,1,1,1,1,1,1,1,0.0,0.0,0.0,0.10072044660382182,0.00461378522664954,-6.80452256584536e-05,-0.007447496929870237,-0.004717146535938579,0.011546559198510279,0,0.115393540554141,0.0,0.1382259225218233,153.02741136897598,0.0019185020986317858,34.23388578506908,0.0,0,0,0,0
0.9619999999999891,0.0,1,1,1,1,1,1,1,1,0.0,0.0,0.0,0.09983502862861249,0.004126501407737937,-0.0004710156740538331,0.0006930592528676326,-0.002841168529757243,0.005546808574040049,0,0.11279718463375732,0.0,0.14009386352524147,152.9587702948118,0.0007023566858626942,34.23216111064407,0.0,0,0,0,0
0.97199999999998,0.0,1,1,1,1,1,1,1,1,0.0,0.0,0.0,0.09973578446764296,0.003613173562419411,-0.00046640157739737055,0.0010426299770274945,0.006349466750963725,0.0031130177056174725,0,0.10976856973435867,0.0,0.13933366879260548,153.04497245741726,0.0013949288732128667,34.23046372287407,0.0,0,0,0,0
0.9819999999999709,0.0,1,1,1,1,1,1,1,1,0.0,0.0,0.0,0.09810852649379725,0.0037311383985001783,-0.0004181748985267312,0.002085059984951706,0.007614597080845491,0.0006364681474191159,0,0.10291635448624221,0.0,0.13867608136383985,153.16584113673488,0.0005497840274576449,34.22691390725142,0.0,0,0,0,0
0.9919999999999618,0.0,1,1,1,1,1,1,1,1,0.0,0.0,0.0,0.09804618398251115,0.0035853723348932545,-0.0008061280825662756,-0.0020231926412153543,0.012472324499968221,-0.0035731226765797256,0,0.10393467446066976,0.0,0.13898744170571806,153.03425482463518,0.0011812249233609518,34.224824050039516,0.0,0,0,0,0
1.004000000000019,0.0,1,1,1,1,1,1,1,1,-0.00913373367420637,0.0,0.0022666647257288935,0.09862166016239453,0.0038376493934633264,-0.0006010667777164409,-0.002739072872393401,-0.005385255614564235,0.005309038386299069,0,0.10734745017669614,16.905917800227687,0.13857259319729848,152.8350865793228,0.003328953442224926,34.22341910068829,0.0,0,0,0,0
1.01400000000001,0.0,1,1,1,1,1,1,1,1,0.0004882923694862128,0.0,0.013599580761210471,0.09835941654351549,0.0034743731715636906,-0.0006958886294925739,0.002251029374284107,-0.014303887858604408,-0.009298983203046179,0,0.11705861146141117,79.9556249782867,0.13939674061069873,153.4670159763122,0.0019908214723067114,34.22132845697951,0.0,0,0,0,0
1.024000000000001,0.0,1,1,1,1,1,1,1,1,0.010161519733762238,0.0,0.024930750024793547,0.09757164454107496,0.0034640426815756332,0.00013899462226368863,-0.00252875998282152,-0.011741968993385223,-0.006401454585676031,3,0.12515513651437418,38.670335209329195,0.138702542972328,154.14272357070516,0.0017658950834460799,34.22068041154063,0.0,0,0,0,0
1.0339999999999918,0.0,1,0,0,1,1,1,1,1,0.019754725723958297,0.0,0.03625871710631553,0.09711741347169064,0.0038004302945090582,0.0003696060211999762,0.006116489946446025,0.0015968882685628034,-0.012107845650945142,3,0.12597543021185023,23.13042936396277,0.13793417046866438,153.42396290989115,0.0021845990733753012,34.221477730372975,40.0,0,0,0,0
1.0439999999999827,0.0,1,0,0,1,1,1,1,1,0.02944673767520822,0.0,0.047582027006911935,0.09963913228228793,0.002841948580041983,0.0003353012641149405,0.004159006634225952,-0.014592123952999338,0.002539315814806496,3,0.12282922575519761,17.77727818153965,0.14137643977067738,153.26189944896592,0.0009143912579397465,34.22316773751335,50.0,0,0,0,0
1.0539999999999736,0.0,1,0,0,1,1,1,1,1,0.03926040698038609,0.0,0.058899225325900875,0.1175304084635936,0.0037599698132862857,-0.0019257133765603416,-0.03229766039077962,-0.010754859418665448,0.04941795321470772,3,0.10273782829783244,25.519409872663527,0.14680659391383613,153.90129607269392,0.01413487537106918,34.26254114554134,50.0,0,0,0,0
1.0639999999999645,0.0,1,0,0,1,1,0,1,1,0.04870933980239056,0.0,0.07020885844759077,0.11581741468287507,0.009757716875850177,-0.001330062497940231,-0.197578869957716,0.16221631837148232,0.06694295323185465,3,0.08254031984540611,19.976261675568548,0.14061571393144107,156.31310232216234,0.020483457832434035,34.299065481675854,45.0,0,0,0,0
1.0739999999999554,0.0,1,0,0,1,1,0,1,1,0.058355320355747246,0.0,0.0815094737279872,0.10003916028183932,0.02675514728923102,0.0002876277548808881,0.01709778474241488,0.29921433838327294,0.08157829228721827,3,0.08074658833346945,15.42848339588652,0.13154758967832156,155.25820550731532,0.055189801220299026,34.312159037309335,25.0,0,0,0,0
1.0839999999999463,0.0,1,0,0,1,1,0,1,1,0.067972340113152,0.0,0.09279961968137498,0.0675981434943021,0.030877337645962278,-0.006986437851176412,0.2247188711272992,0.3099809447227989,0.14543067273945995,3,0.08118728043043726,17.378852100030528,0.15005818953303335,152.43159031041444,0.023942258521715457,34.42496858828755,25.0,0,0,0,0
1.094000000000051,0.0,1,0,0,1,1,0,0,1,0.07757089153494151,0.0,0.1040778461667514,0.040056253788606305,0.022160542113540592,-0.003946037530493136,0.190295504488914,0.2967453590733475,0.21571958723267098,3,0.1326664718238733,18.167663146588914,0.16166685005257178,158.46819497131997,0.0653842813382084,34.59797328351054,15.0,0,0,0,0
1.1040000000000418,0.0,1,0,0,1,1,0,0,1,0.08714058741229076,0.0,0.11534270457408684,0.038488028611210354,0.0048074784255372005,0.02956770611145251,-0.05647039856550545,0.24479174867420941,0.31658140077180275,3,0.23124540642964758,14.879460185123117,0.15378368103791,176.087859160851,0.23215839106420572,34.98250299203411,0.0,0,0,0,0
1.1140000000000327,0.0,1,0,0,1,1,0,0,1,0.09683317413463592,0.0,0.12659274801038858,0.04886447761825037,-8.313909781473765e-05,0.04580929098549081,-0.4106206331077461,-0.11136511928804493,0.34882628912638297,3,0.2678317563279805,9.154015232149332,0.11800364170362063,179.79309545153316,0.06095876766999897,35.294819440777154,0.0,0,0,0,0
1.1240000000000236,0.0,1,0,0,1,1,0,0,1,0.10644856397329099,0.0,0.13782653148554438,0.05603659812470942,0.024075451282180343,0.014605355250915468,-0.5150044801097468,-0.5368220456079856,0.317966419724864,3,0.26854434757460754,5.6330012287038445,0.09506230849098826,165.29454842680033,0.17970821755059863,35.35693615064639,0.0,0,0,0,0
1.1340000000000146,0.0,1,0,0,1,1,0,0,1,0.11606030699421253,0.0,0.14904261209792125,0.03932536613069795,0.03751709450959858,0.025704549617237542,-0.47842586602106796,-0.513605623613089,0.27596889306465827,3,0.25775262491148954,3.3801444738716646,0.08736853666503405,156.17752356039108,0.18866817273970476,35.24758195303294,0.0,0,0,0,0
1.1440000000000055,0.0,1,0,0,1,1,0,0,1,0.12563167618164625,0.0,0.1602395492196962,0.02263497198523455,0.03452472203648496,0.0383866857529505,-0.5308722377273503,-0.3532337679331817,0.17000970081755568,3,0.178479999139654,2.4859971670988807,0.08537826155405713,153.21157242397925,0.33699477413135015,34.97942419001607,0.0,0,0,0,0
1.1539999999999964,0.0,1,0,0,1,1,0,0,1,0.13521667177249352,0.0,0.171415904681895,0.000966391387955452,0.029151182022319852,0.023534841914966204,-0.6111486447377281,-0.22844531393789902,0.1177823458182577,3,0.18441095748638953,2.83875511107862,0.08624209488290553,147.86208561433938,0.14631258340945025,34.86179305751868,0.0,0,0,0,0
1.1639999999999873,0.0,1,0,0,1,1,0,0,1,0.1448572999125809,0.0,0.18257024295911492,-0.009660798279749123,0.028148454917131204,0.00452655350531697,-0.6858798449658476,-0.351346286808634,0.06261413711637523,3,0.2682914947068745,3.8289583264837694,0.09619920796734119,146.17896461915706,0.08449876090267103,34.815402666928364,0.0,0,0,0,0
1.1739999999999782,0.0,1,0,0,1,1,0,0,1,0.1544584712397246,0.0,0.1937011313539081,-0.016186525691792672,0.05002410882903377,0.005874135028507636,-0.49953871495201174,-0.5701602447025091,0.0835503067519781,3,0.3290730571482968,4.784160622469537,0.11943372513074099,148.51029303191845,0.03606902872681259,34.81772840322504,0.0,0,0,0,0
1.183999999999969,0.0,1,0,0,1,1,0,0,1,0.16406199266107654,0.0,0.20480714018080148,-0.036184107269872735,0.07181367903205448,0.009208130650150958,-0.43997661412374584,-0.5287225276791236,0.2303813474106292,3,0.3006960813152895,3.786658951050358,0.11477354648940101,159.19277213018438,0.3015286930423528,34.99640535330286,0.0,0,0,0,0
1.19399999999996,0.0,1,0,0,1,1,0,0,1,0.1736492652619749,0.0,0.21588684294993013,-0.04515691210951394,0.08307175502121453,-0.01708496713059821,-0.4865743278166772,-0.4241586259661688,0.3415093660686497,3,0.38946493779543917,5.094562863379673,0.13955504275285696,164.39015645198194,0.4127855275390285,35.43927374748256,0.0,0,0,0,0
1.2039999999999509,0.0,1,0,0,1,1,0,1,1,0.18326041560429193,0.0,0.22693881655025994,-0.028933420876632397,0.07483088528914071,-0.018649833124078644,-0.607109960804796,-0.6044305726492378,0.2999060014010701,3,0.3985145794810038,5.839194023455745,0.1265043062211593,171.10998510025942,0.17926464805181608,35.4871370502653,25.0,0.0,0.0,0.10999999999999999,0.0
1.2140000000000555,0.0,1,0,0,1,1,0,1,1,0.19278805699433446,0.0,0.23796164143237633,-0.05807618556315548,0.056271304028021295,0.038689915558274106,-0.6989908617653454,-0.3371004024256521,0.2599106954871893,3,0.3287320561743705,3.6986786659610944,0.12651309333670233,221.0097563132719,0.12582137608427701,35.197875627734504,25.0,0,0,0,0
1.2240000000000464,0.0,1,0,0,1,1,0,1,1,0.20234582685725383,0.0,0.24895390179081553,-0.05777814102250992,0.046799591080106444,0.06792022547723812,-0.8744979204873412,0.06978880456359304,0.31450741329386694,3,0.354618451514048,4.367467620129022,0.1396878740863276,235.32425532577486,0.18630049358130063,35.229961977083875,25.0,0,0,0,0
1.2340000000000373,0.0,0,1,1,0,1,0,1,1,0.2119110141374371,0.0,0.25991418574591496,-0.001612411139397391,0.04720640590633653,0.07446045146654909,-0.3347976922550219,0.02032058844434975,0.3803690299076541,3,0.3838873337322906,9.674648827017077,0.16282329670524567,230.20189136683908,0.1821833839059922,35.53905462801004,75.0,0,0,0,0
1.2440000000000282,0.0,0,1,1,0,1,0,1,1,0.22148487645468926,0.0,0.2708410855251596,0.07649219671351051,0.04231433701986217,0.08711800074658489,0.5185897121228833,-0.3343190427386066,0.3534865423258911,3,0.3273549366776343,8.953781617194398,0.16050951339467742,249.7230235372728,0.16780632969562304,35.699118966545996,75.0,0,0,0,0
1.254000000000019,0.0,0,1,1,0,1,0,1,1,0.23102247232377157,0.0,0.2817331976440005,0.13937720087160493,0.024506691314860916,0.10967545614093048,0.7386143351650738,-0.5459722589171945,0.270109954000681,3,0.1725025494654484,8.510418868726003,0.1616379518854761,245.65739997685378,0.279724118289301,35.48930792601725,75.0,0,0,0,0
1.26400000000001,0.0,0,1,1,0,1,0,1,1,0.24055653060870316,0.0,0.2925891230861224,0.16866939956551114,0.007710578913294003,0.09840061425699717,1.0079861572494266,-0.5520207256537333,0.25881198877270273,3,0.13688079791704216,4.099515923622084,0.11188578524178991,224.60798245038632,0.16273696445456043,35.41165143716451,75.0,0,0,0,0
1.274000000000001,0.0,0,1,1,0,0,0,1,1,0.2500503878615191,0.0,0.30340746748313796,0.17515071202986093,-0.013067509674285905,0.047933093305830544,1.0028643223134222,-0.43955722377083123,0.3170371293224918,3,0.0902535362479959,2.341169931262555,0.08604890037413052,203.9284784458672,0.22364602423242252,35.66853370539934,50.0,0,0,0,0
1.2839999999999918,0.0,0,1,1,0,0,1,1,1,0.25957100923439863,0.0,0.3141868412936847,0.18134339015798936,-0.027616398121312745,-0.010460587266557875,1.021044716942799,-0.20825589484886203,0.3804577104253293,3,0.14346107748341605,2.155223389562713,0.07106074885759503,167.73189792272302,0.31819841839604945,35.85469428279325,45.0,0.0,0.22000000000000006,0.0,0.0
1.2939999999999827,0.0,0,1,1,0,0,1,1,0,0.2690864772230185,0.0,0.32492585998190165,0.1806348587519065,-0.03738947770576667,-0.04869703153618129,0.8560190116797104,-0.0217950250356558,0.41344551048610556,3,0.19328621597034248,2.6919899330740558,0.07068128199741684,150.2834877229428,0.20792429065371754,36.05099100577921,15.0,0,0,0,0
1.3039999999999736,0.0,0,1,1,0,0,1,1,0,0.2785937589643922,0.0,0.335623144195264,0.16509297421207492,-0.04344162176382079,-0.08246945613176586,0.6975539591167171,0.06906010395705209,0.36043554436868797,3,0.2038452880359986,2.38403178779833,0.07889063395112186,162.7874056703105,0.2957833497614486,35.95905322553519,0.0,0,0,0,0
1.3120000000000118,0.0,0,1,1,0,0,1,1,0,0.2880909634454563,0.0,0.3462773199417507,0.14239398983202434,-0.04866601112747679,-0.08303018977796336,0.5516204975719317,0.07430438484768342,0.29664296249746097,3,0.2043349926343852,3.229544257793065,0.11907722750744074,161.11119422795895,0.27909216062386233,35.58263318986045,0.0,0,0,0,0
1.3239999999999554,0.0,0,1,1,0,0,1,1,0,0.2975823116498738,0.0,0.3568870187663246,0.10752929581359215,-0.05537431766917046,-0.07762719843856225,0.2649382941350079,0.15787970960988174,0.2661297346272488,3,0.30383272954723417,2.714888806130289,0.10296786121433973,173.4655333893549,0.1435774731732682,35.34191261092292,0.0,0,0,0,0
1.3339999999999463,0.0,0,1,1,0,0,1,1,0,0.3070699734653868,0.0,0.36745087792670095,0.08314341791117684,-0.05158763260298783,-0.06313334008230816,0.017963166671300587,0.35978847292853233,0.294890126022105,3,0.3442367461615074,1.3115611434307937,0.08334298671651745,196.03370795365572,0.099984975387432,35.31785728746174,0.0,0,0,0,0
1.344000000000051,0.0,0,1,1,0,0,1,1,0,0.3165317366481935,0.0,0.3779675405683822,0.06875969570991158,-0.037808254208840666,-0.04627517820726342,0.08084735539758306,0.3974510773725778,0.3364772132279429,3,0.33743032229981634,1.122077308184592,0.08189221319867175,192.89329866836914,0.16326508268331064,35.401681500256885,0.0,0,0,0,0
1.3540000000000418,0.0,0,1,1,0,0,1,1,0,0.3259910172190559,0.0,0.38843565589893647,0.07378461632342606,-0.02608796581214971,-0.02994538998788323,0.1816289177453854,0.2597570458425231,0.36595316849084497,3,0.3138576480044205,1.4855062187289012,0.08443627557001873,182.80779388494722,0.11641633331634904,35.52870857130944,0.0,0,0,0,0
1.3640000000000327,0.0,0,1,1,0,0,1,1,0,0.3354400560634249,0.0,0.39885387936149763,0.09245234826787753,-0.0159809130256943,-0.017005818176154333,0.19754199926114047,-0.014336575592271021,0.36959609190278164,3,0.2990112373220759,2.185078183858568,0.0978149804757877,183.6644660740573,0.10475117054053662,35.58993903130221,0.0,0,0,0,0
1.3719999999999573,0.0,0,1,1,0,0,1,1,0,0.3448763000120658,0.0,0.4092208728074641,0.10988473122190061,-0.017046423048897422,0.005898099981880908,0.11607476053250546,-0.2943211607229987,0.34604445753900165,3,0.2988181296796569,3.3180299974272636,0.1108045097718682,185.91605071317835,0.14722257165525754,35.62869277137336,0.0,0,0,0,0
1.3840000000000146,0.0,0,1,1,0,0,1,1,0,0.35430551832492524,0.0,0.419535304668375,0.12626062457261264,-0.023915958458027593,0.03095948493748412,0.1459678200388365,-0.49874224662814315,0.3500873910046115,3,0.3196958389049199,5.138836654163222,0.1285977478709424,194.19500879048212,0.03629722205325636,35.65878023141259,0.0,0,0,0,0
1.3940000000000055,0.0,0,1,1,0,0,1,1,0,0.3637336756697216,0.0,0.4297958501269407,0.1518683154263588,-0.030005517338318684,0.05090124793069093,0.3089313649791849,-0.6859121337710317,0.3515332810316153,3,0.3217273525723309,5.073835777981323,0.11791113182768201,208.74928185712457,0.04684058534092128,35.774170862273294,0.0,0,0,0,0
1.4020000000000437,0.0,0,1,1,0,0,1,1,0,0.37313891930691745,0.0,0.4400011912872066,0.17212585117586401,-0.04547312978785706,0.05181133849929838,0.4024615119774224,-0.8682097393386978,0.32432920725839604,3,0.3396159993879032,5.24648558019008,0.12050589546947257,220.42207599566686,0.150377806710022,35.87021500731571,0.0,0,0,0,0
1.4120000000000346,0.0,0,1,1,0,0,1,1,0,0.3825176326795055,0.0,0.45015001734382754,0.1985878327124357,-0.06671466452954,0.03769335969895228,0.5062882612089434,-0.9237506028108562,0.3122036976090062,3,0.37966382563245304,4.49349073421242,0.10618841029964972,229.83163799242448,0.043855650948218305,35.91547433047359,0.0,0,0,0,0
1.4239999999999782,0.0,0,1,1,0,0,1,1,1,0.39194041820265757,0.0,0.46024102475043177,0.20710962432942903,-0.08716269335192102,0.06540984467990266,0.4931878129528168,-0.6929048343698735,0.3108077993338992,3,0.40479573741519725,3.1998836397957287,0.08947033428422725,256.752556811073,0.059985164358190235,36.02091781113654,20.0,0.0,0.0,0.0,0.12999999999999998
1.433999999999969,0.0,1,0,0,1,0,1,1,1,0.4013145705428874,0.0,0.4702729173870524,0.17048265209031827,-0.07731261578373866,0.14104833966935784,-0.10743437580710334,0.06787345616988691,0.18895613090977256,3,0.5154514038102268,2.2234071544964764,0.10069991639889353,342.59093310722164,0.5353512225346688,35.835596626212194,75.0,0,0,0,0
1.44399999999996,0.0,1,0,0,1,0,1,1,1,0.4106165330698809,0.0,0.48024440672660523,0.18093800654618306,-0.049848617818054324,0.1729627837963006,-0.12306762884175931,0.6247770666635174,0.10787864731066368,3,0.6479105315580833,4.120938942906939,0.1244672275345073,328.20791651285674,0.2932076149281878,35.59357255210221,75.0,0,0,0,0
1.4539999999999509,0.0,1,0,0,1,0,1,1,1,0.4199782349618941,0.0,0.4901542120003906,0.3202597006590128,-0.002434260691846971,0.12849142513469805,0.0034322779840748677,0.32499182680727057,0.14118278916356336,3,0.5393331637144064,13.820693072484051,0.20151077332126416,297.9632332758219,0.3173938217680252,35.96895032010851,75.0,0,0,0,0
1.4640000000000555,0.0,1,0,0,1,0,0,1,1,0.42936550501301884,0.0,0.5000010603626,0.41473265136848997,-0.004665871443101945,0.16525046500044413,0.3797896456984764,0.2838694568179995,0.2726189379182363,3,0.3382257752766873,11.17892552379907,0.2389712552430414,359.5947048444499,0.6757331812656285,36.758243548623916,65.0,0,0,0,0
1.4740000000000464,0.0,1,0,0,1,1,0,1,1,0.43860278797907554,0.0,0.5097836870538036,0.46279966414398815,-0.010391257143868158,0.19646493344227364,0.397990721951402,0.31253105535603204,0.6619833387143726,3,0.12895499660849769,7.641973842055701,0.1895436601725276,332.5798247918905,2.4250782657585397,38.455646734305546,35.0,0.20000000000000004,0.0,0.0,0.0
1.4840000000000373,0.0,1,0,0,1,1,0,1,1,0.4479190530851236,0.0,0.5195008355634003,0.4515636026314262,0.0019861198179940637,0.1959465597307038,0.1564136296510091,0.23770482641714263,0.9438997017819886,3,0.36022261547811285,2.3138806030114285,0.10896746993086434,321.3581587450702,2.4993827126231762,41.79232927530832,25.0,0,0,0,0
1.4940000000000282,0.0,1,0,0,1,1,0,0,1,0.4572350426292653,0.0,0.5291512577910076,0.4493622683673489,-0.0049268056348863104,0.16765910799823971,0.5564113957339526,-0.2074075621804064,1.0008225114727476,3,0.4776581651736301,1.8038076452214675,0.08519896236994956,284.1503842937767,0.5378432200805658,43.47449165346671,20.0,0,0,0,0
1.504000000000019,0.0,1,0,0,1,1,0,0,1,0.46650754217965584,0.0,0.5387337142067714,0.4675775802105079,-0.031856546684452175,0.14700191806253762,0.453802956218442,-0.21227034240958487,0.8933259423650363,3,0.4322806696530762,1.177516444244573,0.05078147475204046,165.15048186966004,1.3605897746434197,43.23555447000446,0.0,0,0,0,0
1.51400000000001,0.0,1,0,0,1,1,0,0,1,0.475731540811203,0.0,0.5482469740105752,0.45005146453819905,-0.0317097244172778,0.11248053484723511,0.08757959796880553,0.03030709282276761,0.7630286362631532,3,0.31563032067667524,1.4492608078396705,0.06364836455715175,135.51830316743397,1.6430041955008168,41.963231136852876,0.0,0,0,0,0
1.524000000000001,0.0,1,0,0,1,1,0,0,1,0.48499562194027124,0.0,0.5576898152901278,0.4429860193019591,-0.031530263155492115,0.08371217142486523,-0.14324177652760486,0.3985745811220169,0.6904902923258851,3,0.25019817815350154,1.1114311524915013,0.05053486969067663,138.3174483463192,0.8416953519758348,41.259714181090466,0.0,0,0,0,0
1.5339999999999918,0.0,1,0,0,1,1,0,0,1,0.4942449295986317,0.0,0.5670610251779092,0.44590645504936055,-0.030239413803257884,0.046300359964330864,-0.16012406211142402,0.6172930295253942,0.5875807827035888,3,0.12523035499331142,0.8397175447242372,0.04538904804735797,138.83647951698092,0.9072239357101246,40.408360800918196,0.0,0,0,0,0
1.5439999999999827,0.0,1,0,0,1,1,0,0,1,0.5034063285048412,0.0,0.5763594000069554,0.4576753435831729,-0.028581111026679044,0.015580176619312602,-0.218158628718242,0.7234194006288601,0.4859320934895318,3,0.12363744799316448,0.953606344862243,0.051069648582315774,139.04463210022618,0.6777748097452538,39.90753831583144,0.0,0,0,0,0
1.5539999999999736,0.0,1,0,0,1,1,0,0,1,0.5126478653110981,0.0,0.585583745465461,0.47465374508970953,-0.03706053383079419,-0.006016738757045288,-0.3696132486267132,0.7356459305185803,0.4464226395490754,3,0.20116035743616573,1.1151487565660436,0.06283780489769766,142.9963864731265,0.16683531660555095,39.60003513332717,0.0,0,0,0,0
1.5639999999999645,0.0,1,0,0,1,1,0,0,1,0.5218233657638369,0.0,0.5947328767501799,0.49655540615226995,-0.038459683457406864,-0.029877840044186404,-0.4001095994323508,0.6892117941335203,0.4615971589371529,3,0.20793826244803731,1.528369956138385,0.08569702878048126,143.73873627439676,0.2363618248488022,39.690826431025705,0.0,0,0,0,0
1.5739999999999554,0.0,1,0,0,1,1,0,0,1,0.5309633499496496,0.0,0.6038056187186057,0.5221056464669991,-0.031423658854278884,-0.03868080110690457,-0.2983233397952507,0.5712699347234993,0.5314586082273216,3,0.14870059698631144,1.8561716894316738,0.09391841420584204,145.15891158480048,0.5640556687749934,40.142366010457735,0.0,0,0,0,0
1.5839999999999463,0.0,1,0,0,1,1,0,0,1,0.5401209847875791,0.0,0.61280080603991,0.5397696801132231,-0.02419182611325372,-0.052657593084760965,-0.1491812061381032,0.46860093669690484,0.58780184293732,3,0.06905542847241225,1.8625838256033869,0.09435420275464228,156.3166674360992,0.4597739592103305,40.77622973321467,0.0,0,0,0,0
1.594000000000051,0.0,1,0,0,1,1,0,0,1,0.5491920991140611,0.0,0.6217172833446216,0.5580717445331399,-0.025149445330812526,-0.04636456607978901,-0.14557385547395185,0.43085771750003565,0.6359848165883457,3,0.040841714196842474,2.117924619272043,0.10177462672635103,169.17167696678626,0.459998808230631,41.306530471569275,0.0,0,0,0,0
1.6040000000000418,0.0,1,0,0,1,1,0,0,1,0.5583267058715307,0.0,0.6305539053730251,0.5699603387724821,-0.023745054239725456,-0.04973233440673728,-0.2557146091648335,0.4183872525291061,0.6723860131435959,3,0.05844148647096368,2.5031986880877626,0.11455859448692811,183.19292522593145,0.3562798318947431,41.67422495193736,0.0,0,0,0,0
1.6140000000000327,0.0,1,0,0,1,1,0,0,1,0.5673880700533301,0.0,0.6393095371222622,0.6032666225413146,-0.008041228073280253,-0.058442981341459165,-0.23943944083371513,0.25786313790549464,0.6906225694872775,3,0.09060068633438326,1.8847251471171744,0.10956011264223295,192.55088858035256,0.4064582769496994,42.13308145459705,0.0,0,0,0,0
1.6219999999999573,0.0,1,0,0,1,1,0,0,1,0.5764620112145465,0.0,0.6479830539921146,0.6467761642785704,0.010648009119393335,-0.05136546171104597,-0.03434540980226782,0.26321230356247266,0.6809288245753887,3,0.1055518333488851,1.8584134555978256,0.10686000484049316,190.21320563868898,0.27564847519921365,42.45284736637642,0.0,0,0,0,0
1.6340000000000146,0.0,0,1,1,0,1,0,1,1,0.5855146296871138,0.0,0.6565733419294512,0.6523040727344044,0.029901738218844832,-0.08436252908097373,0.04791994732128335,0.5279662824083144,0.6386090798229928,3,0.1107356676705676,0.9831211008849119,0.06634736642394128,187.74957271717255,0.2594709013479868,42.28942182509529,90.0,0.0,0.0,0.13999999999999999,0.0
1.6440000000000055,0.0,0,1,1,0,1,1,1,1,0.5945473735486684,0.0,0.6650792975713203,0.6541247042852985,0.02926545594305251,-0.09630726866142175,0.5128147897009053,0.9416591709136358,0.6397092242488722,3,0.10839211660239711,0.41566224797871565,0.055036304090052356,192.65098852317377,0.2735717755558964,42.12563999842324,60.0,0.0,0.18000000000000002,0.0,0.0
1.6539999999999964,0.0,0,1,1,0,1,1,1,1,0.6035715541635368,0.0,0.6734998283866692,0.6427938860409617,0.010049563701223358,-0.07654590673984958,-0.041661965283120106,0.7653953610017943,0.561931765041459,3,0.12603619423627807,0.5418346043459532,0.07512679031270854,188.09129945130582,0.44739637651668396,41.491181680783576,50.0,0,0,0,0
1.6639999999999873,0.0,0,1,1,0,1,1,1,1,0.6125585330468782,0.0,0.6818338528166723,0.6573950879575003,-0.010653616989922945,-0.08107163464941097,-0.6154267635524701,0.5436489002621155,0.5141493152142813,3,0.2082357959490806,1.1716774055246433,0.09833431907043147,137.58046708828965,0.2802740407272104,40.79458101661142,50.0,0,0,0,0
1.6739999999999782,0.0,0,1,1,0,0,1,1,0,0.6215500380988389,0.0,0.6900803004136494,0.648968947443771,-0.0207239225856998,-0.09159851367829185,-0.874745197222653,0.3699145064724253,0.5480127090284042,3,0.21695645672645214,1.6402106936010121,0.10574655536750485,121.86352761264047,0.2627289527751513,40.778429043350684,15.0,0,0,0,0
1.683999999999969,0.0,0,1,1,0,0,1,1,0,0.6305057331026868,0.0,0.6982381119785577,0.6489417798813625,-0.029190596207072178,-0.09660592799371456,-0.9168251677650671,0.25394680907045414,0.6647025150536454,3,0.12458418799725664,1.6208389760595519,0.09711708672286226,141.5813654614804,0.9692100622069795,41.36378530994097,0.0,0,0,0,0
1.69399999999996,0.0,0,1,1,0,0,1,1,0,0.639429693120616,0.0,0.7063062396970385,0.6325920461467717,-0.02837600049582095,-0.09068474009785873,-0.6793342864082618,0.32384883504418216,0.8090648159189329,3,0.08315021593188474,1.9872434863568003,0.10791122558417303,160.72697161138962,1.2707839543765456,42.28422616414863,0.0,0,0,0,0
1.7019999999999982,0.0,0,1,1,0,0,1,1,0,0.6483459152595296,0.0,0.7142836472740015,0.6250065178348049,-0.0316906759464424,-0.06647090412280296,-0.329901076027474,0.4506310410475268,0.9039002474554456,3,0.2120833019994408,1.5852267740244224,0.11441973137955712,179.53345357798034,1.0115728849015646,43.430759734377354,0.0,0,0,0,0
1.711999999999989,0.0,0,1,1,0,0,1,1,0,0.6572406799555137,0.0,0.72216931006673,0.6255910140256934,-0.03539414875157693,-0.04385870897653307,0.09078428416139635,0.5297094088850394,0.8658071853667083,3,0.23494088003198227,1.3790542694383012,0.1343366128514761,189.21912021747326,0.4404421725760246,43.509123179003886,0.0,0,0,0,0
1.72199999999998,0.0,0,1,1,0,0,1,1,0,0.6661227924456476,0.0,0.7299622152164887,0.6466206463908438,-0.03973818443320566,-0.026093852824052906,0.2049354242618301,0.4843652501741349,0.7763227151038061,3,0.15460748857625067,1.5320900036409806,0.14544534774454473,183.23134016481518,0.708134212591542,42.80931735873394,0.0,0,0,0,0
1.731999999999971,0.0,0,1,1,0,0,1,1,0,0.6749729344308096,0.0,0.7376613617786193,0.6637346168697387,-0.05082348648502042,-0.016275447670001435,0.16660056406962945,0.22897500765547923,0.6338928292960034,3,0.11147897625025818,1.4304467605105828,0.13561531485348183,176.09393872174869,1.0754008702984432,41.72608091380823,0.0,0,0,0,0
1.7440000000000282,0.0,0,1,1,0,0,1,1,0,0.6838041463201054,0.0,0.7452657608511035,0.6792291581937323,-0.06327210464427369,-0.012742390237891053,0.10967014610123915,-0.07120138544592669,0.5559549409029185,3,0.2303248994031927,1.237174673866999,0.11660537213822071,166.7799609466867,0.39493848188914615,40.94751561309873,0.0,0,0,0,0
1.754000000000019,0.0,0,1,1,0,0,1,1,0,0.6926144462081377,0.0,0.7527744357015821,0.67765352804813,-0.06546798238002087,-0.00819809811150967,0.13042979272558788,-0.112073826491847,0.5604532388797216,3,0.2722377494432595,1.4977997271111065,0.10545953245598523,154.4506672181701,0.0872290805797693,40.79384533921344,0.0,0,0,0,0
1.7619999999999436,0.0,0,1,1,0,0,1,1,0,0.7014010325795025,0.0,0.7601864218928084,0.6661203887492833,-0.04959477630790166,0.009398859729578924,0.17357836858410738,-0.06967890719067533,0.6590778962871622,3,0.23173907688892864,1.764026490195586,0.09882279195619341,145.43179444695937,0.6604092175040019,41.091991870926314,0.0,0,0,0,0
1.774000000000001,0.0,0,1,1,0,0,1,1,0,0.7101644691855172,0.0,0.7675007674065241,0.6553520134473526,-0.03138094583385047,0.0386131593249497,0.2319052623802034,-0.05260682764088197,0.751632118366752,3,0.13475893403531342,2.6995755821004694,0.11017694682776828,142.28041677030393,0.6827505638307283,41.88093122604065,0.0,0,0,0,0
1.782000000000039,0.0,0,1,1,0,0,1,1,0,0.7188969868579554,0.0,0.774716532765739,0.656160808206046,-0.03782546020809065,0.052576534420287244,0.17734685939709927,-0.02740969020137524,0.8675425413258968,3,0.1507987814442095,2.0077018237141804,0.10831331197163993,149.17453214280494,1.1232819375686,43.020848962629714,0.0,0,0,0,0
1.7939999999999827,0.0,0,1,1,0,0,1,1,0,0.7276141454809428,0.0,0.781832791155401,0.6487746609863086,-0.054459548531874936,0.03493411944576581,0.07726794905666048,-0.09568294116736285,0.8070092442606713,3,0.18355938018736642,1.351929063234502,0.12195808548210312,152.94099833833934,0.730110200770449,43.131951599740134,0.0,0,0,0,0
1.802000000000021,0.0,0,1,1,0,0,1,1,0,0.7363176738850579,0.0,0.7888486285414381,0.6480425248625701,-0.06485493993493549,0.045640379760599994,0.02196182257057157,0.02784067318686526,0.7383084948699463,3,0.16991166176534458,0.9791518775126263,0.12807524098053405,155.8183992477549,0.6921686603450397,42.403099521265766,0.0,0,0,0,0
1.8139999999999645,0.0,0,1,1,0,0,1,1,0,0.7449902842506311,0.0,0.7957631437881606,0.6559314906141522,-0.07644225399266447,0.04385899084053785,0.20084023904696074,0.13232743453798287,0.6935214106489639,3,0.253080639668582,0.7767954912761788,0.11323549594812495,154.82767650014188,0.44573253177156325,41.857333263663506,0.0,0,0,0,0
1.8239999999999554,0.0,0,1,1,0,0,1,1,0,0.7536369043927857,0.0,0.8025754487740052,0.6399910368845267,-0.08534114358429347,0.024807650430053545,0.12393459458617556,0.113423867763781,0.7281328827785842,3,0.27236635022277217,0.5185154387848422,0.10311687764126756,147.14138542845114,0.19755885132871942,41.95027114397715,0.0,0,0,0,0
1.8339999999999463,0.0,1,0,0,1,1,1,1,0,0.7622474197660097,0.0,0.8092846685056084,0.6499176743095254,-0.0971949522695628,0.007667919828251983,0.08128063349957876,0.07217272395757288,0.7310983622764957,3,0.2863360599361706,0.41485543962660376,0.09650669562405371,134.82191828567935,0.16281712202249743,42.05669320870635,90.0,0.16,0.0,0.0,0.0
1.844000000000051,0.0,1,0,0,1,1,1,1,1,0.7708456064054146,0.0,0.8158899412301931,0.6456724145877685,-0.09501938498062425,0.009232078320246358,0.3756689270289352,-0.10664581294066365,0.723691877284526,3,0.295745041669778,0.5222115115609073,0.09385605016432032,150.64479970827566,0.13923752229721487,42.05314573138948,65.0,0.0,0.0,0.0,0.17
1.8540000000000418,0.0,1,0,0,1,1,1,1,1,0.7794208786589809,0.0,0.8223904185462548,0.6506164567462597,-0.09179114399954998,-0.004648646804592892,0.4635139769734155,-0.09792375179788014,0.5868034355928242,3,0.384502317784343,0.5183888725000623,0.0770154604523142,178.62514821625058,0.9761894654472885,41.32760755075229,50.0,0,0,0,0
1.8640000000000327,0.0,1,0,0,1,1,1,1,1,0.7879680606938393,0.0,0.8287852655125333,0.6600418664993701,-0.09691515120618813,-0.0065423642251056235,0.2486086092443008,-0.0738809503893419,0.50905918416924,3,0.5213147553864578,1.6317925827971789,0.12028827172780812,146.62074250259994,0.48796806969005146,40.39316959826094,50.0,0,0,0,0
1.8740000000000236,0.0,1,0,0,1,1,0,0,1,0.7964933981934644,0.0,0.8350736607552541,0.6865435318505869,-0.09813516141195461,-0.00013157179949690317,-0.00972683681006823,-0.20220586398206697,0.5733706161481054,3,0.5199076557421016,3.3697220006788546,0.17797961153134442,151.9909063487913,0.5480102882707163,40.68215871781207,15.0,0,0,0,0
1.8819999999999482,0.0,1,0,0,1,1,0,0,1,0.8049899106102922,0.0,0.8412547965736297,0.6942807930853164,-0.07786556064209849,0.03210199071073232,-0.3299132889290645,-0.37131294386826336,0.7395199431986949,3,0.35806411442564945,2.4805943624227207,0.15233746274475007,228.8109639124812,1.324971906844934,42.02668381357318,0.0,0,0,0,0
1.8940000000000055,0.0,1,0,0,1,1,0,0,1,0.8134627998480365,0.0,0.8473278790436015,0.6794318499341752,-0.059850268737758935,0.04078880299050735,-0.13610536807682325,-0.597185937808006,0.8633547086378948,3,0.2177363417688185,1.3986897417493362,0.12277261560268252,256.41013582833244,1.0502127218520414,43.330378916424856,0.0,0,0,0,0
