time,trans_flag,des_cont_state_fl,des_cont_state_fr,des_cont_state_rl,des_cont_state_rr,cont_state_fl,cont_state_fr,cont_state_rl,cont_state_rr,vel_cmd_x,vel_cmd_y,vel_cmd_yaw,base_vel_x,base_vel_y,base_vel_z,base_vel_roll,base_vel_pitch,base_vel_yaw,gait_id,base,CoT,musculoskeletal,foot_force,MWE,WEXT,stability,FL_stride_t,FR_stride_t,RL_stride_t,RR_stride_t
0.009999999999990905,0.0,1,1,1,1,1,1,1,1,0.0,0.0,0.0,0.012041663778340149,0.01029562836768077,0.0031280258524773326,0.0014302174095064397,-0.0015399584081023923,-0.002715029288083314,0,0.005010464286820847,0.0,0.012066761363636365,40.22999999999998,3.8188897677627582,6.87701381208564,0.0,0,0,0,0
0.01999999999998181,0.0,1,1,1,1,1,1,1,1,0.0,0.0,0.0,0.008959428241205578,0.0028538438969951934,0.0040050290434921615,0.003410079378928277,0.004454725617823597,0.0026174347323723547,0,0.019823135123968487,0.0,0.060687360976866514,201.02142237035872,0.003160038115585047,34.38520159221899,0.0,0,0,0,0
0.030000000000086402,0.0,1,1,1,1,1,1,1,1,0.0,0.0,0.0,-0.0018345348493226546,-0.006776531747984713,0.023036124152687715,-0.03897322235092653,0.008468273355684931,-0.0017491647349302517,0,0.008284757850415145,0.0,0.09331625793540393,201.49717949995897,0.024075234217413293,34.39481979542141,0.0,0,0,0,0
0.038000000000010914,0.0,1,1,1,1,1,1,1,1,0.0,0.0,0.0,-0.01686076733331109,-0.01863245073565876,0.04234559182234629,-0.11335493535792211,0.058962514279090314,-0.004102427721059777,0,0.03262499194497936,0.0,0.11306233653406075,215.88757546666207,0.0529628320499727,34.44584581339003,0.0,0,0,0,0
0.05000000000006821,0.0,1,1,1,1,1,1,1,1,0.0,0.0,0.0,-0.01161729256684549,-0.0006002211872191657,0.0415103287149339,0.020791226828013654,0.0511358818825568,-0.020110415475713635,0,0.0362131946520173,0.0,0.10856887654763814,224.75682468331257,0.04686594607720346,34.49675508862224,0.0,0,0,0,0
0.06000000000005912,0.0,1,1,1,1,1,1,1,1,0.0,0.0,0.0,0.002460213087333192,0.009025866003957689,0.0479019897370436,0.12521820973515416,0.008631012570635048,-0.03405536683723357,0,0.03694578424712687,0.0,0.1070699540128484,210.7437789322439,0.051439182881374244,34.54916878974023,0.0,0,0,0,0
0.07000000000005002,0.0,1,1,1,1,1,1,1,1,0.0,0.0,0.0,0.006586611704497649,0.004709323709025517,0.0477593770927843,0.042115965574084716,0.00035472935862195963,-0.03272057793019337,0,0.05300938515424288,0.0,0.10996011392793179,207.21104902284782,0.04350936491742417,34.60559952180406,0.0,0,0,0,0
0.08000000000004093,0.0,1,1,1,1,1,1,1,1,0.0,0.0,0.0,0.0031960143908312225,-0.002533960117134826,0.04551409115355736,-0.03478693756767919,0.009887354583497654,-0.03358724752816891,0,0.03428010489173502,0.0,0.10591714554449558,202.03237403547004,0.030206609289361884,34.63394672637979,0.0,0,0,0,0
0.09000000000003183,0.0,1,1,1,1,1,1,1,1,0.0,0.0,0.0,0.006046546512364376,-0.005168556412876867,0.039666392139637054,0.0034771852989657747,0.02370410642148192,-0.017425450263440043,0,0.03676227071494595,0.0,0.10695604295178325,196.7147248021939,0.035561639426761285,34.66438410872189,0.0,0,0,0,0
0.10000000000002274,0.0,1,1,1,1,1,1,1,1,0.0,0.0,0.0,0.013860944231448478,-0.003975905134753677,0.03365633190012599,0.0005631036849859557,0.04378248145555483,0.0048462289947712595,0,0.02009107907537965,0.0,0.10631806840750327,193.5960866350842,0.0330657359417426,34.69254764420988,0.0,0,0,0,0
0.11000000000001364,0.0,1,1,1,1,1,1,1,1,0.0,0.0,0.0,0.02096223237383318,-0.0019962378019220467,0.029422246015501263,-0.005526018330071972,0.03507863772391989,0.01948848074411012,0,0.0369634468752823,0.0,0.10370195233042986,193.56734087546425,0.01769580310776519,34.721375892041316,0.0,0,0,0,0
0.12000000000000455,0.0,1,1,1,1,1,1,1,1,0.0,0.0,0.0,0.024261262732657798,-7.688506987851018e-05,0.023626533530869992,0.040866975445581384,0.04255509315859649,0.02057028330731817,0,0.04339281784450817,0.0,0.10399867272816558,192.89586515241635,0.016043141965339937,34.74134647377933,0.0,0,0,0,0
0.12999999999999545,0.0,1,1,1,1,1,1,1,1,0.0,0.0,0.0,0.025644800557472872,0.0003395831850385245,0.018410680291761215,0.05336991330529647,0.04834050384814868,0.012881592289641268,0,0.043393968069089475,0.0,0.10335510274803364,190.86388192519195,0.015390704831507427,34.75676216680792,0.0,0,0,0,0
0.13999999999998636,0.0,1,1,1,1,1,1,1,1,0.0,0.0,0.0,0.027283042266302012,-0.00031180057673327403,0.015799182671733462,0.03671207307033127,0.06147188529774244,-0.0077426553169359195,0,0.03237004415135701,0.0,0.10444965369480357,192.1214122275492,0.013810196195124032,34.770375450037626,0.0,0,0,0,0
0.15000000000009095,0.0,1,1,1,1,1,1,1,1,0.0,0.0,0.0,0.027929382371585102,-0.0010619925598199635,0.01406245241578751,0.030154990256262837,0.06374136867055522,-0.016985888639152222,0,0.043043830352785147,0.0,0.10410025850864675,193.59932292099538,0.010675151769880105,34.782990512876154,0.0,0,0,0,0
0.16000000000008185,0.0,1,1,1,1,1,1,1,1,0.0,0.0,0.0,0.03028425769407534,-0.0013024329209920112,0.013764045733760884,0.008939861262152834,0.07239531947406846,-0.029462811015103813,0,0.05446780650847678,0.0,0.10517795824173563,194.8113214999102,0.023641845246740695,34.809031831897485,0.0,0,0,0,0
0.17000000000007276,0.0,1,1,1,1,1,1,1,1,0.0,0.0,0.0,0.031682759174743474,0.0004906825265391803,0.014393456462939139,-0.005103955639040943,0.07292120564966822,-0.03451644847485322,0,0.06573913840164776,0.0,0.10486207653436652,195.71518170292092,0.02107820199138897,34.83810861990728,0.0,0,0,0,0
0.18000000000006366,0.0,1,1,1,1,1,1,1,1,0.0,0.0,0.0,0.03197205147726366,0.001699433484047428,0.014113276772521943,0.019113653545482615,0.06997979108147907,-0.03129865032775164,0,0.0683491057630831,0.0,0.1041108100859153,196.1571994371057,0.022978248840140672,34.8618837092977,0.0,0,0,0,0
0.19000000000005457,0.0,1,1,1,1,1,1,1,1,0.0,0.0,0.0,0.031034725578737096,0.0037522841615227464,0.014064457731098897,0.035169947193582414,0.05501634489105244,-0.01058714033002781,0,0.05151397342311592,0.0,0.10400247792428985,195.49427489410405,0.023234072895435148,34.87405345845481,0.0,0,0,0,0
0.20000000000004547,0.0,1,1,1,1,1,1,1,1,0.0,0.0,0.0,0.03135140759843094,0.003650770224529126,0.015100667391599163,0.03158381988888439,0.0459380102510746,0.0034707782827161464,0,0.03911271370543356,0.0,0.10401553683418929,195.659879986855,0.024685713867921802,34.89524080864821,0.0,0,0,0,0
0.21000000000003638,0.0,1,1,1,1,1,1,1,1,0.0,0.0,0.0,0.030544433798782064,0.00449861607112648,0.015574810320522246,0.00988816805390817,0.03384088722180074,0.015495791501159957,0,0.04647616962912167,0.0,0.10418650962451922,196.35727031052005,0.015995854099391492,34.91514256505108,0.0,0,0,0,0
0.22000000000002728,0.0,1,1,1,1,1,1,1,1,0.0,0.0,0.0,0.027396359742789828,0.005150427479856326,0.01505131193160478,0.0010309770104775678,0.03318321248015128,0.02513808098369265,0,0.053915634669115406,0.0,0.10204133916398388,196.13917447065242,0.012475878203879447,34.931139816147336,0.0,0,0,0,0
0.2300000000000182,0.0,1,1,1,1,1,1,1,1,0.0,0.0,0.0,0.024467183206592902,0.005891155147669127,0.014599375745816436,0.007123586259698068,0.027283292775083318,0.013599463548106266,0,0.04844157992683521,0.0,0.10339864106933275,195.23218182038715,0.016447099072409085,34.94280963369872,0.0,0,0,0,0
0.2400000000000091,0.0,1,1,1,1,1,1,1,1,0.0,0.0,0.0,0.020657547157290807,0.006263355400000987,0.01370511142721636,0.019195050317060633,0.020811209782277615,0.011306527730536736,0,0.043565832214095955,0.0,0.10364230056822261,195.5776761249627,0.011155553535811259,34.95260872737505,0.0,0,0,0,0
0.25,0.0,1,1,1,1,1,1,1,1,0.0,0.0,0.0,0.019450489577177935,0.005700903989776578,0.013927529903987233,0.00670886564898204,0.016206261655082068,-0.0016351073875732057,0,0.028437011245309264,0.0,0.10343371166706057,195.9069638636394,0.014265003622768143,34.96167402201827,0.0,0,0,0,0
0.2599999999999909,0.0,1,1,1,1,1,1,1,1,0.0,0.0,0.0,0.018158094537686912,0.006139723046139859,0.014471689160675918,-2.142841709880882e-05,0.016897881237485562,-0.013607984762741047,0,0.03163586644615688,0.0,0.10307586493777002,196.10106547000322,0.012218871786768809,34.97500982338416,0.0,0,0,0,0
0.2680000000000291,0.0,1,1,1,1,1,1,1,1,0.0,0.0,0.0,0.017562261686067296,0.006185855086931228,0.011896885410151114,0.013168823897564384,0.011880077814966241,-0.014141564986409947,0,0.040101556106017476,0.0,0.10328705449747848,196.12312747098127,0.010065880727276585,34.987831577268835,0.0,0,0,0,0
0.27800000000002,0.0,1,1,1,1,1,1,1,1,0.0,0.0,0.0,0.01745060728738504,0.006933577613713701,0.009920753471747439,0.009441999312300536,0.009351326991599518,-0.006019187499191966,0,0.03344439372641286,0.0,0.10237740345389187,194.4998366865042,0.008016785853312646,34.99427936060259,0.0,0,0,0,0
0.2880000000000109,0.0,1,1,1,1,1,1,1,1,0.0,0.0,0.0,0.017484717211237594,0.007851354032784618,0.008522235492154516,-0.002815296098227329,0.007732472018911629,-0.003704101102423193,0,0.031640087592135525,0.0,0.10274807061622566,193.234844890055,0.008291574951954782,35.00227096685742,0.0,0,0,0,0
0.2980000000000018,0.0,1,1,1,1,1,1,1,1,0.0,0.0,0.0,0.017346451381916556,0.008989450449735025,0.006939985837179628,-0.01190590992344451,0.014554101491942802,0.003873668349178028,0,0.028515372417531437,0.0,0.10388589217192568,193.81168121841444,0.004696776865938054,35.00876182782734,0.0,0,0,0,0
0.3079999999999927,0.0,1,1,1,1,1,1,1,1,0.0,0.0,0.0,0.016146704001405113,0.009990438597045844,0.005682961641309314,-0.007035807764589679,0.007264183734251897,-0.0004788436297741588,0,0.027921389584195183,0.0,0.1029370611526188,194.20657191089475,0.0017124156577763765,35.010503916158974,0.0,0,0,0,0
0.32000000000005,0.0,1,1,1,1,1,1,1,1,0.0,0.0,0.0,0.015943147441530598,0.010356400763996226,0.00547133464508045,-0.018054531779055714,0.009668164614011114,0.007880142214454905,0,0.030496581033275783,0.0,0.10336920993971396,195.4110149882696,0.002774244112168706,35.01363209501431,0.0,0,0,0,0
0.3300000000000409,0.0,1,1,1,1,1,1,1,1,0.0,0.0,0.0,0.014478286746571466,0.010678326791766102,0.0066114890524173265,-0.018563377903173313,0.011894928384461774,0.0008908127755139802,0,0.03202091443786827,0.0,0.10248846329517787,196.7065074830825,0.001536671694953735,35.01513878390345,0.0,0,0,0,0
0.34000000000003183,0.0,1,1,1,1,1,1,1,1,0.0,0.0,0.0,0.01243520132985809,0.011138068773993466,0.007664480546134103,-0.014458672090211212,-0.00024336015368734364,-0.007676582781457685,0,0.02995314568763664,0.0,0.10356394524905918,196.75938248365037,0.0014954121258562054,35.015818501437,0.0,0,0,0,0
0.35000000000002274,0.0,1,1,1,1,1,1,1,1,0.0,0.0,0.0,0.011893511314193661,0.011664436683433406,0.008883727526082278,-0.017641675971635816,1.1361004970379077e-05,-0.007397813498178799,0,0.029542402681990897,0.0,0.10355117641992914,196.72591101324028,0.005923183766111504,35.02025737389899,0.0,0,0,0,0
0.36000000000001364,0.0,1,1,1,1,1,1,1,1,0.0,0.0,0.0,0.011559986038125249,0.011206919760201474,0.008554020841938197,-0.02312599816576914,0.0012170566975544996,-0.020081558511716713,0,0.03940761441527639,0.0,0.10278587579857772,196.18466937030868,0.003354527808860089,35.02729412175556,0.0,0,0,0,0
0.36800000000005184,0.0,1,1,1,1,1,1,1,1,0.0,0.0,0.0,0.011657540847282282,0.010727649379481365,0.008083775999015774,-0.017780686142887865,0.0017788155035090682,-0.002310166118443005,0,0.034017939546596834,0.0,0.10366412580882856,196.07834679639814,0.006402786347398544,35.03069233791125,0.0,0,0,0,0
0.37800000000004275,0.0,1,1,1,1,1,1,1,1,0.0,0.0,0.0,0.012549342570679698,0.010421189227643186,0.007150261437717483,-0.012928763275192882,0.004639458476733743,0.0017608568161780378,0,0.023793621088768736,0.0,0.10420655811770918,195.66461485919208,0.0036657720092872405,35.033951889777995,0.0,0,0,0,0
0.38800000000003365,0.0,1,1,1,1,1,1,1,1,0.0,0.0,0.0,0.012871913594205059,0.01066466624747355,0.005725718246850179,-0.0021945659158771943,-0.0001152804950365681,0.007944206950460398,0,0.029353169685774345,0.0,0.10387974546818193,195.93030804415557,0.0014842234259944268,35.036241425688374,0.0,0,0,0,0
0.40000000000009095,0.0,1,1,1,1,1,1,1,1,0.0,0.0,0.0,0.014164123296282862,0.010219311373701434,0.004408694904605595,-0.004096665832661366,-0.001804285366453762,0.014185137031522594,0,0.033489726124283734,0.0,0.10265157678550214,195.92300841776074,0.0015998033734135747,35.03735956183085,0.0,0,0,0,0
0.41000000000008185,0.0,1,1,1,1,1,1,1,1,0.0,0.0,0.0,0.01423963390769707,0.009776571784155487,0.003208383200638367,-0.008222443843644862,-0.005514525205808663,0.003962150319489679,0,0.03423624124885276,0.0,0.10373873390817154,195.89275137047133,0.002610082691917167,35.03626317308538,0.0,0,0,0,0
0.42000000000007276,0.0,1,1,1,1,1,1,1,1,0.0,0.0,0.0,0.014329038012037769,0.00965602836881524,0.002486536792791338,0.003004371585731145,-0.005310674986269328,0.003803980487673949,0,0.026370354379907347,0.0,0.10287942169702986,196.22955560096526,0.002612936770554156,35.031406017240755,0.0,0,0,0,0
0.43000000000006366,0.0,1,1,1,1,1,1,1,1,0.0,0.0,0.0,0.014465634466683981,0.009583912775276255,0.003199751611663285,0.005879767701426531,-0.004933357208920952,0.002932071886118278,0,0.027831961256912573,0.0,0.10393811728515638,196.26499776989886,0.0016784843247089523,35.030698543509814,0.0,0,0,0,0
0.44000000000005457,0.0,1,1,1,1,1,1,1,1,0.0,0.0,0.0,0.015381878472890005,0.009024190436147713,0.0028883724961093486,0.006630543046026143,-0.0015745101719418428,-0.003142531743017143,0,0.025904150883296628,0.0,0.10210262765140916,197.31105564141043,0.0011892450348999634,35.03134708235916,0.0,0,0,0,0
0.4500000000000455,0.0,1,1,1,1,1,1,1,1,0.0,0.0,0.0,0.01571535062330974,0.00915195468637544,0.003762631564136693,0.0034226347326715306,0.0029980189417332576,-0.0003489716141911848,0,0.026021772785229647,0.0,0.10270958483559656,196.91901301344774,0.0013406969162040325,35.03110700738879,0.0,0,0,0,0
0.4600000000000364,0.0,1,1,1,1,1,1,1,1,0.0,0.0,0.0,0.01714305083540496,0.009452964449250293,0.004147680361960272,-0.0001988110261550082,0.0017049963960404737,-0.01160285025565222,0,0.03233491362860231,0.0,0.10270074718636366,197.32846642864257,0.0011288272449261026,35.030945924445824,0.0,0,0,0,0
0.4700000000000273,0.0,1,1,1,1,1,1,1,1,0.0,0.0,0.0,0.018214162083322334,0.009759770878773524,0.00389095488294401,0.003709296716606238,0.0023269898501549913,0.0019603307675643655,0,0.03420098893468121,0.0,0.1034565407766976,197.4051526650864,0.0012473872749624816,35.031216897606285,0.0,0,0,0,0
0.4800000000000182,0.0,1,1,1,1,1,1,1,1,0.0,0.0,0.0,0.018742526221560207,0.00999647465849428,0.0036446992412333995,-0.0004973928884400129,0.00019541654681062303,0.001970864384619181,0,0.03270458976804404,0.0,0.10371781802327629,197.1963339279755,0.0009191528544501126,35.03225373311606,0.0,0,0,0,0
0.4900000000000091,0.0,1,1,1,1,1,1,1,1,0.0,0.0,0.0,0.019169084607580544,0.010929985917263721,0.004172522334508424,6.387870265594749e-05,0.00740046741560184,0.003126386884674423,0,0.03096157513834033,0.0,0.10266680447993685,197.27396167610573,0.00032395904832934223,35.032162375814934,0.0,0,0,0,0
0.5,0.0,1,1,1,1,1,1,1,1,0.0,0.0,0.0,0.02031979132984741,0.011268762273242104,0.0036592843257357488,0.002863135577561884,0.006459708346962665,-0.0032049344286609054,0,0.03319334556633819,0.0,0.10268493315769431,196.97838491432586,0.00039285934467895743,35.03286484082673,0.0,0,0,0,0
0.5080000000000382,0.0,1,1,1,1,1,1,1,1,0.0,0.0,0.0,0.020901360846770287,0.011172058332249771,0.0032701486314155167,0.003991692056908662,4.004866540665425e-05,-0.0032384224133994773,0,0.03461886048013307,0.0,0.10291542877364382,196.43878428200867,0.0008871083999851593,35.033345825573434,0.0,0,0,0,0
0.5180000000000291,0.0,1,1,1,1,1,1,1,1,0.0,0.0,0.0,0.020248520951323696,0.011921194304529509,0.0037790255791486,-0.0024165260488684553,0.0026973779872447082,0.009536306964368167,0,0.03697961542941604,0.0,0.10155321316059018,197.07042901614167,0.0006509315756878338,35.032709304782806,0.0,0,0,0,0
0.52800000000002,0.0,1,1,1,1,1,1,1,1,0.0,0.0,0.0,0.02081507415213112,0.01186557134991742,0.003818652805207401,0.0026731730200575126,0.005188072873445261,-0.0011005491052655972,0,0.03699753135087712,0.0,0.10284448663267706,197.15491881687257,0.0019013881470547177,35.03388993925313,0.0,0,0,0,0
0.5380000000000109,0.0,1,1,1,1,1,1,1,1,0.0,0.0,0.0,0.021163020348449777,0.01211752975926909,0.004420005753414602,0.0002197267523062171,0.005046798704248572,0.008666490972533233,0,0.03763530389825219,0.0,0.10143791235019876,196.69806088360482,0.0008793915090894271,35.03439340485316,0.0,0,0,0,0
0.5480000000000018,0.0,1,1,1,1,1,1,1,1,0.0,0.0,0.0,0.02103679572682655,0.011856450849283934,0.0043080532002999885,-0.004318257248410044,0.004197255244553921,0.004543264560470996,0,0.03970042305087586,0.0,0.10189838871449033,196.9244562069348,0.0020811381159857346,35.036257973534745,0.0,0,0,0,0
0.5600000000000591,0.0,1,1,1,1,1,1,1,1,0.0,0.0,0.0,0.021289068310454493,0.011385540645125994,0.0035819256919737905,-0.0005840171100514503,-0.0021315026130611205,-0.00806854217257139,0,0.036786437251629875,0.0,0.10261705285059237,197.1823561465178,0.001224751725479721,35.03577567008486,0.0,0,0,0,0
0.5679999999999836,0.0,1,1,1,1,1,1,1,1,0.0,0.0,0.0,0.022324963601731238,0.011962404343240854,0.003246153334996596,-0.0003411436903449336,0.0025525511217078115,0.0033805458074735784,0,0.037548052680040064,0.0,0.10271642753547752,196.94453548809452,0.001795838880984467,35.037160573589304,0.0,0,0,0,0
0.5780000000000882,0.0,1,1,1,1,1,1,1,1,0.0,0.0,0.0,0.022392956921074268,0.011780692009260949,0.0037424884202794588,-0.0014488423099162473,0.0009323296589317665,-1.2955784674260396e-05,0,0.03864468201176644,0.0,0.10324874485109839,196.6158971101409,0.0018110330689020872,35.037234172044286,0.0,0,0,0,0
0.5880000000000791,0.0,1,1,1,1,1,1,1,1,0.0,0.0,0.0,0.022212223809991032,0.011900977245090587,0.004482176583830915,-0.003150560016665055,0.005007022835305752,0.0004302759975954273,0,0.036003083461559685,0.0,0.10289775549505267,196.72474787732722,0.0005055507297021897,35.037837858513726,0.0,0,0,0,0
0.59800000000007,0.0,1,1,1,1,1,1,1,1,0.0,0.0,0.0,0.02281430851018625,0.011110912476055813,0.004637553632962359,-0.00040987906306608364,-0.0020879500594592746,0.0034880921753017535,0,0.036972438273434896,0.0,0.10169203717226452,196.84325163420382,0.002719713978359602,35.03968309277914,0.0,0,0,0,0
0.6080000000000609,0.0,1,1,1,1,1,1,1,1,0.0,0.0,0.0,0.022182070736712245,0.010879613892816957,0.005443135128438434,0.002707518636216869,-0.0007187623065704283,0.00578860130472659,0,0.037452718113348875,0.0,0.10234884352775582,196.4608696443358,0.0012291854283418271,35.04154590537617,0.0,0,0,0,0
0.6200000000000045,0.0,1,1,1,1,1,1,1,1,0.0,0.0,0.0,0.021950886692511173,0.010994260957113056,0.0043291536952980636,0.0020117973703720027,-0.0004902248798369099,-0.0003115130990509413,0,0.03532142582840869,0.0,0.10093672691390929,196.78762550841847,0.0023194574703551602,35.042425176093445,0.0,0,0,0,0
0.6280000000000427,0.0,1,1,1,1,1,1,1,1,0.0,0.0,0.0,0.022490254017730946,0.010798463683624838,0.004213770719333328,0.004062826115241184,-0.004660669678094287,-0.004153171314166047,0,0.03547792603680473,0.0,0.10209055550679078,196.1771134399831,0.003236372452723037,35.045454514963886,0.0,0,0,0,0
0.6380000000000337,0.0,1,1,1,1,1,1,1,1,0.0,0.0,0.0,0.022066048340703123,0.011318792128357002,0.004150749802269923,0.005511812359521482,-0.005434921122911094,0.003913563868969961,0,0.03610733955887674,0.0,0.10195972457585567,196.85320378185256,0.0016128015754033071,35.04727323277349,0.0,0,0,0,0
0.650000000000091,0.0,1,1,1,1,1,1,1,1,0.0,0.0,0.0,0.022410426027722263,0.012079925809226866,0.0037488987347430096,-0.0006583511884985387,-9.790713095963913e-05,-0.009559312563211473,0,0.038603243764436725,0.0,0.10260198784448901,196.20869866556637,0.0008710662352372266,35.047015298757756,0.0,0,0,0,0
0.6580000000000155,0.0,1,1,1,1,1,1,1,1,0.0,0.0,0.0,0.021694675636640074,0.012554255263659456,0.004087356471929622,0.004396622691908947,-0.0016240924687041353,0.004814316814427437,0,0.039215151495529,0.0,0.10225764366457187,196.76657505408647,0.0012270614863961592,35.047317725665394,0.0,0,0,0,0
0.6680000000000064,0.0,1,1,1,1,1,1,1,1,0.0,0.0,0.0,0.021256319102867034,0.013009344549697585,0.004362963672907278,0.0068432473169926615,-0.0013289595020337327,-0.002246998102988492,0,0.03605491638642052,0.0,0.10224526231013069,197.17116426558158,0.0006289845322610147,35.04714433413181,0.0,0,0,0,0
0.6800000000000637,0.0,1,1,1,1,1,1,1,1,0.0,0.0,0.0,0.021846900869311504,0.01287705945040085,0.0040807005768259555,-0.0006005679497928949,-0.0021872256491736078,0.002786179647231584,0,0.03673735627775811,0.0,0.10118510335770917,197.27777934105328,0.0004406643216869474,35.0478831139857,0.0,0,0,0,0
0.6900000000000546,0.0,1,1,1,1,1,1,1,1,0.0,0.0,0.0,0.021511250510104562,0.013315804688124874,0.0047525832522994195,0.000775715691019101,-0.0015519969193263318,0.002754047797439742,0,0.04021254579256299,0.0,0.1014755597471082,197.1546960714292,0.0013427341894943125,35.04881440661175,0.0,0,0,0,0
0.6979999999999791,0.0,1,1,1,1,1,1,1,1,0.0,0.0,0.0,0.020559671655515775,0.013652348546553348,0.005866199082843553,-0.0022813481428443087,0.007076327291000372,0.01649151119727639,0,0.04469130330463818,0.0,0.10201562613135406,197.5032270595374,0.0030398744895402978,35.052128775966516,0.0,0,0,0,0
0.7080000000000837,0.0,1,1,1,1,1,1,1,1,0.0,0.0,0.0,0.019590073387644368,0.014046722554685608,0.006741604014082547,0.004448345161074369,-0.007200256034932145,-0.008325463826106678,0,0.04185569521144923,0.0,0.10104517586783009,197.49856691367492,0.0031051935849126973,35.05489178231249,0.0,0,0,0,0
0.7180000000000746,0.0,1,1,1,1,1,1,1,1,0.0,0.0,0.0,0.01929605890584156,0.014253183766386271,0.00786867539738306,-0.0007330888297121496,-0.007387289023767355,-0.00811935655895973,0,0.04327641697947108,0.0,0.09963013539285934,197.7517526637633,0.0025691607885152687,35.05630738350808,0.0,0,0,0,0
0.7300000000000182,0.0,1,1,1,1,1,1,1,1,0.0,0.0,0.0,0.019117514046231323,0.01364538709894545,0.008846341310491694,0.005430621930870982,-0.0037436140823246824,-0.014466100306377235,0,0.046079455188625676,0.0,0.10281811272868024,197.8159422384129,0.003733899604681198,35.06083876419567,0.0,0,0,0,0
0.7380000000000564,0.0,1,1,1,1,1,1,1,1,0.0,0.0,0.0,0.019853885457074043,0.012874892834376319,0.008686288422791792,-0.007149762757701282,-0.0028257328499407207,-0.009735269343830719,0,0.04221806154356678,0.0,0.10278435373061554,197.19950507934257,0.004044521418340831,35.064142867925746,0.0,0,0,0,0
0.7480000000000473,0.0,1,1,1,1,1,1,1,1,0.0,0.0,0.0,0.02086224448768152,0.01277727038883784,0.00783829479666034,0.009182981658391553,0.0032060429103586033,-0.008504571194373743,0,0.04277587753553192,0.0,0.10212718680733676,197.16181480785997,0.0018626938607691854,35.066696071240315,0.0,0,0,0,0
0.7580000000000382,0.0,1,1,1,1,1,1,1,1,0.0,0.0,0.0,0.02046601658769498,0.01246175333289239,0.007905303389189029,0.011914928101299987,-0.006775558257878328,-0.003043279353282346,0,0.03864191393102778,0.0,0.10179351711802373,196.7517375881553,0.003181009602420361,35.068641712165494,0.0,0,0,0,0
0.7680000000000291,0.0,1,1,1,1,1,1,1,1,0.0,0.0,0.0,0.020942442762657356,0.01205915129219566,0.00732111866358192,0.0066939695311882975,-0.003235196086315827,-0.003189721787220796,0,0.03602882772259003,0.0,0.10119168646621346,196.28799757484916,0.002888846813462927,35.0717101533744,0.0,0,0,0,0
0.77800000000002,0.0,1,1,1,1,1,1,1,1,0.0,0.0,0.0,0.020762856112001942,0.01223922616377152,0.007117952297344209,0.005630276198880329,-0.0010388484555812116,0.005415564190255244,0,0.03813211098108939,0.0,0.10130946347362872,197.04811052827677,0.0009577974729287186,35.07281265993292,0.0,0,0,0,0
0.7900000000000773,0.0,1,1,1,1,1,1,1,1,0.0,0.0,0.0,0.021015827531143224,0.012100029749261821,0.0069235280363307995,0.008001226384867097,-0.0013326362774334088,-0.000712768920625439,0,0.03508935955186839,0.0,0.10197406580882587,196.9595758214262,0.001359522599312787,35.073343930997225,0.0,0,0,0,0
0.8000000000000682,0.0,1,1,1,1,1,1,1,1,0.0,0.0,0.0,0.021266476437660005,0.012330644706789866,0.007148624231392268,0.00378924881284491,0.001092148239574895,0.0044308944024783045,0,0.03996290179999776,0.0,0.10160187745697487,196.81428550923906,0.0007158701090878988,35.074674493062176,0.0,0,0,0,0
0.8100000000000591,0.0,1,1,1,1,1,1,1,1,0.0,0.0,0.0,0.020509703407615733,0.012985803424804088,0.007736609160696009,0.0060338968432591955,0.009130767310940329,-0.0037204198210681935,0,0.036403068667224175,0.0,0.10179278400420619,197.42384626392845,0.0003388717916224392,35.07461927799206,0.0,0,0,0,0
0.8179999999999836,0.0,1,1,1,1,1,1,1,1,0.0,0.0,0.0,0.021252900280737265,0.013213020028260927,0.007382585687344183,0.00539033328524762,-0.007062156303260352,-0.0050635375142706225,0,0.03908789417184165,0.0,0.10147266250633069,197.63240625762214,0.0003856950373952702,35.075355402104165,0.0,0,0,0,0
0.8300000000000409,0.0,1,1,1,1,1,1,1,1,0.0,0.0,0.0,0.020562916394954004,0.013954002151706234,0.007720335875792167,0.004053057451128167,0.0020752127174712707,-0.006273392448659186,0,0.03912293099415341,0.0,0.10171913444745477,197.46479851569683,0.0012081879300274287,35.07645151097699,0.0,0,0,0,0
0.8400000000000318,0.0,1,1,1,1,1,1,1,1,0.0,0.0,0.0,0.019962543757953335,0.014133820765247461,0.00840640738025856,0.0043822308177904005,0.0035335947240809603,-0.0004064636109982235,0,0.03824200832749507,0.0,0.10210806803004827,197.75218606470136,0.0021361020517423235,35.077705479711895,0.0,0,0,0,0
0.84800000000007,0.0,1,1,1,1,1,1,1,1,0.0,0.0,0.0,0.01918572888783441,0.0139163290253915,0.008804571651548587,0.004804398206450387,-0.006991774746885587,-0.007678227236031475,0,0.036541418134297295,0.0,0.10123154347522059,197.6813999036572,0.0026269018215995046,35.080277478174494,0.0,0,0,0,0
0.8580000000000609,0.0,1,1,1,1,1,1,1,1,0.0,0.0,0.0,0.018959462604330568,0.013851044788160561,0.009325471542865343,-0.0006943136984553912,-0.0018104787937405881,-0.001388577156361157,0,0.03777497260804793,0.0,0.10130938613324855,197.06345857353185,0.0025153529682655864,35.08196863789234,0.0,0,0,0,0
0.8700000000000045,0.0,1,1,1,1,1,1,1,1,0.0,0.0,0.0,0.01911427285000804,0.013881788572602331,0.008698297508789097,0.006932403040355064,0.0035574251024467892,-0.01206930334692869,0,0.04317994654650858,0.0,0.10157256072900318,197.30546472030386,0.002232366435820537,35.08566689596826,0.0,0,0,0,0
0.8799999999999955,0.0,1,1,1,1,1,1,1,1,0.0,0.0,0.0,0.019626310645325065,0.014137248816390115,0.0076168715946900055,0.001423267775702636,-0.0031049516498591074,0.0017151007665003723,0,0.03679487698101632,0.0,0.10127580796046773,197.09673578467698,0.0029652353389120313,35.08769288859226,0.0,0,0,0,0
0.8880000000000337,0.0,1,1,1,1,1,1,1,1,0.0,0.0,0.0,0.019644854533036927,0.014112369872767387,0.007341487678892401,0.011871570619445843,-0.004844708286888448,-0.01568202099840051,0,0.04129732054684176,0.0,0.10195325323748423,196.37579787897826,0.001960678080494948,35.08743111280929,0.0,0,0,0,0
0.8980000000000246,0.0,1,1,1,1,1,1,1,1,0.0,0.0,0.0,0.020181282488613606,0.01401880029202667,0.00728131126120307,-0.00020101561011605091,-0.0010048251012411422,-0.005281976682618934,0,0.046707138583254246,0.0,0.10219266547705641,196.9048935175843,0.002696853711391573,35.08949765243542,0.0,0,0,0,0
0.9100000000000819,0.0,1,1,1,1,1,1,1,1,0.0,0.0,0.0,0.019330842395968953,0.013693495043780856,0.007366693504448924,-0.0012632800943883215,-0.004675759413635272,-0.0010608531506458262,0,0.03603535466344418,0.0,0.10108221298493607,196.87399682092195,0.0014032506278749118,35.08890272962411,0.0,0,0,0,0
0.9200000000000728,0.0,1,1,1,1,1,1,1,1,0.0,0.0,0.0,0.019753760404912654,0.013841319751318247,0.007637653831516888,-0.0015195322440864486,0.004156626250992305,0.0010290661755623868,0,0.03413878955296472,0.0,0.10087813443300853,196.61612488045492,0.001915330180843066,35.090626481113055,0.0,0,0,0,0
0.9279999999999973,0.0,1,1,1,1,1,1,1,1,0.0,0.0,0.0,0.01982431505920349,0.013475686474694007,0.006178199349844472,-0.003528154544732735,-0.006937945767866845,-0.0038979266601838506,0,0.03587977107375166,0.0,0.10070630480682138,197.1092966298574,0.001057820876527902,35.091545894377944,0.0,0,0,0,0
0.9400000000000546,0.0,1,1,1,1,1,1,1,1,0.0,0.0,0.0,0.01954640921237513,0.013322223236089654,0.005842443414822994,-0.0002515216950808162,0.0007601775523193364,-0.005183487938268782,0,0.039221986326585426,0.0,0.10102424789742064,196.7587376819099,0.000732724558058864,35.09173777262483,0.0,0,0,0,0
0.9479999999999791,0.0,1,1,1,1,1,1,1,1,0.0,0.0,0.0,0.019744244318978556,0.013242590860017861,0.0054133954538443585,0.0014774225015492337,0.0039105166752262405,-0.0039650700511733,0,0.034751483235258895,0.0,0.10170222854735252,196.99544277397482,0.0005180701572709621,35.09154303094355,0.0,0,0,0,0
0.9600000000000364,0.0,1,1,1,1,1,1,1,1,0.0,0.0,0.0,0.020569861497865584,0.013573271555819897,0.005408799132957605,0.00824004327076833,-0.0020880634792477984,0.0006378688223977378,0,0.03689063619565459,0.0,0.10171485829879032,196.87115969715302,0.0006927891285218447,35.091319734689215,0.0,0,0,0,0
0.9680000000000746,0.0,1,1,1,1,1,1,1,1,0.0,0.0,0.0,0.021257753576716762,0.014142297274231452,0.00589357191203438,0.004898465157874802,-0.005567700394083787,-0.005331688505607524,0,0.037714159951158614,0.0,0.1013656121930295,197.2400676412992,0.0008945735225415101,35.09220710260065,0.0,0,0,0,0
0.9800000000000182,0.0,1,1,1,1,1,1,1,1,0.0,0.0,0.0,0.020898491305501532,0.014702469006509337,0.005901405131382927,0.004181303188856704,0.001799286567536754,-0.001494045155244949,0,0.037620865703203624,0.0,0.1002877208724902,196.87196880083332,0.0015388980839420889,35.09288781339557,0.0,0,0,0,0
0.9900000000000091,0.0,1,1,1,1,1,1,1,1,0.0,0.0,0.0,0.020772848703471885,0.0152653511482139,0.006329259225035332,-0.0017675347376945052,-0.00061712607532554,0.0008596029885445356,0,0.04011347061308075,0.0,0.10060821031725753,196.72674427506254,0.0018589374397147296,35.092673092764954,0.0,0,0,0,0
0.9980000000000473,0.0,1,1,1,1,1,1,1,1,0.0,0.0,0.0,0.021928078907838898,0.01584996086751419,0.006513949936294584,0.006360430720076491,0.0026626537737983,-0.0010216028034370982,0,0.041058174943224376,0.0,0.10155826392985823,197.00550220669624,0.0012846849854702344,35.094992770140806,0.0,0,0,0,0
1.009999999999991,0.0,1,1,1,1,1,1,1,1,7.992744442856096e-05,0.0,0.009066542447127854,0.022421647657765442,0.016402182531992195,0.006719756661011124,-0.0043236932181711495,-0.0031077808193791813,0.0033765452291391095,0,0.04733505728077346,68.11213859685125,0.10078802526704007,197.38839692959567,0.0008063738550029955,35.095616816395946,0.0,0,0,0,0
1.0199999999999818,0.0,1,1,1,1,1,1,1,1,0.009715036123354349,0.0,0.020398585085441862,0.022894571703568848,0.016396280423984725,0.006197105463466601,0.002825572839851463,-0.0021549465510236118,-0.0011422332204857632,0,0.046778340366116986,36.6150747716714,0.10066192577240543,197.22361831049565,0.0006571247971543922,35.095394474389835,0.0,0,0,0,0
1.0300000000000864,0.0,1,1,1,1,1,1,1,1,0.01935855986790802,0.0,0.03172800766687161,0.02299349934581445,0.015960666167182443,0.006108449938362089,-0.0046344142278195105,0.0012651096578280433,-0.005183310529243555,3,0.05386877220656294,19.18270271980783,0.10094130856977608,197.55390178205772,0.0007510955241510813,35.094724896891,0.0,0,0,0,0
1.0400000000000773,0.0,1,0,0,1,1,1,1,1,0.028979644525475145,0.0,0.04305335500560373,0.02362014324014698,0.015695088616980324,0.005684163603670891,0.0026144676480181466,-3.661180063780153e-05,-0.006797699919307223,3,0.06373156050430492,13.253424942457409,0.10220746754087992,197.43457398706755,0.0006375479088602557,35.09559582071349,40.0,0,0,0,0
1.0500000000000682,0.0,1,0,0,1,1,1,1,1,0.03860990395451176,0.0,0.05437317243926153,0.027862785260651984,0.015464541532338096,0.005132504975846747,0.010533311934125685,-0.012648595102762216,0.0028550447700968345,3,0.08015055003500829,10.917080017248091,0.1050170207915695,197.16143895415533,0.0013983641106665619,35.09671078316218,50.0,0,0,0,0
1.0600000000000591,0.0,1,0,0,1,1,1,1,1,0.048240301382349464,0.0,0.0656860060157463,0.04837693369040456,0.019180879605746957,-0.0036992244093666774,0.08282502699622574,-0.025873601299182907,0.05447651485610088,3,0.04962266432805501,14.072087075741909,0.10401928384808838,195.32398185164638,0.0274779781964077,35.110214877861395,50.0,0,0,0,0
1.07000000000005,0.0,1,0,0,1,1,0,1,1,0.057868461063374316,0.0,0.0769904026799874,0.058788950277801025,0.023636332933929232,-0.014747114790029499,0.09847280739908731,0.0707137023050788,0.13657656644453903,3,0.051600823410055396,9.979135726735443,0.10032392454797696,187.76738540389624,0.12497854568530406,35.16949344499174,40.0,0,0,0,0
1.080000000000041,0.0,1,0,0,1,1,0,1,1,0.06749751665511802,0.0,0.08828491046057707,0.05149147576162592,0.026011049296880844,-0.02788764619701912,0.31773822562597315,0.19105988152670275,0.1770077275816644,3,0.11781741343504856,7.640499831214962,0.08836170074476987,187.3837836694871,0.10558842135996396,35.255315687884966,25.0,0,0,0,0
1.0900000000000318,0.0,1,0,0,1,1,0,1,1,0.07712348604256967,0.0,0.09956807865626614,0.04964274624870967,0.019874493161551543,-0.04337710810459958,0.37447593570468213,0.11944602094828077,0.2063527632502357,3,0.1519609212350515,9.457605214399978,0.10933922134132354,180.76712090495644,0.09868570579425606,35.2922649534997,25.0,0,0,0,0
1.1000000000000227,0.0,1,0,0,1,1,0,0,1,0.08675684143660749,0.0,0.11083845802229653,0.049716968743067164,0.0036176031409601967,-0.05926571919766793,0.0851029063887333,0.025214252826366426,0.17680688442152132,3,0.12373959983240143,10.520408514020172,0.11197749646398547,171.83004098675957,0.060531724202983084,35.25352002906049,5.0,0,0,0,0
1.1100000000000136,0.0,1,0,0,1,1,0,0,1,0.09636722544075922,0.0,0.1220946009565467,0.03948576667661157,-0.004145211188759893,-0.035447976499925475,-0.3137246295573828,0.007238816101635865,0.12617983244360023,3,0.08028732230901652,9.940290618065534,0.10695439993631242,195.66607984579477,0.09172456947199799,35.14738269097272,0.0,0,0,0,0
1.1200000000000045,0.0,1,0,0,1,1,0,0,1,0.10599056683825142,0.0,0.13333506168546608,0.038371138389907244,0.0004476561057459889,-0.024825770951953683,-0.42042347445123285,-0.04959810568091684,0.08973009652791353,3,0.09527298594508707,8.256380525091464,0.10071684492719835,220.07658270577417,0.05128112311949332,35.07245255957164,0.0,0,0,0,0
1.1299999999999955,0.0,1,0,0,1,1,0,0,1,0.1155914807146288,0.0,0.14455839644977472,0.030257400872979873,0.008783719700487419,-0.015702738493992608,-0.1567840225513068,-0.11575805806741736,0.07782592415385145,3,0.1410154060020929,4.9180194070354215,0.0983226681706247,230.7866298025288,0.01573508814520891,35.04914432228681,0.0,0,0,0,0
1.1399999999999864,0.0,1,0,0,1,1,0,0,1,0.12520083183859582,0.0,0.15576316368990417,0.01861050755744861,0.01636330233979895,0.007501345872021727,0.032465462153112135,-0.08464169739168087,0.060100196613535134,3,0.19499087273484075,3.968841125388604,0.10018861957158429,231.71926409679546,0.03813977411906243,35.0459189826948,0.0,0,0,0,0
1.150000000000091,0.0,1,0,0,1,1,0,0,1,0.13481715220738538,0.0,0.16694792423115573,0.017660270865368186,0.01640234800554978,0.027242890336952767,0.05053810654492561,-0.06034690428930373,0.08252671075080982,3,0.21993052696650564,3.558010598634366,0.09794446196366843,228.29646748251298,0.015651520391952216,35.07822158636573,0.0,0,0,0,0
1.1600000000000819,0.0,1,0,0,1,1,0,0,1,0.1444176910347834,0.0,0.17811124146855248,0.016314963577841263,0.012914191849926373,0.03999119564882533,-0.12117058056094704,-0.11697366168283685,0.0891034739523638,3,0.2269061908598215,4.063556050808371,0.10119128648441837,214.82048992557844,0.044223008843021015,35.13372730106322,0.0,0,0,0,0
1.1700000000000728,0.0,1,0,0,1,1,0,0,1,0.1540156512805266,0.0,0.18925168155136135,0.0235947287310352,0.01507273700956061,0.0452471593842161,-0.2490496435769564,-0.12104127516582196,0.1105208040641067,3,0.22589864793211242,4.101413792813686,0.1017011455971403,207.12886659714545,0.029234825175994093,35.21184735157968,0.0,0,0,0,0
1.1800000000000637,0.0,1,0,0,1,1,0,0,1,0.16359609047011645,0.0,0.20036781356726122,0.017400934512182657,0.02304179667823151,0.04479213400346377,-0.35900456135839326,-0.16031440672499475,0.14588721550417622,3,0.22555700140255985,4.359301957675287,0.11221075126964104,201.8412187194869,0.018403113426051068,35.308678276416984,0.0,0,0,0,0
1.1900000000000546,0.0,1,0,0,1,1,0,0,1,0.17319139458686372,0.0,0.21145820972613363,0.0141493209278207,0.0262391509575862,0.057582081609770866,-0.48021499368187653,-0.09283316949079323,0.22748026084590967,3,0.20065661999329382,5.302340318093767,0.11921102458180835,198.41577764790762,0.1159019224320727,35.50475173227675,0.0,0,0,0,0
1.2000000000000455,0.0,1,0,0,1,1,0,0,1,0.18277199267427613,0.0,0.22252144554345268,0.004551146818872483,0.030891571838383734,0.056826342056529956,-0.5043201276480201,-0.016742665840195934,0.30619702823161815,3,0.2548625597567544,5.286711532069684,0.11695634447505383,202.4073487791402,0.18341267498261093,35.8188028880616,0.0,0,0,0,0
1.2100000000000364,0.0,1,0,0,1,1,0,0,1,0.19234626509357808,0.0,0.23355610002325006,0.0029758797234676706,0.03424969241289509,0.06560482937671248,-0.4099447549667634,-0.10678305974092232,0.3779182113063933,3,0.3380445649649925,5.222147743829944,0.11641077882932924,204.34841500619368,0.21407802016317024,36.198608695227264,0.0,0,0,0,0
1.2200000000000273,0.0,1,0,0,1,1,0,0,1,0.2019022746869122,0.0,0.2445607558406322,0.0013875589447416336,0.038140929346836584,0.07180613145616044,-0.3120146401136773,-0.21108645231418866,0.3881999711999619,3,0.3864356610831563,3.987679182713221,0.11344136698295722,215.82106961518238,0.13795094447544098,36.49241203202261,0.0,0,0,0,0
1.2300000000000182,0.0,1,0,0,1,1,0,1,1,0.2114643517930804,0.0,0.2555339995238257,0.011245453057267539,0.03853193354181451,0.06157669727975769,-0.1254509551020915,-0.1545028550041515,0.35617561074518556,3,0.3550329355761743,2.7324267539383857,0.09411320771596053,242.50841152191055,0.20412986213807172,36.43618173151989,20.0,0.0,0.0,0.12999999999999998,0.0
1.240000000000009,0.0,0,1,1,0,1,0,1,1,0.22102123234144347,0.0,0.2664744216357283,0.015693045459939665,0.01432654948787346,0.0611897276556258,0.13791885151649003,0.18560100956913916,0.34891602835595925,3,0.3270839610160402,2.351488049519483,0.09413155901649978,275.5685988033371,0.10716828850840887,36.4138782461593,75.0,0,0,0,0
1.25,0.0,0,1,1,0,1,0,1,1,0.23056714455447985,0.0,0.27738061695494104,0.07550786646370689,0.0010674112169093526,0.06953596798246359,0.05669168151741903,0.14687620983177724,0.28165846334910555,3,0.21873082641069352,4.5973368853601855,0.12233765431971819,232.55077740244352,0.294855631479254,36.24641945033039,75.0,0,0,0,0
1.259999999999991,0.0,0,1,1,0,1,1,1,1,0.24010861207534995,0.0,0.28825118465625926,0.15593516640642766,0.002506592018529698,0.07301033191946187,0.10608189087446318,-0.24377154983389943,0.1972061147313363,3,0.1640411326128094,5.530296229696502,0.11988251774291787,235.5811547791618,0.19799180910310293,36.144594513461854,60.0,0.0,0.19000000000000003,0.0,0.0
1.2699999999999818,0.0,0,1,1,0,1,1,1,1,0.24964055051330294,0.0,0.2990847284905989,0.17698907279490975,-0.0036554854158969245,0.07659495982011878,0.2741901663735131,-0.2355912262031519,0.20134718562635745,3,0.1746769488673241,3.151180911103986,0.10136906269628346,250.97080989275975,0.020322094836130733,36.187881505576435,50.0,0,0,0,0
1.2800000000000864,0.0,0,1,1,0,1,1,1,1,0.2591647012733602,0.0,0.30987985696433507,0.18486909848955424,-0.009165449302363104,0.05142481664107762,0.10548106392072051,-0.18687524439359798,0.21417904417432973,3,0.16954865680111944,1.4503085806608047,0.05990685137849768,233.22948819531402,0.08158872537637735,36.2775897479062,50.0,0,0,0,0
1.2900000000000773,0.0,0,1,1,0,0,1,1,0,0.26868211872452424,0.0,0.32063518351802955,0.19450241789137315,-0.012538852739115773,0.013405175014129678,0.18546692731647915,-0.355472276281892,0.22776786443191963,3,0.18297546061107217,2.535002104697311,0.08556733627962629,147.75104559510902,0.041619449748356796,36.28314126381144,30.0,0,0,0,0
1.3000000000000682,0.0,0,1,1,0,0,1,1,0,0.278190227146711,0.0,0.33134932670452516,0.19660033410709465,-0.01701360556950598,-0.010511597270143034,0.22005859843555065,-0.3453889003017991,0.23932870542856569,3,0.1792549140924407,3.4789189934051152,0.09815103327880909,126.62655677733058,0.0490126428482609,36.40946023765766,0.0,0,0,0,0
1.3100000000000591,0.0,0,1,1,0,0,1,1,0,0.287689628550464,0.0,0.3420209103663826,0.18220867709399977,-0.018093114085628956,-0.049242229068358005,0.265778170505344,-0.17354998529106935,0.261491839922273,3,0.20040171794001987,3.44575393666915,0.09141100348959016,150.1239198528454,0.05435130179249403,36.44986917935533,0.0,0,0,0,0
1.32000000000005,0.0,0,1,1,0,0,1,1,0,0.29718340932089965,0.0,0.3526485638126387,0.1689641363420018,-0.022364396589913224,-0.06442814914293066,0.25217078083396705,0.12071979169359245,0.2964259306940158,3,0.21028222386149165,2.63191514329666,0.08628344402061731,158.53162540979585,0.13177269356251742,36.48143846203525,0.0,0,0,0,0
1.330000000000041,0.0,0,1,1,0,0,1,1,0,0.30665837679407965,0.0,0.36323092199486195,0.15852390109706063,-0.021122830117610892,-0.0692847060827399,0.2567299735807029,0.3198918690359863,0.30661464669155847,3,0.21826958316514902,1.3182955115882398,0.07770102792001493,158.0502755459068,0.06634308410154877,36.4941947657686,0.0,0,0,0,0
1.3400000000000318,0.0,0,1,1,0,0,1,1,0,0.31612869839017066,0.0,0.37376662568248364,0.1620960750774166,-0.022810758133415723,-0.060093048957357474,0.09296229625000052,0.35703282109415396,0.32561745350587995,3,0.22515092232055461,1.19424042959453,0.08475191576924898,156.32812908483498,0.12536624237614935,36.51659825370957,0.0,0,0,0,0
1.3500000000000227,0.0,0,1,1,0,0,1,1,0,0.32558864336419835,0.0,0.3842543216373815,0.17958694500660505,-0.018867187707240267,-0.04260957296074137,0.028379465637363908,0.2321217849198828,0.3201155277028608,3,0.23057113782534958,1.3886873318991604,0.09719544848336906,155.42605204307148,0.05559329213923858,36.49535556159905,0.0,0,0,0,0
1.3600000000000136,0.0,0,1,1,0,0,1,1,0,0.33503813387156517,0.0,0.3946926627876939,0.21032838049279834,-0.011138101384999783,-0.03523296094566541,-0.012121542198444118,-0.006551351089814916,0.31871814212104277,3,0.21872063407977546,2.1893484876987723,0.11352676094493641,154.53170797781075,0.08896857698076599,36.52357266306482,0.0,0,0,0,0
1.3700000000000045,0.0,0,1,1,0,0,1,1,0,0.3444793405244119,0.0,0.4050803084008417,0.22882848843241274,-0.013633560802696058,-0.02652345732421836,0.0042032314786913825,-0.20373120375822984,0.3022140752360585,3,0.22281000819776092,2.9453058321932817,0.11237275047198847,155.13998502034173,0.021335972160895444,36.52188314319416,0.0,0,0,0,0
1.3799999999999955,0.0,0,1,1,0,0,1,1,0,0.3539079078276245,0.0,0.41541592425573626,0.24706721443036622,-0.015938965028005327,-0.01176677164832085,0.019685449312560513,-0.3371155509091769,0.3222112010802064,3,0.2274164608533253,4.367086660872691,0.11967719689782541,156.4041052173191,0.14022506117658207,36.55308534449398,0.0,0,0,0,0
1.3899999999999864,0.0,0,1,1,0,0,1,1,0,0.36332264111233625,0.0,0.4256981828141508,0.27215389508751453,-0.011795508489496521,-0.004450646123425401,0.11798867949534927,-0.43813523149887873,0.3533706757283517,3,0.1862010842654669,4.021530670880145,0.10991067916220017,171.4267279005564,0.1890206203754039,36.78852117104033,0.0,0,0,0,0
1.400000000000091,0.0,0,1,1,0,0,1,1,0,0.372738709311973,0.0,0.4359257633912334,0.2841591295584575,-0.01916648370675906,0.006052734941626311,0.14534634112827416,-0.5462413478481689,0.3579891968625915,3,0.17843875122778416,3.759632750121379,0.10829978073512259,196.43883206739577,0.058545166776174495,36.927792091439855,0.0,0,0,0,0
1.4100000000000819,0.0,0,1,1,0,0,1,1,0,0.38213181382358763,0.0,0.44609735232514003,0.2871126411631064,-0.030946688697484848,0.016842559168281097,0.2008268950815566,-0.5155969378015139,0.3793384975571529,3,0.1946259623511126,3.19705204689339,0.10749276680475457,215.3499723889069,0.11392615118926708,37.013988589265956,0.0,0,0,0,0
1.4200000000000728,0.0,0,1,1,0,0,1,1,0,0.3915122001237798,0.0,0.45621164314576507,0.28046815005632264,-0.033992478187375066,0.01828638385785118,0.22712001516398214,-0.3166377000107389,0.38566286914028647,3,0.20770082878158372,2.525651595148347,0.10416497617208786,226.15777824129592,0.051058402562614846,37.12712639516073,0.0,0,0,0,0
1.4300000000000637,0.0,0,1,1,0,0,1,1,1,0.40086907841001224,0.0,0.4662673367425485,0.2759222655739961,-0.03766812480189719,0.020702209165619857,0.23428673927631835,-0.1444443911915983,0.41027375986046355,3,0.2154251317339825,1.870239186985368,0.10368734297569153,237.58210212092504,0.07756010566305416,37.23006288794483,5.0,0.0,0.0,0.0,0.13999999999999999
1.4400000000000546,0.0,1,0,0,1,0,1,1,1,0.41023518111381985,0.0,0.47626314153133764,0.2481534309483379,-0.03599609643957981,0.06320858389407291,-0.3469444521060932,0.487402666090366,0.2726787974121544,3,0.30978558068022566,1.6151071991019321,0.09530735836052143,305.7255545342199,0.7155980981698955,36.978454951464606,75.0,0,0,0,0
1.4500000000000455,0.0,1,0,0,1,1,1,1,1,0.4195827382703234,0.0,0.48619777362028216,0.27456015665907324,-0.012776078374361285,0.09345471653395754,-0.3476728310359525,0.8711552867019272,0.12796857129492203,3,0.499739578952742,5.105909219469289,0.1326578813811039,315.9176123348807,0.3618972547178073,36.39242401842692,60.0,0.16,0.0,0.0,0.0
1.4600000000000364,0.0,1,0,0,1,1,1,1,1,0.4289045826087313,0.0,0.4960699569747409,0.41913976207905557,0.0007643538559689931,0.1514246121924918,0.7191588777739971,0.1493516451932937,0.17442879240318093,3,0.4063133919340084,10.19183546001914,0.19047442877112505,303.0287038507324,0.6246754816415726,36.87717911926736,50.0,0,0,0,0
1.4700000000000273,0.0,1,0,0,1,1,0,1,1,0.4382126741022507,0.0,0.50587842358118,0.48592561625776165,-0.00554226945710265,0.2002619899620206,0.8623829835879941,0.2336488550470784,0.31038964323752827,3,0.3002946108164668,8.61588187016398,0.22983408009111778,350.63383820479834,0.6408582308582724,37.64957304747388,35.0,0,0,0,0
1.4800000000000182,0.0,1,0,0,1,1,0,1,1,0.44754615468622677,0.0,0.5156219136100402,0.47430952669322973,-0.027290691062527607,0.2611486174383515,0.256531383797535,0.42948617664814054,0.6359680584611157,3,0.13882696235570444,4.8955495247585885,0.19570670646666977,339.42601914646514,1.5826392066904655,39.4646204865869,25.0,0,0,0,0
1.490000000000009,0.0,1,0,0,1,1,0,0,1,0.4568118465534791,0.0,0.5252991755775536,0.47138110266295496,-0.049146136902656415,0.24734002013522083,0.012165120248338837,0.3172244022384238,0.8847391080873331,3,0.3259819994723228,3.514410109326524,0.15740652166027472,287.2086587419191,2.0922903141154174,41.816574641632656,0.0,0,0,0,0
1.5,0.0,1,0,0,1,1,0,0,1,0.46608060483383723,0.0,0.5349089665064873,0.48965044329286,-0.047320180925883026,0.1983226581228191,-0.458173247844975,-0.0739787826780393,0.8648327818592729,3,0.43528663935046874,1.5226967077836298,0.06692463108890764,164.82082520891365,0.9086126809627642,43.188772873900284,0.0,0,0,0,0
1.509999999999991,0.0,1,0,0,1,1,0,0,1,0.475326026489437,0.0,0.5444500520857963,0.4856045591963161,-0.03601947650734078,0.1365008401531149,-0.33713893953171187,-0.11926512864008727,0.770112591233434,3,0.33122844197554224,1.1217992913831165,0.049852513286366466,91.33594834014973,1.1985692046660166,42.52998349058535,0.0,0,0,0,0
1.5199999999999818,0.0,1,0,0,1,1,0,0,1,0.4845775764796505,0.0,0.5539212068291611,0.4749223197616909,-0.03692668625280354,0.11458231369252067,-0.2374058140702975,0.17764684989482893,0.6456590239383926,3,0.18139695932124908,0.5429012413358356,0.062005869777332856,104.94553217579866,1.3078552952224678,41.50883200949126,0.0,0,0,0,0
1.5300000000000864,0.0,1,0,0,1,1,0,0,1,0.49379463153407765,0.0,0.5633212142323937,0.4626109872708868,-0.03566564728979182,0.0755403409126722,0.2413981823819852,0.3338043306144068,0.4766268726538785,3,0.10791882530054737,0.3198975084817134,0.05782806754798987,117.38280802993017,1.3546741303017522,40.383265075167664,0.0,0,0,0,0
1.5400000000000773,0.0,1,0,0,1,1,0,0,1,0.5030041975166509,0.0,0.5726488669296887,0.4711498605074693,-0.04085333272077896,0.036802466363949425,0.43520161298542753,0.40076403598511445,0.3916893593549596,3,0.21455091578649763,0.5239767891664575,0.05371193409926793,111.09633592932178,0.4754743450554395,39.790606814810666,0.0,0,0,0,0
1.5500000000000682,0.0,1,0,0,1,1,0,0,1,0.5122131623421616,0.0,0.5819029668487015,0.4782505310934409,-0.05043719163321741,-0.001279315695849478,0.39051858481893775,0.36569048878211674,0.3629161491853277,3,0.29347253444376115,1.1036699139936959,0.07790959022256613,114.51387917413938,0.202186260738356,39.57296065150894,0.0,0,0,0,0
1.5600000000000591,0.0,1,0,0,1,1,0,0,1,0.5214298906571092,0.0,0.5910823253644317,0.5070129422606076,-0.05337872642750178,-0.021902816754158762,0.2425534409854924,0.27655130300188274,0.421401927245181,3,0.2644554472833771,1.8965889451829774,0.10662114795796322,125.08246352032862,0.47642671015131466,39.86039863231038,0.0,0,0,0,0
1.57000000000005,0.0,1,0,0,1,1,0,0,1,0.5305880546921898,0.0,0.6001857634518946,0.5336029301014124,-0.05427296397461857,-0.03457038312940029,0.057987268694035844,0.16423900325881477,0.5096111618040516,3,0.1850939173680097,2.118739329486849,0.11947814082966199,140.28944186366826,0.7265488941872715,40.41107730400309,0.0,0,0,0,0
1.580000000000041,0.0,1,0,0,1,1,0,0,1,0.5396801861496685,0.0,0.609212111837558,0.5473320570727864,-0.053102445845349795,-0.05212588384766152,-0.055308239674289876,0.16036023309842276,0.6205975428829257,3,0.09968303317072383,1.6831269804514672,0.10681824466783654,145.43592585072628,0.9371667275434521,41.141225662652815,0.0,0,0,0,0
1.5900000000000318,0.0,1,0,0,1,1,0,0,1,0.5488606113008551,0.0,0.6181602111495279,0.5523464943617898,-0.045622783819953674,-0.06910498729744391,-0.07634802637056612,0.17174553813966376,0.7034185748923081,3,0.12033208837420277,1.1389018765035412,0.08616704526981803,143.41895124471026,0.7977965011342469,41.959387770971105,0.0,0,0,0,0
1.6000000000000227,0.0,1,0,0,1,1,0,0,1,0.5579793779251881,0.0,0.6270289120664615,0.5470580946185243,-0.04714464600976118,-0.06784583005960076,0.022882752664744987,0.26677036211919347,0.7208286433152031,3,0.1453585494203337,1.0661052075293487,0.07856457685545391,141.3494695271243,0.23631397017448563,42.191258847912465,0.0,0,0,0,0
1.6100000000000136,0.0,1,0,0,1,1,0,0,1,0.5670730419052126,0.0,0.6358170754651893,0.5279102103649794,-0.057619010980235,-0.08461587869087892,-0.1063158291941489,0.33799010332629464,0.6931137319172261,3,0.15690460556568603,1.5741247304709867,0.10684757076325661,152.7124942378614,0.31176155789667703,41.94568994264624,0.0,0,0,0,0
1.6200000000000045,0.0,1,0,0,1,1,0,0,1,0.5762094197230186,0.0,0.6445235725670281,0.5331395905407723,-0.058610085104776416,-0.06055976524002032,0.034284010025249986,0.38677843920572136,0.5801466565743701,3,0.1366223554010671,1.3737912906149874,0.10360685847117646,189.66786211044442,0.7968478423590488,41.17933475219762,0.0,0,0,0,0
1.6299999999999955,0.0,1,0,0,1,1,0,0,1,0.5853787844924904,0.0,0.6531472850827647,0.5615072194176687,-0.060152756873469805,-0.0407679926755405,0.42115063789007906,0.6659635463427437,0.5072812223390817,3,0.2167294082923415,1.6326736989030644,0.12263213307787484,220.07207262941833,0.30763890301476593,40.5181351469819,0.0,0,0,0,0
1.6399999999999864,0.0,0,1,1,0,1,1,0,1,0.5941632737236987,0.0,0.6616871053562917,0.5770923337779378,-0.06155074222289518,-0.02348803022709127,0.02787008521316381,0.9551732723558268,0.44306507139098295,3,0.27412372697119813,1.076437029869959,0.08675420367948505,208.79415959099114,0.2127793006659342,40.22863647968608,85.0,0.0,0.17,0.0,0.0
1.650000000000091,0.0,0,1,1,0,1,1,1,1,0.6031940713212617,0.0,0.6701419365068796,0.5777353938797322,-0.04157114849447408,0.03553530468165697,-0.39999296557922204,0.6787036289574608,0.5073307543698283,3,0.27032322628098326,0.7594020592136969,0.07568382095490937,290.0313954501315,0.47395300162346743,40.23140823841671,50.0,0.0,0.0,0.16,0.0
1.6600000000000819,0.0,0,1,1,0,1,1,1,1,0.6121467274616081,0.0,0.6785106925700619,0.6022844706670477,-0.02074664973513162,0.038062847537820715,0.3304409907958334,0.3632731196971735,0.6123597882923056,3,0.1387227594737783,0.9587821837606356,0.0804725782472147,261.4278372218311,0.9902222797943292,40.951535488399216,50.0,0,0,0,0
1.6700000000000728,0.0,0,1,1,0,0,1,1,0,0.62117099730804,0.0,0.6867922986371213,0.6060643411363212,-0.027088089427846893,0.024422928707091666,0.13935555008943823,-0.1998968229832782,0.6690601025496797,3,0.06971499648008879,1.2584976612995538,0.09402056206381426,147.3244559337068,0.4402618962515197,41.536855216048174,20.0,0,0,0,0
1.6800000000000637,0.0,0,1,1,0,0,1,1,0,0.6301128229211631,0.0,0.694985690993153,0.6052891168474732,-0.05324560587777387,0.012587009948659342,-0.36265193823476,-0.4629367390076935,0.6792591463265399,3,0.06966345848481963,1.2584167966421136,0.09334552200382644,139.51996138281967,0.29918145274263797,41.91989607009574,0.0,0,0,0,0
1.6900000000000546,0.0,0,1,1,0,0,1,1,0,0.6390449131594946,0.0,0.7030898172536922,0.568842388304199,-0.063198909743205,-0.009805162852021487,-0.6315954686421568,-0.37801066625233426,0.6606851749935381,3,0.13729502630179266,1.2255048860758229,0.09760923486721663,170.74690246172702,0.38704493409809704,41.68802724876679,0.0,0,0,0,0
1.7000000000000455,0.0,0,1,1,0,0,1,1,0,0.6479983360892028,0.0,0.7111036364998855,0.5232103413508555,-0.06510646156933554,-0.025297483522555536,-0.630250003128819,-0.22818819974654492,0.7084846012484426,3,0.19458153073386802,1.031991130710221,0.09117586408157315,164.7661078984431,0.3253041377244168,41.39151402995477,0.0,0,0,0,0
1.7100000000000364,0.0,0,1,1,0,0,1,1,0,0.656896884412496,0.0,0.7190261194121894,0.5191609308400262,-0.0540690083215764,-0.023560736307799455,-0.2812558437006324,0.035789366065486786,0.6965506017963041,3,0.2023298422781213,0.9474149740267371,0.08907466781684667,173.53003431653357,0.16693127599147672,41.44410732896915,0.0,0,0,0,0
1.7200000000000273,0.0,0,1,1,0,0,1,1,0,0.6657783403361518,0.0,0.7268562484025798,0.5262859683860576,-0.05926785463017142,-0.03323590601930461,0.11787764385460613,-0.03535350331714156,0.6559174449222298,3,0.24448260105504566,0.7586865593068108,0.09641161575912018,162.39762581053287,0.24552097142302198,41.17120694668351,0.0,0,0,0,0
1.7300000000000182,0.0,0,1,1,0,0,1,1,0,0.6746343783017836,0.0,0.7345930177452535,0.542130661413485,-0.05756302896272787,-0.04279269369494647,0.4207921680962843,-0.1784374634105667,0.5825813492031592,3,0.3148521647798466,0.9828735444188202,0.11047218698943821,155.24339900689375,0.41212354920674166,40.67535280494705,0.0,0,0,0,0
1.740000000000009,0.0,0,1,1,0,0,1,1,0,0.6834725239852139,0.0,0.7422354337058074,0.5513204584227253,-0.06594524847890243,-0.04725848444490206,0.559138578306086,-0.2923899916837452,0.5816273320496514,3,0.3589943884940023,0.7580278205296008,0.09966452628334992,156.865778931244,0.20324566023407087,40.42915375532389,0.0,0,0,0,0
1.75,0.0,0,1,1,0,0,1,1,0,0.6922798788701446,0.0,0.7497825146688759,0.5574671015369078,-0.06428473098604201,-0.054632648216176534,0.6236189619119289,-0.30017958268404804,0.5947837396620103,3,0.3576148676506069,0.7930042385721017,0.0911231529373723,148.5677535334442,0.22358324280988473,40.48517551944957,0.0,0,0,0,0
1.759999999999991,0.0,0,1,1,0,0,1,1,0,0.7010671069481841,0.0,0.7572332912642138,0.5538604598934169,-0.06640170013669287,-0.04969925441296174,0.5361308612888234,-0.30717402706776376,0.6480248935732412,3,0.330785378848013,1.1773748774050241,0.08948088695209533,144.50007276026932,0.46463595303706295,40.745787714618196,0.0,0,0,0,0
1.7699999999999818,0.0,0,1,1,0,0,1,1,0,0.7098305709051151,0.0,0.7645868064912039,0.5565711175569833,-0.07148256490754587,-0.02714343933271696,0.26472430509274547,-0.31566045805061227,0.7068349928246358,3,0.3042743297572623,1.4669619681450787,0.08629290810624464,147.76647155970662,0.5867331984711273,41.042937479890405,0.0,0,0,0,0
1.7800000000000864,0.0,0,1,1,0,0,1,1,0,0.7185729132391956,0.0,0.7718421158417781,0.5634357536755806,-0.07052595641876763,-0.005857160290535563,0.04578946407591576,-0.29994509631455535,0.7832690765594552,3,0.2448085511981588,2.3014329956860946,0.10345517855778578,146.4609632802651,0.7872600336421796,41.75044198724262,0.0,0,0,0,0
1.7900000000000773,0.0,0,1,1,0,0,1,1,0,0.7272876121779437,0.0,0.7789982874217324,0.5643638975710527,-0.07256619770679386,0.0024903748096311547,-0.02566313712606762,-0.3315514618819831,0.8202809668439062,3,0.2596598812162802,1.9421115161534952,0.1099478187439148,150.6527047505793,0.374475748033154,42.268770508125144,0.0,0,0,0,0
1.8000000000000682,0.0,0,1,1,0,0,1,1,0,0.7359245283045411,0.0,0.7860544020704221,0.5533690980532447,-0.07357990553772724,0.002068583437063045,-0.10913874542508496,-0.43359135497360657,0.7381790292910494,3,0.2737598881439216,1.6437190463506361,0.13841065411205586,163.50868719329307,0.890363342272888,41.95817307644891,0.0,0,0,0,0
1.8100000000000591,0.0,0,1,1,0,0,1,1,0,0.7446234050717888,0.0,0.7930095534788224,0.542019257304742,-0.07858308192212009,-0.01480039388642704,0.09201909844289193,-0.44766240954893366,0.608092783326452,3,0.4057828968266201,1.0969267485791814,0.1321154974016165,183.93910936621506,1.1627191155810976,40.77948719257853,0.0,0,0,0,0
1.82000000000005,0.0,0,1,1,0,0,1,1,0,0.7532473658942015,0.0,0.7998628483059366,0.5498422649763044,-0.08603651910413443,-0.019969605037243335,0.19873533231729326,-0.3963495538726904,0.5526234317824175,3,0.5220610621987564,1.0035861245225248,0.1085738816123156,185.18848561887864,0.45185668987225514,40.03449534737064,0.0,0,0,0,0
1.830000000000041,0.0,0,1,1,0,0,1,1,0,0.7618842316719515,0.0,0.8066134062935402,0.5627875256626064,-0.10424568479170802,0.012278492918511024,0.23801947974530654,-0.3580900984101426,0.6749328447276496,3,0.4886217367612133,0.8978237705222704,0.11346627124185067,175.60118527626102,1.0733648758192493,40.49591533634924,0.0,0,0,0,0
1.8400000000000318,0.0,1,0,0,1,0,1,1,1,0.7704855035234965,0.0,0.8132603603792435,0.5402525062048767,-0.09867449911048265,0.05911438000299853,-0.1081777496503761,0.2558591469449957,0.7093371814955177,3,0.3957399231310969,0.8518236291672366,0.11706685864189251,234.17166085868104,1.1816415456432328,41.48340123658111,75.0,0.0,0.0,0.0,0.17
1.8500000000000227,0.0,1,0,0,1,1,1,1,1,0.7790716182560191,0.0,0.8198028568078602,0.5480814994910612,-0.06178192466787343,0.10137532854442745,-0.5470464198528225,1.007839043997915,0.5372023392197841,3,0.5310078669226422,1.3067598510574405,0.11343406148358937,290.1960768020348,1.3527608828154323,40.29957319611559,65.0,0.18000000000000002,0.0,0.0,0.0
1.8600000000000136,0.0,1,0,0,1,1,1,1,1,0.7876076141042911,0.0,0.8262400552410661,0.6653809542447411,-0.046480697946172086,0.1190693832941181,0.410762840718385,0.4133877917925447,0.4497773520896071,3,0.5494126568273721,3.356837426153549,0.15471756599418018,237.27574031128756,0.2770782115535573,40.15194368653803,50.0,0,0,0,0
1.8700000000000045,0.0,1,0,0,1,1,0,1,1,0.7961319964339941,0.0,0.8325711288653347,0.6992774313739157,-0.06605450896116699,0.14386118469797762,-0.034230499406153816,0.2027326002849658,0.5373717814313643,3,0.5172835794812641,4.095624893900981,0.20604114539890866,215.44171076613884,0.6831765292068628,40.76761628587276,45.0,0,0,0,0
1.8799999999999955,0.0,1,0,0,1,1,0,0,1,0.8046326350851469,0.0,0.8387952644981355,0.7788516013557643,-0.09089699467496853,0.1817190084632859,-0.37284329561271484,0.23077813656447832,0.7678640951148915,3,0.29447897388068417,6.070257482788486,0.2781198470798562,290.51270066477,2.3488882279140686,43.09012728645697,0.0,0,0,0,0
1.8899999999999864,0.0,1,0,0,1,1,0,0,1,0.8131195271714318,0.0,0.8449116626923823,0.8007523525891813,-0.09577239224862413,0.21467492292538704,-0.7892746814806769,-0.2723495182935468,0.8784510059063846,3,0.14579873787122938,3.8896355844725905,0.20906423504475255,351.2181336392846,1.162587901720907,45.072135333439434,0.0,0,0,0,0
