time,trans_flag,des_cont_state_fl,des_cont_state_fr,des_cont_state_rl,des_cont_state_rr,cont_state_fl,cont_state_fr,cont_state_rl,cont_state_rr,vel_cmd_x,vel_cmd_y,vel_cmd_yaw,base_vel_x,base_vel_y,base_vel_z,base_vel_roll,base_vel_pitch,base_vel_yaw,gait_id,base,CoT,musculoskeletal,foot_force,MWE,WEXT,stability,FL_stride_t,FR_stride_t,RL_stride_t,RR_stride_t
0.009999999999990905,0.0,1,1,1,1,1,1,1,1,0.0,0.0,0.0,-0.004270923078507389,0.015775047506180945,-0.00448569805989187,0.005798706319183108,-0.013396575115621081,0.0017614532262086855,0,0.004361484762179404,0.0,0.015938979640151518,36.98999999999999,4.685103463588078,6.703800520680458,0.0,0,0,0,0
0.01999999999998181,0.0,1,1,1,1,1,1,1,1,0.0,0.0,0.0,-0.005201793847099198,0.010533129639961615,-0.0036246472445766813,0.0033681843191455422,-0.004174189624283859,-0.0009383805321830878,0,0.019113717497634262,0.0,0.079034451023381,185.01763427924277,0.004085788101477195,33.51467412093139,0.0,0,0,0,0
0.03000000000002956,0.0,1,1,1,1,1,1,1,1,0.0,0.0,0.0,-0.007507516110841012,0.0003987113529959138,0.028556319798102286,-0.03748688462627838,0.006040450814788938,-0.000775711527016807,0,0.011458049568598572,0.0,0.11390719756901835,185.83491263048978,0.036391178089201004,33.52466191273032,0.0,0,0,0,0
0.040000000000020464,0.0,1,1,1,1,1,1,1,1,0.0,0.0,0.0,-0.020186501198136,-0.004443175308929786,0.07554291902178814,-0.1550916013115204,0.09531872803933691,-0.007248205237301656,0,0.02780847766129819,0.0,0.15900881320196317,204.57145261289372,0.16058569825871463,33.63913390921413,0.0,0,0,0,0
0.05000000000001137,0.0,1,1,1,1,1,1,1,1,0.0,0.0,0.0,-0.018004071978004077,0.00018237841003183644,0.06332422837777264,-0.026451733779704313,0.12665375010244448,0.012490115340153669,0,0.030886384695459963,0.0,0.143427712579455,227.99684410037352,0.12206511115413446,33.7923988910294,0.0,0,0,0,0
0.060000000000002274,0.0,1,1,1,1,1,1,1,1,0.0,0.0,0.0,0.000529387215710534,0.004321832312460626,0.06738580670648313,0.024562232301765605,0.08883253215023462,0.016572878769923582,0,0.022754605099718016,0.0,0.13894620574012304,209.20337094206235,0.10199272743438564,33.89387305121581,0.0,0,0,0,0
0.06999999999999318,0.0,1,1,1,1,1,1,1,1,0.0,0.0,0.0,0.018188786944689974,0.004140573350309927,0.06649961488130267,0.05373914514607962,0.03465932200719349,0.028285470763926995,0,0.041695695821818875,0.0,0.14726659075519255,198.80297061553543,0.0809387470228719,33.99767987951328,0.0,0,0,0,0
0.07999999999998408,0.0,1,1,1,1,1,1,1,1,0.0,0.0,0.0,0.019849378570034354,-0.0005017824817208355,0.060385364640138044,0.10897471124550998,0.014609954610029174,0.024274107840970362,0,0.04986295046098646,0.0,0.13805623668858244,192.6806740687558,0.03748447574999425,34.04956893806897,0.0,0,0,0,0
0.08999999999997499,0.0,1,1,1,1,1,1,1,1,0.0,0.0,0.0,0.024972453618746386,-0.005445688140311903,0.05411000359471061,0.07152551836491103,0.02979795366016882,0.007086667518774242,0,0.04113992014662524,0.0,0.13253902630959416,185.6503365590269,0.04383086580706905,34.08644112853464,0.0,0,0,0,0
0.10000000000002274,0.0,1,1,1,1,1,1,1,1,0.0,0.0,0.0,0.032605028668124564,-0.005857695630633776,0.048330728738210295,0.007030546071777296,0.062309804915031776,-0.01440213633816766,0,0.047010076203879966,0.0,0.13236361051205373,181.79347225211433,0.044392923409280895,34.135027066502815,0.0,0,0,0,0
0.11000000000001364,0.0,1,1,1,1,1,1,1,1,0.0,0.0,0.0,0.036760153272638936,-0.0035191377069480395,0.04215127444181979,0.025448877492334675,0.0826472444585388,-0.022756288764634182,0,0.056032081999495456,0.0,0.133305536846295,182.05251558792355,0.03150043256980568,34.179713915463346,0.0,0,0,0,0
0.12000000000000455,0.0,1,1,1,1,1,1,1,1,0.0,0.0,0.0,0.03861849145324942,-0.0012399761233514435,0.03339931257720943,0.048669224973490834,0.10782437799496326,-0.029369937932420934,0,0.06938695202104583,0.0,0.13115152612400685,180.97855840345738,0.0231501800902718,34.21224328193492,0.0,0,0,0,0
0.12999999999999545,0.0,1,1,1,1,1,1,1,1,0.0,0.0,0.0,0.046183426867883855,-0.0006694016480376293,0.029163338428338608,0.05618635806645808,0.1066118175704446,-0.038384748421951276,0,0.07858229502970963,0.0,0.13300838223234818,180.22556259280958,0.02827722093832408,34.24887736782902,0.0,0,0,0,0
0.13999999999998636,0.0,1,1,1,1,1,1,1,1,0.0,0.0,0.0,0.04973161579168753,-0.0002717037528964498,0.028521520075342574,0.045183520288942375,0.1130103466863096,-0.0399242672411234,0,0.08860626932123758,0.0,0.13546333410130043,183.44437894481337,0.021563479079971953,34.285353277744846,0.0,0,0,0,0
0.14999999999997726,0.0,1,1,1,1,1,1,1,1,0.0,0.0,0.0,0.05405737598782318,-0.0003460401580652969,0.02503525184963475,0.018453469861946202,0.12080091365302571,-0.032588165844213604,0,0.08918120521036722,0.0,0.13586273821075684,183.72548504214865,0.023701267548681012,34.30820588047274,0.0,0,0,0,0
0.160000000000025,0.0,1,1,1,1,1,1,1,1,0.0,0.0,0.0,0.05513682486717856,0.0008844340930711429,0.022350010842492527,-0.0036981373500365048,0.11778614343111543,-0.01938865099009234,0,0.08083030180677238,0.0,0.13428775709385182,182.48547211371232,0.02377977260970436,34.32747228007936,0.0,0,0,0,0
0.17000000000001592,0.0,1,1,1,1,1,1,1,1,0.0,0.0,0.0,0.056968315935763826,0.00235955823610592,0.01962431340574143,-0.0032411929868063193,0.12143519239972202,-0.007431732054074712,0,0.0684685300173512,0.0,0.13318668547210635,183.08112367331796,0.0171655029846648,34.342785933655975,0.0,0,0,0,0
0.18000000000000682,0.0,1,1,1,1,1,1,1,1,0.0,0.0,0.0,0.05807377440870228,0.003676768328862589,0.015976811523564914,0.010906630113742072,0.11491022415233709,0.003900110215080422,0,0.06452331285765975,0.0,0.13299213220626654,181.80498298814516,0.013013816722373645,34.358347418712526,0.0,0,0,0,0
0.18999999999999773,0.0,1,1,1,1,1,1,1,1,0.0,0.0,0.0,0.05848419819762435,0.00430479616463312,0.013526278171775366,0.003653786854372026,0.10199285236929866,0.01798227749082553,0,0.07623154296829386,0.0,0.13247711673027784,180.00100130638873,0.012353222544279025,34.37384681415104,0.0,0,0,0,0
0.19999999999998863,0.0,1,1,1,1,1,1,1,1,0.0,0.0,0.0,0.05636805329574578,0.004133990789275331,0.011977536911922868,-0.004218412423445925,0.0877588305178279,0.022243897390796744,0,0.08262821342289318,0.0,0.13335208517405242,181.07733173882914,0.011602220410231064,34.38807424215241,0.0,0,0,0,0
0.20999999999997954,0.0,1,1,1,1,1,1,1,1,0.0,0.0,0.0,0.05157405782147046,0.004895951356204482,0.01143510247693371,-0.017889169487841243,0.08436464270456923,0.01993579115678066,0,0.07860060473499435,0.0,0.13255164456046448,182.37054655576443,0.012845128520782935,34.393655466904974,0.0,0,0,0,0
0.22000000000002728,0.0,1,1,1,1,1,1,1,1,0.0,0.0,0.0,0.04919861111165811,0.00425696365839456,0.011315097559862309,-0.014316823156592143,0.08029672319971584,-0.0015128350338657524,0,0.06215364951496255,0.0,0.1338275472195659,182.3649854917442,0.05963150415899267,34.42373600612783,0.0,0,0,0,0
0.2300000000000182,0.0,1,1,1,1,1,1,1,1,0.0,0.0,0.0,0.0463853450545989,0.004145208178490096,0.013639601196794514,0.008531546208438484,0.07020372495242765,1.8122541818086626e-05,0,0.05394566861712498,0.0,0.133558884647894,183.52720842734522,0.05754290073042227,34.48198144202933,0.0,0,0,0,0
0.2400000000000091,0.0,1,1,1,1,1,1,1,1,0.0,0.0,0.0,0.0437025682595897,0.0036960503675863726,0.01489505185080612,0.012097919508175094,0.06784148938181397,-0.003364139949276575,0,0.04965021395466905,0.0,0.13304936680236062,183.83998018040717,0.05117662684188787,34.53115263940006,0.0,0,0,0,0
0.25,0.0,1,1,1,1,1,1,1,1,0.0,0.0,0.0,0.04239923239856424,0.003510518399402876,0.015600152421374656,-0.017121257239753402,0.04798563888681959,0.0018259178251518798,0,0.04893500570525287,0.0,0.13226570228367213,182.98446652574086,0.04404562458505585,34.57741604847511,0.0,0,0,0,0
0.2599999999999909,0.0,1,1,1,1,1,1,1,1,0.0,0.0,0.0,0.0395320155408482,0.003565530753791111,0.015806777693679237,-0.012147357076927757,0.025426942854692283,0.0005862999849779793,0,0.04774810245483697,0.0,0.13139161361474289,181.45563903626882,0.038452904418705976,34.61406441158571,0.0,0,0,0,0
0.2699999999999818,0.0,1,1,1,1,1,1,1,1,0.0,0.0,0.0,0.03808968226748677,0.00312890670407022,0.013387173770553578,0.01055842674171918,0.021883785234273017,0.0048810736252624005,0,0.04397226044469198,0.0,0.13149722162321548,180.58745744213087,0.03281972859671271,34.64857913123239,0.0,0,0,0,0
0.28000000000002956,0.0,1,1,1,1,1,1,1,1,0.0,0.0,0.0,0.03591100850199316,0.0030198779785967573,0.011966748455402692,-0.002050215896411349,0.026830089727820597,-0.0030411898160703126,0,0.04296119767854389,0.0,0.13103049915591491,180.43039948650397,0.028888287740760233,34.67655554539088,0.0,0,0,0,0
0.29000000000002046,0.0,1,1,1,1,1,1,1,1,0.0,0.0,0.0,0.034401349502852036,0.0024679083030101803,0.011569366908867324,-0.009742366557764755,0.02141291455814763,0.007561754121456473,0,0.04190065647919193,0.0,0.13210693304115184,181.30785673584973,0.023557946828591206,34.70117316444172,0.0,0,0,0,0
0.30000000000001137,0.0,1,1,1,1,1,1,1,1,0.0,0.0,0.0,0.033528466174050316,0.0024630052955068858,0.010035281124464675,-0.00242592215133458,0.02198978708055688,0.004616118319961936,0,0.04181769103151766,0.0,0.1320647095058198,181.16231728785138,0.020504196697218095,34.72152562073419,0.0,0,0,0,0
0.3100000000000023,0.0,1,1,1,1,1,1,1,1,0.0,0.0,0.0,0.031810185568573686,0.0026115824925184044,0.00898760702699974,0.0026028991843991068,0.011905925786324531,0.01038030841910349,0,0.0440668446642702,0.0,0.13224028345766375,181.01718421425417,0.014387024239378987,34.737827406680736,0.0,0,0,0,0
0.3199999999999932,0.0,1,1,1,1,1,1,1,1,0.0,0.0,0.0,0.030066430261710814,0.0026161928031098423,0.007512828677876039,-0.0012205222344561825,0.002197368113560104,-0.002503494141979563,0,0.03848255683686465,0.0,0.132166084387912,181.16360268117563,0.013635936426681882,34.75016476895753,0.0,0,0,0,0
0.3299999999999841,0.0,1,1,1,1,1,1,1,1,0.0,0.0,0.0,0.027604493922409094,0.002373611003369961,0.006725994911596396,-0.001231954611466099,-0.008128093804326142,0.002764240309452153,0,0.033859024998438306,0.0,0.13127911816118823,180.9649926840908,0.01064412619355223,34.75958210702152,0.0,0,0,0,0
0.339999999999975,0.0,1,1,1,1,1,1,1,1,0.0,0.0,0.0,0.02538721364586594,0.0026551308178437935,0.00712386802745353,0.003434834614738272,-0.006876161452361428,-0.009608862133210052,0,0.03333645290639063,0.0,0.13221542849427273,181.74615484989712,0.009620350536356577,34.76818951864747,0.0,0,0,0,0
0.35000000000002274,0.0,1,1,1,1,1,1,1,1,0.0,0.0,0.0,0.023586824105802342,0.0030541228509132563,0.0065566367694535055,-0.004273594471092077,-0.0006999810658709202,-0.001029637931232605,0,0.031044334534136596,0.0,0.1330694306362034,182.00199537791246,0.011427719111965589,34.774070717492144,0.0,0,0,0,0
0.36000000000001364,0.0,1,1,1,1,1,1,1,1,0.0,0.0,0.0,0.02287047048143866,0.0029047795011547858,0.00623819727671195,-0.008397909417169553,-0.0023904538061506318,-0.0033323898429299045,0,0.028571574019958124,0.0,0.1316476879049216,181.90195971070276,0.016932999200762192,34.75982946229262,0.0,0,0,0,0
0.37000000000000455,0.0,1,1,1,1,1,1,1,1,0.0,0.0,0.0,0.023132519656612095,0.0030243108821712134,0.0062729433005832246,-0.004056185733402014,-0.012719935581540573,0.0019823490711216685,0,0.0274352373960002,0.0,0.13150435728906804,182.88542898633733,0.0072733936677397415,34.753656363375256,0.0,0,0,0,0
0.37999999999999545,0.0,1,1,1,1,1,1,1,1,0.0,0.0,0.0,0.02463002337153451,0.0031701402149820106,0.006248632374924702,-0.0039046944489133442,-0.023656945264370115,0.010569240355491841,0,0.032931241087704274,0.0,0.1329939801537789,183.69120992577317,0.017321587700045604,34.74776090647786,0.0,0,0,0,0
0.38999999999998636,0.0,1,1,1,1,1,1,1,1,0.0,0.0,0.0,0.024655927803938604,0.0031574650253810353,0.006048472835258921,-0.005399807222604001,-0.016153278224249723,0.00933513362207819,0,0.039236451449947043,0.0,0.1317104064375278,184.11865358873322,0.01671140144033008,34.73109842735336,0.0,0,0,0,0
0.39999999999997726,0.0,1,1,1,1,1,1,1,1,0.0,0.0,0.0,0.025676274392672543,0.0031306107826501264,0.005952991663258595,-0.00354762242090323,-0.013046148576745442,-0.0010380608629443934,0,0.03098640751504178,0.0,0.13097224141246655,184.9216379183622,0.01657470459645044,34.71399680926543,0.0,0,0,0,0
0.410000000000025,0.0,1,1,1,1,1,1,1,1,0.0,0.0,0.0,0.027911140565473915,0.0026834559463617676,0.0058145480169011585,-0.006651081851771977,-0.011276981604364333,-0.0032505033131687267,0,0.030894965048330947,0.0,0.13209646785317802,184.80966609331733,0.017042188957865887,34.69730484948674,0.0,0,0,0,0
0.4200000000000159,0.0,1,1,1,1,1,1,1,1,0.0,0.0,0.0,0.030800247052508525,0.002509522951213544,0.005601734220840752,-0.0015196562192232835,-0.013387011605664868,-0.003338315590435447,0,0.03582445609030076,0.0,0.1324936564092259,185.3013510673524,0.013947533109818337,34.6848005042641,0.0,0,0,0,0
0.4300000000000068,0.0,1,1,1,1,1,1,1,1,0.0,0.0,0.0,0.03428235207865737,0.002307789497631577,0.004326424732076244,-0.0036007216859577865,-0.00897977175515238,-0.005089811284202608,0,0.040244168802013404,0.0,0.1319381888234755,185.3494449731201,0.01583336091479398,34.67210969729055,0.0,0,0,0,0
0.4399999999999977,0.0,1,1,1,1,1,1,1,1,0.0,0.0,0.0,0.03593429228002275,0.0024370251122590374,0.0051693272108169035,-0.006991149063785166,0.00025837208947486327,0.000581194233179227,0,0.040125008403915974,0.0,0.1314392900151771,185.215495116695,0.014372365325644412,34.65905555197793,0.0,0,0,0,0
0.44999999999998863,0.0,1,1,1,1,1,1,1,1,0.0,0.0,0.0,0.03694555990506789,0.002432651783975002,0.005385232783545604,-0.0007991715852854566,-0.002321995608322893,-0.006895657303961229,0,0.04185983815645191,0.0,0.1314468440315504,185.23538441258904,0.013876580268721012,34.64616504468639,0.0,0,0,0,0
0.45999999999997954,0.0,1,1,1,1,1,1,1,1,0.0,0.0,0.0,0.038656459243195426,0.0017950649094720377,0.0056546424575836295,-4.975968109333906e-05,0.002458168456871271,-0.0025872557597009403,0,0.04678862740838505,0.0,0.13077534061588428,185.67291601600067,0.009901052342845544,34.6363223063871,0.0,0,0,0,0
0.4700000000000273,0.0,1,1,1,1,1,1,1,1,0.0,0.0,0.0,0.04127651632215102,0.0011137327624731817,0.005547016496859159,0.002753735242492212,-0.0033267427226958187,-0.008327319526490393,0,0.045237806857625226,0.0,0.13121799670997597,185.8777487198941,0.010339023275473182,34.628441133377166,0.0,0,0,0,0
0.4800000000000182,0.0,1,1,1,1,1,1,1,1,0.0,0.0,0.0,0.04337048071210516,0.0008126991345357826,0.006001917810633373,-0.0007431212998114305,-0.002015578747204363,0.004037981162175793,0,0.0476026775197836,0.0,0.1315475607744499,185.50908782176003,0.009180387588256005,34.620636486788875,0.0,0,0,0,0
0.4900000000000091,0.0,1,1,1,1,1,1,1,1,0.0,0.0,0.0,0.04496000881239158,0.00043742423958135015,0.006150910277224681,-0.001851114238387948,0.003125208257579314,-0.001297296522171191,0,0.048327622776543476,0.0,0.1316065798412192,185.52405740487035,0.008616101846304179,34.613831249182,0.0,0,0,0,0
0.5,0.0,1,1,1,1,1,1,1,1,0.0,0.0,0.0,0.04651551460940753,0.0003976051476479442,0.006396152423369916,-0.00023658007909731465,0.006384840179941665,-0.0014764680211700211,0,0.04793839039424862,0.0,0.13153150238720504,186.1985618351281,0.0070036529266106155,34.60764364723623,0.0,0,0,0,0
0.5099999999999909,0.0,1,1,1,1,1,1,1,1,0.0,0.0,0.0,0.04666923869456592,-0.000297246079290641,0.006035505366555132,-0.001510959966917621,0.004720281983668309,0.0030533274264827434,0,0.04842501169264645,0.0,0.1319699299513281,186.11897685146036,0.0065561194750020264,34.60199302553663,0.0,0,0,0,0
0.5199999999999818,0.0,1,1,1,1,1,1,1,1,0.0,0.0,0.0,0.04766818173456489,-0.0006008551140063578,0.006556723712332855,0.003598771907556167,0.004003587356178847,0.008711797962873802,0,0.0564093398690362,0.0,0.13191979895962708,185.74183996999244,0.007666552382957759,34.59624376621663,0.0,0,0,0,0
0.5300000000000296,0.0,1,1,1,1,1,1,1,1,0.0,0.0,0.0,0.0478422071099132,-0.0006976228991073495,0.00682643402943732,0.005260759633752809,-0.0006351825318907038,-0.002073285961992594,0,0.05247997613298829,0.0,0.13286217614524137,185.12133996556315,0.003377627250174403,34.59112866729037,0.0,0,0,0,0
0.5400000000000205,0.0,1,1,1,1,1,1,1,1,0.0,0.0,0.0,0.048437159216558806,-0.0015050739111047802,0.0054920134734521755,0.002500126324075805,0.002216690796068503,0.0019353349838411066,0,0.05397840150024898,0.0,0.13128857845619799,185.45919239947244,0.005446458600512636,34.58690511283067,0.0,0,0,0,0
0.5500000000000114,0.0,1,1,1,1,1,1,1,1,0.0,0.0,0.0,0.04817097795695988,-0.0017134344344883938,0.004916012667915459,0.001675055829631402,0.005318790022545147,0.0010907483239869867,0,0.05121191998952638,0.0,0.13157325811661516,185.47204178872073,0.0034365470548332923,34.58274510608809,0.0,0,0,0,0
0.5600000000000023,0.0,1,1,1,1,1,1,1,1,0.0,0.0,0.0,0.05009263989597052,-0.0015408505513778649,0.003930208514155618,-0.0007314582932111465,0.0050134835061546295,-0.003394064846563896,0,0.05283864017883394,0.0,0.1315138238919711,185.4580626187317,0.0018455305303234967,34.58144078529915,0.0,0,0,0,0
0.5699999999999932,0.0,1,1,1,1,1,1,1,1,0.0,0.0,0.0,0.0504711353977521,-0.0014803579392486095,0.004687491582031857,0.0028378885642982602,-0.004125432802045695,-0.001744288394165459,0,0.053769277896668397,0.0,0.13108505034983226,185.4389841974726,0.002071775393783778,34.58075663577264,0.0,0,0,0,0
0.5799999999999841,0.0,1,1,1,1,1,1,1,1,0.0,0.0,0.0,0.04979725543241035,-0.0012578193531866866,0.004251177437609833,-0.006338880654033611,-0.004162421528669413,-0.0035223969771622067,0,0.055925026108100816,0.0,0.13053328513085766,185.14269080315793,0.0034347025298355153,34.57791527390479,0.0,0,0,0,0
0.589999999999975,0.0,1,1,1,1,1,1,1,1,0.0,0.0,0.0,0.04973111304527941,-0.0013082642272674192,0.00336424018059777,0.00031031576895074056,-0.002454982418484997,-0.0043761129150869695,0,0.05300004348218555,0.0,0.13110397109284053,184.69228874245977,0.002619142295516205,34.57415046678933,0.0,0,0,0,0
0.6000000000000227,0.0,1,1,1,1,1,1,1,1,0.0,0.0,0.0,0.04778680939576127,-0.0005683622041740313,0.004306016321889437,0.005273354721259154,-0.0011312696318075566,-0.004417339333993296,0,0.05549336663936731,0.0,0.13068230405212664,184.87159931251375,0.0025843119546674117,34.57065542635939,0.0,0,0,0,0
0.6100000000000136,0.0,1,1,1,1,1,1,1,1,0.0,0.0,0.0,0.04832621534073325,-0.0002842365225771114,0.0032043970318023124,-0.0014651135702779712,-0.0012559958737471478,0.008059522026524324,0,0.05221941558612121,0.0,0.13074670916330444,185.2151845738771,0.004810778237076971,34.566009905547304,0.0,0,0,0,0
0.6200000000000045,0.0,1,1,1,1,1,1,1,1,0.0,0.0,0.0,0.04818809634869813,-0.0001623258851587935,0.0038920328382082985,-0.0006358384657801911,-0.004277535930369318,-0.003701215497320727,0,0.0538771917523894,0.0,0.1321474045667145,185.47085627823495,0.002933716784524875,34.56231039016882,0.0,0,0,0,0
0.6299999999999955,0.0,1,1,1,1,1,1,1,1,0.0,0.0,0.0,0.04810184037037703,-0.00016333890759058687,0.00402057187268145,0.006138551186308817,-0.0017024083290670463,0.0038378919924828957,0,0.05187889321287133,0.0,0.13168334119282998,185.52435374870066,0.0032001403764519275,34.55913303665745,0.0,0,0,0,0
0.6399999999999864,0.0,1,1,1,1,1,1,1,1,0.0,0.0,0.0,0.04949728520644251,-0.0006979941570140997,0.0031103618148270082,0.004289958490409452,-0.005514131499771632,-0.0031990587023933872,0,0.0520163541095535,0.0,0.1317202407747288,185.45599440193388,0.0005202280250263171,34.5585923957536,0.0,0,0,0,0
0.6499999999999773,0.0,1,1,1,1,1,1,1,1,0.0,0.0,0.0,0.049916882498433665,-0.0005139855094072008,0.0031233535818025776,0.0008703265152809692,-0.00046736648033149646,0.004851734329569695,0,0.05306036904395717,0.0,0.13103878696370944,185.1837319038071,0.0006912761094856907,34.559869933221954,0.0,0,0,0,0
0.660000000000025,0.0,1,1,1,1,1,1,1,1,0.0,0.0,0.0,0.05026315265217091,-0.0004263379275143435,0.003184142444029439,-0.002030304621589917,0.003958118654770655,-0.001813984384495136,0,0.05274419076173116,0.0,0.13022473633905435,185.9781024815034,0.00047790172768301734,34.55989502786457,0.0,0,0,0,0
0.6700000000000159,0.0,1,1,1,1,1,1,1,1,0.0,0.0,0.0,0.05055003902904725,0.0001112448678272876,0.0032179674214693707,-0.005048269459243177,0.001148022609885866,0.0032278776131189433,0,0.052845744580813724,0.0,0.13147641233706012,185.448880132831,0.0020700041349620384,34.55922835799548,0.0,0,0,0,0
0.6800000000000068,0.0,1,1,1,1,1,1,1,1,0.0,0.0,0.0,0.05070394626350532,0.000376008630024399,0.003501823159379522,-0.003251621580490709,0.005009043511482932,0.001383041903316785,0,0.052730982308078975,0.0,0.13160949919078274,185.41646019949863,0.0016278707282520455,34.5568486545712,0.0,0,0,0,0
0.6899999999999977,0.0,1,1,1,1,1,1,1,1,0.0,0.0,0.0,0.050619011256596534,0.00023188500248879393,0.003560979504634157,-0.003610962279285651,0.0035857263123268658,0.00022185695720945708,0,0.055628252621977105,0.0,0.1298584966590483,185.85319762554846,0.0024322344488612556,34.55542959262913,0.0,0,0,0,0
0.6999999999999886,0.0,1,1,1,1,1,1,1,1,0.0,0.0,0.0,0.05106738562659932,0.00046050615475257806,0.003971888784214511,0.00011611059102641715,-0.00399015162367455,-0.0010086978833239969,0,0.05243184930744983,0.0,0.13101218128965825,185.79095356525278,0.0008534199877367546,34.55480964993314,0.0,0,0,0,0
0.7099999999999795,0.0,1,1,1,1,1,1,1,1,0.0,0.0,0.0,0.051665393039984915,0.00011248267926854529,0.004426414611848425,-0.002186160807574663,-0.0014172269858082733,0.0028288602437888236,0,0.05313085191077851,0.0,0.13104693848939802,185.66958961046842,0.0007923329938609169,34.556351744955414,0.0,0,0,0,0
0.7200000000000273,0.0,1,1,1,1,1,1,1,1,0.0,0.0,0.0,0.05165823127189207,3.5915426218940964e-05,0.004671533206001428,-0.001039375959925291,-0.0016575526580396693,-0.0007083468607192614,0,0.05263739095090415,0.0,0.13057973793608732,185.75483235811672,0.0009302602669244119,34.55632610171373,0.0,0,0,0,0
0.7300000000000182,0.0,1,1,1,1,1,1,1,1,0.0,0.0,0.0,0.05050179981213195,-2.2459163084789918e-05,0.004205162617555764,0.0036444710653055477,0.0018964891004684585,0.0015793233192753025,0,0.053150517537180184,0.0,0.13164455994262195,185.66455035957063,0.0017108030008711056,34.55418122591449,0.0,0,0,0,0
0.7400000000000091,0.0,1,1,1,1,1,1,1,1,0.0,0.0,0.0,0.050546538214292995,-0.00047856519022009805,0.004424593892466242,0.0008732838356670701,0.005938130033658387,0.0033311411950554017,0,0.05403035478485736,0.0,0.13207680990500645,185.72086316066503,0.0012989472790732905,34.5541968374016,0.0,0,0,0,0
0.75,0.0,1,1,1,1,1,1,1,1,0.0,0.0,0.0,0.05098205345552439,-0.00044558425069126365,0.004876525884540029,0.004062074418391382,-0.0020280935880810074,0.005193803724113778,0,0.05783454404012793,0.0,0.13110009024148436,185.1815905491006,0.0009792125990581817,34.55523649212653,0.0,0,0,0,0
0.7599999999999909,0.0,1,1,1,1,1,1,1,1,0.0,0.0,0.0,0.05025219148304713,-0.0005978462021354984,0.0049892215660377335,0.0013569506065943097,-0.002952158995078926,-0.0030781298864963487,0,0.054647492064252165,0.0,0.13113383458186006,185.97376422169793,0.0017573297054954175,34.555673094746915,0.0,0,0,0,0
0.7699999999999818,0.0,1,1,1,1,1,1,1,1,0.0,0.0,0.0,0.05015219028961059,-0.0008518617053349598,0.005713507936798198,0.002682991941919582,-0.006633196676416825,3.548332061082525e-05,0,0.05233817891778354,0.0,0.13211838617695268,185.8519288536357,0.005514157722549186,34.559809804652694,0.0,0,0,0,0
0.7800000000000296,0.0,1,1,1,1,1,1,1,1,0.0,0.0,0.0,0.050147339706903445,-0.0015658373815346529,0.006396102754754301,0.006828541646920573,0.0002176757494266276,-0.008720447397769808,0,0.05781472769891124,0.0,0.13058650523476634,185.74808739105782,0.0018698463015437705,34.56349162174526,0.0,0,0,0,0
0.7900000000000205,0.0,1,1,1,1,1,1,1,1,0.0,0.0,0.0,0.05076876040610771,-0.0014435950871701292,0.005908356657217068,0.0030551787513559666,0.004012880549453431,-0.0024385085189427367,0,0.05561993156299337,0.0,0.13112341318696122,185.9256107772032,0.0013092529854654665,34.564422683486804,0.0,0,0,0,0
0.8000000000000114,0.0,1,1,1,1,1,1,1,1,0.0,0.0,0.0,0.05064951610183717,-0.0015788073164723357,0.005776086011918907,0.004072919338990537,-0.0022458376350362142,-0.004648504382344484,0,0.05800765534918212,0.0,0.13146819329681642,185.88039225130393,0.0013566863710678632,34.56553465869283,0.0,0,0,0,0
0.8100000000000023,0.0,1,1,1,1,1,1,1,1,0.0,0.0,0.0,0.050240770148424145,-0.0019594017942328075,0.006262883534689611,-0.008792872516287928,-0.0013992253866633502,-0.002977950425563314,0,0.05552307879351766,0.0,0.13134985676369232,185.59450674843788,0.001988619537437661,34.56476499768781,0.0,0,0,0,0
0.8199999999999932,0.0,1,1,1,1,1,1,1,1,0.0,0.0,0.0,0.05046834624336687,-0.0019035249401162433,0.0065325538004304545,-0.0021444964128506665,-0.0038395345391972605,-0.0016441984351693298,0,0.05465961839643435,0.0,0.13071778435901044,185.7588263287956,0.0007280219810937606,34.56617458588441,0.0,0,0,0,0
0.8299999999999841,0.0,1,1,1,1,1,1,1,1,0.0,0.0,0.0,0.05032211313062398,-0.0011471647196297555,0.006312233103356922,-0.002401392180890729,-0.0001446555620352355,0.0018215248060441784,0,0.05494585333556987,0.0,0.13002647965388198,185.87919246451096,0.0006755466927554736,34.56609299636857,0.0,0,0,0,0
0.839999999999975,0.0,1,1,1,1,1,1,1,1,0.0,0.0,0.0,0.050804735955177566,-0.0007703776970765424,0.006490558663924725,-0.0012075611314127576,-0.0005993361236122496,0.0011157709172228336,0,0.05219897720435864,0.0,0.13136239557893553,186.00445506683013,0.0005184353993737609,34.566504979039266,0.0,0,0,0,0
0.8500000000000227,0.0,1,1,1,1,1,1,1,1,0.0,0.0,0.0,0.05142369118331467,-0.0008667548798331246,0.0064174571144859464,-0.0016426820327858885,0.0002321282717631116,0.0045579054378509995,0,0.056426997318811,0.0,0.13096862234816675,186.27146813642676,0.0007186375916147549,34.56768087883436,0.0,0,0,0,0
0.8600000000000136,0.0,1,1,1,1,1,1,1,1,0.0,0.0,0.0,0.052042059756012775,-0.0006653261304608736,0.005916473113852666,-0.00010572107194269728,0.0012144974500808252,-0.006782429577195499,0,0.05597081388601884,0.0,0.13065290338225982,185.398594938118,0.0019580560792122476,34.56898755162922,0.0,0,0,0,0
0.8700000000000045,0.0,1,1,1,1,1,1,1,1,0.0,0.0,0.0,0.05304428998991109,-0.000267844575728531,0.005790044058409639,0.007244615855966946,0.001716179403527561,-0.0003650331486912551,0,0.05805384886511171,0.0,0.1310183999132331,185.62104058568002,0.0020598316570103956,34.568514408152325,0.0,0,0,0,0
0.8799999999999955,0.0,1,1,1,1,1,1,1,1,0.0,0.0,0.0,0.0531500087774851,-0.0007400311343035395,0.006201596746006398,0.0006105382470594132,0.0028995430027202156,-0.004447957227194949,0,0.05570533695824871,0.0,0.1316863782142565,185.57496098874185,0.001726570095976418,34.570359906617526,0.0,0,0,0,0
0.8899999999999864,0.0,1,1,1,1,1,1,1,1,0.0,0.0,0.0,0.052912928166764524,-0.0005116955253821664,0.005525834230684997,-0.0037445888142948573,-0.0006197537147632109,0.000652837023133792,0,0.05538048194575542,0.0,0.13155934722004847,185.85915212626497,0.0010357087929200592,34.571488828588386,0.0,0,0,0,0
0.8999999999999773,0.0,1,1,1,1,1,1,1,1,0.0,0.0,0.0,0.05243107026774143,-0.00014002706748816304,0.00554717917425262,-0.0004652616085759183,0.002824902889969887,0.0029238448639142614,0,0.053945394619952666,0.0,0.13139589882172664,185.97463415682827,0.001163041736493637,34.56936123569726,0.0,0,0,0,0
0.910000000000025,0.0,1,1,1,1,1,1,1,1,0.0,0.0,0.0,0.05262335209704906,-0.000551646557228596,0.005357890677045309,-0.0015307990231227665,-0.006786843981963375,-0.00803972352139979,0,0.057133223030295874,0.0,0.13021654468304034,185.21927944135714,0.0010460901811791372,34.56923169998929,0.0,0,0,0,0
0.9200000000000159,0.0,1,1,1,1,1,1,1,1,0.0,0.0,0.0,0.053310740802426614,-0.0004970902023511247,0.005111019563244138,0.00048820987280078626,-0.004955235424567304,0.0030979635948362944,0,0.05731266370602837,0.0,0.13205490921549717,185.07724460365125,0.0023422356490462697,34.571941882825136,0.0,0,0,0,0
0.9300000000000068,0.0,1,1,1,1,1,1,1,1,0.0,0.0,0.0,0.05298205141271488,-9.217620153865227e-05,0.005220597926039849,0.0026362253687559384,0.0014692621517300147,-0.0018078961268656406,0,0.05676900508199552,0.0,0.13128377628507712,185.672819579019,0.0015739314121755686,34.57384135450128,0.0,0,0,0,0
0.9399999999999977,0.0,1,1,1,1,1,1,1,1,0.0,0.0,0.0,0.0532303720953599,-2.91920483326628e-06,0.005787631615413161,-0.0020674475737256573,0.004512633191484355,0.003968319036113681,0,0.0578310451860374,0.0,0.13051334806504417,185.36604675343708,0.001166653910640126,34.575168088983176,0.0,0,0,0,0
0.9499999999999886,0.0,1,1,1,1,1,1,1,1,0.0,0.0,0.0,0.053111459397453015,0.0002745689815330151,0.0063082394191702725,-0.0032299868867019703,-0.005022649233770956,-0.00014855838416236828,0,0.05479418182589283,0.0,0.1305743541105718,185.67958970914256,0.001153713848545946,34.573798790753514,0.0,0,0,0,0
0.9599999999999795,0.0,1,1,1,1,1,1,1,1,0.0,0.0,0.0,0.052760523437355364,0.0004590996616040675,0.006009186453446233,-0.009863050684745822,-0.004262080246461169,0.0026546648598118577,0,0.05541601418650168,0.0,0.1302076029136791,185.28174737128998,0.001743172552451145,34.574213160686625,0.0,0,0,0,0
0.9700000000000273,0.0,1,1,1,1,1,1,1,1,0.0,0.0,0.0,0.05289229756502752,0.00040157118560083384,0.005840331699130877,0.0008637260604405731,0.0010952789649407001,0.0005867215577395223,0,0.053893781455604264,0.0,0.13052703504175162,185.24045522517866,0.0010883262042203357,34.57555837636355,0.0,0,0,0,0
0.9800000000000182,0.0,1,1,1,1,1,1,1,1,0.0,0.0,0.0,0.05321397147634205,0.0009362945844862768,0.005750380083513461,-0.0011247286360957893,0.0015470034250276953,-0.0027223795496406026,0,0.055245525773271534,0.0,0.1307179331252463,185.27376543040282,0.00047192828457868694,34.57585491257453,0.0,0,0,0,0
0.9900000000000091,0.0,1,1,1,1,1,1,1,1,0.0,0.0,0.0,0.05360091138765964,0.00034584248142496176,0.005832150371929696,0.00270934069306942,0.0013951113020481483,-0.0006500210904328967,0,0.05703687447776988,0.0,0.13062956925999097,185.67741402504538,0.0007451640615989581,34.57594172198727,0.0,0,0,0,0
1.0,0.0,1,1,1,1,1,1,1,1,0.0,0.0,0.0,0.05288858459529247,0.0009576329837681879,0.005582843522211367,0.006250383260364186,2.1153966832967574e-05,-0.0018455342372559471,0,0.05511572332337654,0.0,0.13056925696012006,185.81384944659763,0.0018584530210248307,34.57440265651685,0.0,0,0,0,0
1.009999999999991,0.0,1,0,0,1,1,1,1,1,0.00010725895556645137,0.0,0.009066542447127854,0.05289856487786195,0.0005775669902401642,0.005673030941462159,0.000978075838525968,0.0008862654574890867,-0.0056292347803660525,4,0.06242546616543985,86.01440006059357,0.13124818643323943,185.98623554316129,0.0013290674523997875,34.572761728369606,40.0,0,0,0,0
1.0199999999999818,0.0,1,0,0,1,1,1,1,1,0.009740300131831916,0.0,0.020398585085441862,0.05424823468450392,0.0001214843867962786,0.005375133325765841,-0.0006685406231604608,-0.002470022959987891,-0.0014321828493265314,4,0.07078310482210749,43.34389524411047,0.1253754869008336,186.115214884168,0.003302999572213694,34.575518815529755,50.0,0,0,0,0
1.0300000000000296,0.0,1,0,0,1,1,1,1,1,0.019370961597717014,0.0,0.03172800766687161,0.05763116667411482,0.0006061218242439931,-0.010041646763182137,0.028622073580320383,-0.04977403055150832,0.030328752969178308,4,0.05308273271938526,70.65437406826719,0.1291283662835342,177.5698991950373,0.06698203742090861,34.55548868386212,50.0,0,0,0,0
1.0400000000000205,0.0,1,0,0,1,1,0,0,1,0.02898492631872062,0.0,0.04305335500560373,0.05562548209487964,0.004032239808459839,-0.008857274725984167,0.003663025462044757,0.020365358808857814,0.11874163151979511,4,0.07524770204161209,49.52171179731833,0.1437415516540686,161.86997267856984,0.04952329904806625,34.65555296305748,20.0,0,0,0,0
1.0500000000000114,0.0,1,0,0,1,1,0,0,1,0.038635621090022096,0.0,0.05437317243926153,0.05260093942480236,0.005180259804249813,0.028075559454802605,-0.10785232648293488,0.20368028791728324,0.2174517125571751,4,0.15903889069905466,35.027064188074355,0.15817832439771293,190.55426110993272,0.10334222799383819,34.92351336321071,0.0,0,0,0,0
1.0600000000000023,0.0,1,0,0,1,1,0,0,1,0.04826280061739265,0.0,0.0656860060157463,0.04538473130220829,0.015886483578837145,0.03161115635569975,-0.2784952259154574,0.06660605817755083,0.2771518504929601,4,0.21708303591299183,20.68893602866931,0.12481481692991687,207.7600991956925,0.13293525859332084,35.23007514089869,0.0,0,0,0,0
1.0699999999999932,0.0,1,0,0,1,1,0,0,1,0.057865017911381794,0.0,0.0769904026799874,0.055905485224427016,0.030322479041558617,0.003482025367168674,-0.12709095805931953,-0.22120800986981717,0.2732223258981007,4,0.2279701648474679,9.350344961892096,0.10106251693987264,194.20432806352906,0.05426683317026726,35.313372924525915,0.0,0,0,0,0
1.079999999999984,0.0,1,0,0,1,1,0,0,1,0.0675064669770174,0.0,0.08828491046057707,0.04210819871205152,0.027806712396679582,-0.003011165309183988,-0.10859814950086594,-0.21409039110270017,0.2132041565466226,4,0.21536775968656446,5.281597834421772,0.08106000407864257,178.7450466692909,0.22335817199186608,35.29171662589091,0.0,0,0,0,0
1.089999999999975,0.0,1,0,0,1,1,0,0,1,0.07713013980456557,0.0,0.09956807865626614,0.019901774337783416,0.01813653116984183,0.02870409594399796,-0.4351327661391774,-0.1672230691534903,0.07736755801827129,4,0.10827413980060976,4.734664844810462,0.09255845613451305,174.753274245414,0.2873248279720266,35.003517572650864,0.0,0,0,0,0
1.1000000000000227,0.0,1,0,0,1,1,0,0,1,0.08675431828639439,0.0,0.11083845802229653,-0.0019070261489723378,0.012170094888326786,0.0218171772147499,-0.5552382951742867,-0.10326859878621379,0.01204861650401065,4,0.16745157662831817,6.37761030072645,0.09601240811987975,172.0338707032027,0.10738840659768024,34.946582456821645,0.0,0,0,0,0
1.1100000000000136,0.0,1,0,0,1,1,0,0,1,0.09637227019982486,0.0,0.1220946009565467,-0.001821822856394055,0.02548493893009397,0.015482223551561241,-0.4280811717388102,-0.13089982302643713,0.04083537275705952,4,0.21677261987825575,9.038306800407934,0.1131175838445309,177.04295489052248,0.03267694181950832,34.99976931006746,0.0,0,0,0,0
1.1200000000000045,0.0,1,0,0,1,1,0,0,1,0.10599079606798126,0.0,0.13333506168546608,-0.008092888266246257,0.04126722129388746,0.03445664673129547,-0.2910776123764628,-0.14786495644319786,0.07998530348259403,4,0.20254876040070977,12.535255512150375,0.15298492872489813,183.381382462686,0.028499557739310306,35.08569728291637,0.0,0,0,0,0
1.1299999999999955,0.0,0,0,0,0,1,0,0,1,0.11560156309326791,0.0,0.14455839644977472,-0.03427132801103432,0.0473026985920525,0.06731401644959907,-0.26486640968819486,-0.09066286954922259,0.2600641406379674,4,0.23160021991411303,11.812249709647961,0.1514072970183728,202.11761746929537,0.29711420847583736,35.36477706612028,40.0,0,0,0,0
1.1399999999999864,0.0,0,0,0,0,1,0,0,1,0.12521205542497374,0.0,0.15576316368990417,-0.0517017505290659,0.039668493532922684,0.055889506014241225,-0.17456580646162445,-0.025952750757501728,0.3664323797509408,4,0.3926157756662416,8.700597054334265,0.14719950956641834,216.27156254061916,0.3345106126804132,35.93470024742878,50.0,0,0,0,0
1.1499999999999773,0.0,0,0,0,0,1,0,1,1,0.13481554953499952,0.0,0.16694792423115573,-0.011433087520965194,0.014342491637553457,-0.0008360826957971464,-0.3417111447226244,-0.2671329244891288,0.28907439750154834,4,0.36578583067718085,8.61082552965382,0.10323989199403072,191.6015061353478,0.2407011958122961,35.92097027108647,60.0,0.0,0.0,0.10999999999999999,0.0
1.160000000000025,0.0,0,1,1,0,0,0,1,1,0.14441837757367826,0.0,0.17811124146855248,0.034377640314342726,-0.0009780581739205162,-0.06428583626927104,0.5890650654508631,-0.13264520551255227,0.3220760555249117,4,0.24146788193313454,6.230420289801316,0.10043909924668788,193.07664469454215,0.31244898258983766,35.548676149806646,65.0,0,0,0,0
1.170000000000016,0.0,0,1,1,0,0,1,1,0,0.15401267776374733,0.0,0.18925168155136135,0.05660758968738074,-0.010641367706952157,-0.09792625206199143,1.0878176276135063,0.04585343008146708,0.29781146885797427,4,0.24326342178909727,3.264498691988821,0.08378624609193674,156.89331287274837,0.1665607401067245,35.5259355643952,25.0,0.0,0.12999999999999998,0.0,0.0
1.1800000000000068,0.0,0,1,1,0,0,1,1,0,0.16360454906018898,0.0,0.20036781356726122,0.061982131071736404,-0.023709557469929223,-0.1022954841394059,0.6956961286004592,-0.017517244778046816,0.2566903781714262,4,0.19714419649457568,5.340934682147184,0.09057984778787607,146.10988933005353,0.09730653035707437,35.289079579260225,0.0,0,0,0,0
1.1899999999999977,0.0,0,1,1,0,0,1,1,0,0.17318842432643128,0.0,0.21145820972613363,0.05759733953991582,-0.02613880741079191,-0.11761043907560954,0.2154966992851694,-0.07495244028202452,0.12521232324316972,4,0.17541133642612153,3.627179091079418,0.1094581689513024,203.26019163404808,0.24644809983716015,34.97676811715597,0.0,0,0,0,0
1.1999999999999886,0.0,0,1,1,0,0,1,1,0,0.18277039425718575,0.0,0.22252144554345268,0.04449564748616937,-0.027888821968699674,-0.09838172605690425,0.1250055874119483,-0.04368141306664247,0.10919515879134074,4,0.27353392390366443,8.102868089066131,0.14004812931840996,196.36490477257468,0.03897879968654773,34.7991455529683,0.0,0,0,0,0
1.2099999999999795,0.0,0,1,1,0,0,1,1,0,0.19234421127816287,0.0,0.23355610002325006,0.043165387737766285,-0.026820061518607902,-0.05018629020312053,0.006296216937822091,0.021860389521301257,0.1596021514073567,4,0.2650548216665836,6.348421659394651,0.11372532433883475,225.9211891388756,0.08834622287653729,34.83530172856935,0.0,0,0,0,0
1.2200000000000273,0.0,0,1,1,0,0,1,1,0,0.20191322112946472,0.0,0.2445607558406322,0.03964847473334026,-0.01910257236409369,-0.020134638516472805,0.10081430235092557,0.1923336214939787,0.21631412579662712,4,0.22782915624500638,2.82292358324589,0.09524327711338962,239.68201441778987,0.12148157181453445,34.948614745727454,0.0,0,0,0,0
1.2300000000000182,0.0,0,1,1,0,0,1,1,0,0.21147415117718305,0.0,0.2555339995238257,0.0461277863835603,-0.02051293488730427,0.01322806501889446,0.09252884335110591,0.1466917717274658,0.2673374977454688,4,0.19553332596986758,2.290825060770354,0.09861104670435764,220.4140271721748,0.13015702546037766,35.15255285083756,0.0,0,0,0,0
1.240000000000009,0.0,0,1,1,0,0,1,1,0,0.2210294305162894,0.0,0.2664744216357283,0.05353314937179552,-0.01803830411209987,0.017080433826037678,0.11370266603886309,0.04735225996490542,0.22838858649136085,4,0.20505602040447707,2.647214223249494,0.0992116475834161,201.48467600215128,0.17887591702999267,35.18034542357259,0.0,0,0,0,0
1.25,0.0,0,1,1,0,0,1,1,0,0.23057738449475457,0.0,0.27738061695494104,0.08348530170207923,-0.011766510853737972,0.016397816249340405,0.1949799902498038,-0.16987447588689428,0.20215482619725983,4,0.2303885761446928,3.797615092670056,0.10613990708293879,191.1494320670231,0.09839305563696982,35.16235184629488,0.0,0,0,0,0
1.259999999999991,0.0,0,1,1,0,0,1,1,0,0.24011861653298336,0.0,0.28825118465625926,0.0905747853479787,-0.013876735219989444,0.038668666411203305,0.15581871085690233,-0.36892938121935287,0.17411342820988293,4,0.25941215324850847,6.306767749875671,0.12975796664888378,184.6883685577157,0.12922228150375578,35.16857329416372,0.0,0,0,0,0
1.2699999999999818,0.0,0,1,1,0,0,1,1,0,0.24965213702795103,0.0,0.2990847284905989,0.11986856346529366,-0.013986379825372883,0.06223377731901196,0.32661753732779564,-0.5605640028881119,0.21536640941762458,4,0.25026788787475057,7.45972376696174,0.12414085534024295,194.67095011264112,0.04229077166483666,35.320539560522164,0.0,0,0,0,0
1.2800000000000296,0.0,0,0,0,0,0,1,1,0,0.2591758238719465,0.0,0.30987985696433507,0.13868492179800096,-0.01937948453198806,0.06558280505223146,0.3821186791444485,-0.6220623441921687,0.22017059407899298,4,0.22417957979313985,6.676765634021417,0.11010588610149344,219.0352909455632,0.07431581160835166,35.543579993813545,50.0,0,0,0,0
1.2900000000000205,0.0,0,0,0,0,0,1,1,0,0.26869164389379047,0.0,0.32063518351802955,0.1689571540724502,-0.034119078985170304,0.06058664264905195,0.19068443863004952,-0.7023383994169748,0.23069758121659215,4,0.22518130289253557,5.453959034309071,0.11487525031781345,228.15380713908075,0.02415181964988522,35.71154219044583,50.0,0,0,0,0
1.3000000000000114,0.0,0,0,0,0,0,1,1,0,0.2782004232641808,0.0,0.33134932670452516,0.18012742309393354,-0.0638051893634675,0.007049775673758019,0.5709654545200772,-0.7983249330112175,0.28873244060677244,4,0.22075212493791668,6.008965659968785,0.12240164982755344,213.8371115005688,0.25919396357006785,35.87254726523912,50.0,0,0,0,0
1.3100000000000023,0.0,1,0,0,1,0,0,1,1,0.2876995885559335,0.0,0.3420209103663826,0.17385187902449753,-0.057261167686093004,0.012204940544266282,0.3848607348997486,-0.11753912245970088,0.3048989951678283,4,0.19032680911848926,2.9702684785349107,0.09083311391898644,281.2436914026847,0.19425805960344544,36.15845281509577,60.0,0.0,0.0,0.0,0.13999999999999999
1.3199999999999932,0.0,1,0,0,1,0,0,1,1,0.2971906457947201,0.0,0.3526485638126387,0.15934025435295882,-0.04344750804041125,0.013599634999095861,0.0598065474261857,0.7986051360134375,0.27550877664926876,4,0.2467025653496151,0.9875278142296642,0.08639695098647285,337.5060623736932,0.0905984013295924,35.896326353137795,50.0,0,0,0,0
1.329999999999984,0.0,1,0,0,1,1,0,1,1,0.30666944632212995,0.0,0.36323092199486195,0.186169222181005,-0.022340364646103002,-0.011438552114627973,0.4513854543568193,0.6636087550557064,0.31091412752965214,4,0.22499548107652453,4.359873258247007,0.11872937478678255,144.80397083217127,0.213152814137606,35.90157993039646,40.0,0.17,0.0,0.0,0.0
1.339999999999975,0.0,1,0,0,1,1,0,0,1,0.3161388535556187,0.0,0.37376662568248364,0.2440244508701206,-0.011708605685639228,-0.005225944148572558,0.6205729369331217,0.3969190250881022,0.4121462767931862,4,0.12765521133377192,4.513425253575173,0.13820150277249754,190.07947804214874,0.5118556945664473,36.394353011787246,5.0,0,0,0,0
1.3500000000000227,0.0,1,0,0,1,1,0,0,1,0.32560036544747056,0.0,0.3842543216373815,0.2888166314157227,-0.02019212461266102,-0.0403791002403878,0.7184820981106214,0.14969504597222727,0.44042673322419545,4,0.11325874839193681,7.872330590680837,0.1556427045718156,234.23495765423937,0.24689981941109407,36.880571505861454,0.0,0,0,0,0
1.3600000000000136,0.0,1,0,0,1,1,0,0,1,0.3350496176332801,0.0,0.3946926627876939,0.31865411151793643,-0.05209463265675143,-0.003644517796507082,0.2837327492372461,0.16366816049438201,0.4780894346835833,4,0.1476977443159088,5.846057870744291,0.1662136405859073,256.94324998361844,0.4410295633999617,37.351482243808334,0.0,0,0,0,0
1.3700000000000045,0.0,1,0,0,1,1,0,0,1,0.34448878681347544,0.0,0.4050803084008417,0.3204110020415317,-0.07662263455785089,0.03507474073687749,-0.7029655309283167,0.3477947676282436,0.43359157555264144,4,0.12726934889016578,4.17871573093076,0.13460833341417625,273.800454607738,0.32057148650623324,37.26725810590959,0.0,0,0,0,0
1.3799999999999955,0.0,1,0,0,1,1,0,0,1,0.35391734288749094,0.0,0.41541592425573626,0.3344734709488213,-0.04924905568748267,0.050271650122150416,-0.9418782169822635,0.21909225248740968,0.4279587552993298,4,0.11140281706613923,2.545249454664059,0.08976516595312899,246.9273075882793,0.10676799728219777,37.36838693264563,0.0,0,0,0,0
1.3899999999999864,0.0,1,0,0,1,1,0,0,1,0.36333161590376434,0.0,0.4256981828141508,0.35174327684263235,-0.017769057245584755,0.039426878888334876,-0.5349775568581981,0.07471429820368845,0.41252086856181985,4,0.05081071845502848,1.8832605312757784,0.11256439602652524,219.86531800816678,0.11479540517339326,37.41161760673058,0.0,0,0,0,0
1.3999999999999773,0.0,1,0,0,1,1,0,0,1,0.3727384852241477,0.0,0.4359257633912334,0.3393913097298166,0.0012068975402609794,0.05639414667402544,0.05330784870462557,0.20572732779426015,0.36705694805740324,4,0.08168129975273028,1.6765796551851273,0.10666365423171394,210.95972021041013,0.380655449378009,37.315111615142165,0.0,0,0,0,0
1.410000000000025,0.0,1,0,0,1,1,0,0,1,0.38213069482922846,0.0,0.44609735232514003,0.3291324983027712,-0.0010698087186730384,0.0571076813886567,0.408101274068261,0.4553408679345625,0.39783160392979444,4,0.1039689538691417,2.446338498407022,0.09956106957712688,191.63208764815292,0.04492334822270583,37.4143027769225,0.0,0,0,0,0
1.420000000000016,0.0,1,0,0,1,1,0,0,1,0.39151108261011824,0.0,0.45621164314576507,0.33742846244258007,-0.021041090892272577,0.051545828621127984,0.2908720092194534,0.5080387861252379,0.4219065891050443,4,0.10208018795273688,2.7402271923527826,0.09550176988780221,171.01724361851004,0.10623118738213577,37.682847904117004,0.0,0,0,0,0
1.4300000000000068,0.0,0,0,0,0,1,0,0,1,0.4008791223916459,0.0,0.4662673367425485,0.3629553631925964,-0.0328198048087028,0.03588158273957134,0.0335332195571169,0.5297708421094096,0.46454447206145405,4,0.09136983812392654,4.003664084208568,0.1353761096404995,160.155401826934,0.21318199363765977,38.01666789454112,50.0,0,0,0,0
1.4399999999999977,0.0,0,0,0,0,1,0,0,1,0.41023540400272324,0.0,0.47626314153133764,0.3900113207218257,-0.04725517284997524,0.04675365986735522,-0.545439508413568,0.40869238753506093,0.4852664277672002,4,0.08840112733884078,2.9991016480527923,0.1295561983792711,213.52781282344594,0.22123726124087595,38.5412247101358,50.0,0,0,0,0
1.4499999999999886,0.0,0,0,0,0,1,0,0,1,0.4195724999931048,0.0,0.48619777362028216,0.3928054541885098,-0.03338466937774193,-0.0026290824528649673,-0.7794839735402517,0.47594821317920577,0.45721281446976064,4,0.08176253245457454,2.7177711930509103,0.09343534639489125,206.58573019851633,0.09678725483346984,38.44153207828656,50.0,0,0,0,0
1.4599999999999795,0.0,0,1,1,0,0,0,1,1,0.42890502710172246,0.0,0.4960699569747409,0.37768113487778077,-0.029029577779967976,-0.06610665974617562,-0.896363620415622,0.7209484829966037,0.35718993373235475,4,0.16281105192304723,1.4064860318398436,0.06486089093916185,90.39843647577216,0.4168070260767347,37.88059943631723,80.0,0.0,0.0,0.11999999999999998,0.0
1.4700000000000273,0.0,0,1,1,0,0,1,1,0,0.43822110685935917,0.0,0.50587842358118,0.3455499918001245,-0.02607503346151427,-0.13535307177223563,0.2441835663918925,0.6537239991938255,0.3719683513523596,4,0.23527215338023874,0.808025758716199,0.07296266485158025,102.41436047884467,0.08707629663084515,37.45070728657008,25.0,0.0,0.16,0.0,0.0
1.4800000000000182,0.0,0,1,1,0,0,1,1,0,0.44752023040769484,0.0,0.5156219136100402,0.3183712840660553,-0.02931758402031531,-0.1209364949070153,-0.23659870453107318,0.5209242692897139,0.4575238581603202,4,0.23555475612561186,1.1423139148492796,0.09176464549073102,158.50356543811733,0.450865621618034,37.44470716414187,0.0,0,0,0,0
1.490000000000009,0.0,0,1,1,0,0,1,1,0,0.45680764319838557,0.0,0.5252991755775536,0.3633153495106143,-0.012097737568509079,-0.14690252579875582,-0.1875736356861153,0.391265593873833,0.43191100988146713,4,0.21316267223103208,5.788975606964175,0.1606469977416678,120.99142492067377,0.17778065126242137,37.56108161111333,0.0,0,0,0,0
1.5,0.0,0,1,1,0,0,1,1,0,0.46608038395786583,0.0,0.5349089665064873,0.40818637195210433,-0.013597916102933509,-0.0865900454003976,0.16074120627999233,0.1323608346289944,0.5749749629456439,4,0.11592188291347819,2.9612386129465125,0.14715205685658111,202.42943767046728,1.132702419848851,38.32781869189113,0.0,0,0,0,0
1.509999999999991,0.0,0,1,1,0,0,1,1,0,0.47533462660838616,0.0,0.5444500520857963,0.4262817666285373,-0.03207844303509976,-0.06024386913932391,0.19532628783588632,-0.21458048709150013,0.5959731684866663,4,0.11855246198965619,2.402959702579486,0.1287024859510796,240.64851516452018,0.2677240237640124,38.85357453673396,0.0,0,0,0,0
1.5199999999999818,0.0,0,1,1,0,0,1,1,0,0.4845764757385877,0.0,0.5539212068291611,0.44477441461606176,-0.04060528975396737,-0.028294549048637787,0.23089118827949393,-0.07731082943057206,0.5710092702872003,4,0.12414605070845182,1.7073243474844548,0.12993732149221798,226.3878251214352,0.33076776169715716,39.02715149932253,0.0,0,0,0,0
1.5300000000000296,0.0,0,1,1,0,0,1,1,0,0.4938016642984772,0.0,0.5633212142323937,0.4555646227271513,-0.022451765617239838,0.008965923723402314,0.20356051344503262,0.05221317009062691,0.540711148755617,4,0.07898034115454802,1.5937501207054607,0.1254287691585544,210.2406557905634,0.1964364669946863,38.82510835281248,0.0,0,0,0,0
1.5400000000000205,0.0,0,1,1,0,0,1,1,0,0.5030129732085198,0.0,0.5726488669296887,0.4581872959125744,-0.0325773894676643,0.03732126847963939,-0.015223881335855487,-0.18274134950448612,0.5477488442947366,4,0.09044047431198185,1.4881219761523712,0.11221990150291197,191.86041134413222,0.09925716393083439,38.89555425936987,0.0,0,0,0,0
1.5500000000000114,0.0,0,1,1,0,0,1,1,0,0.5122070302483096,0.0,0.5819029668487015,0.4828447323120333,-0.04988778342989592,0.03820258972050085,-0.07097562664874218,-0.2654732581555074,0.5241588803719556,4,0.12872213342074193,2.325145762141489,0.1190324361940536,170.28966615580086,0.12385191093646997,38.90836818371867,0.0,0,0,0,0
1.5600000000000023,0.0,0,1,1,0,0,1,1,0,0.5213839832188367,0.0,0.5910823253644317,0.4857850644655551,-0.03723444203737596,0.044238197782781,-0.23300938230964524,-0.12723856271084547,0.5072981121184545,4,0.14960529154270727,3.288538855968222,0.121966714221342,151.7238460854246,0.17266690213469227,38.95864402843087,0.0,0,0,0,0
1.5699999999999932,0.0,0,1,1,0,0,1,1,0,0.5305433228228394,0.0,0.6001857634518946,0.4857638141780903,-0.025300127976123816,0.06430153129461819,-0.08623822855297417,-0.2096948809289662,0.5776117076506868,4,0.12114692582730972,3.155939515783275,0.10791016568848588,155.11581272912068,0.3778652913628724,39.25738165817795,0.0,0,0,0,0
1.579999999999984,0.0,0,0,0,0,0,1,1,0,0.5396884623852374,0.0,0.609212111837558,0.49009984765791015,-0.024588296019215493,0.07101089178259033,-0.07313637438285532,-0.19960372526807388,0.605840295980312,4,0.08100148724633313,2.2413033830144196,0.10170690936929241,159.65289294649963,0.12158396609833311,39.714578616083514,50.0,0,0,0,0
1.589999999999975,0.0,0,0,0,0,0,1,1,0,0.5488136577002998,0.0,0.6181602111495279,0.4986823822942086,-0.0430411857473625,0.046522875407419714,-0.01757457762045899,-0.01413561117052678,0.6143154838239513,4,0.08621024303578415,1.361347285004409,0.10873695038496763,168.77697500633067,0.06439737742316298,40.01839570222164,50.0,0,0,0,0
1.6000000000000227,0.0,0,0,0,0,0,1,1,0,0.5579227529677412,0.0,0.6270289120664615,0.5123843110207817,-0.06597533414852969,-0.008440433427900924,0.019059377836679325,0.02107486726488944,0.6195063845119458,4,0.11310083582611385,0.6935315411459781,0.0846971809002324,159.98091738193327,0.21423053408255122,40.10179348343126,50.0,0,0,0,0
1.6100000000000136,0.0,1,0,0,1,0,0,1,0,0.5670134980400776,0.0,0.6358170754651893,0.5402797463770789,-0.07770109837734493,-0.07938167185457765,0.1492547280002176,0.06058832390599845,0.6949450292433739,4,0.135994097890912,0.6038657661755653,0.0677050181620457,91.08355112797764,0.9321036771702156,40.530840094170244,95.0,0,0,0,0
1.6200000000000045,0.0,1,0,0,1,1,0,1,1,0.5760851714143569,0.0,0.6445235725670281,0.5368502595335644,-0.06896517371697002,-0.11967462754216417,0.1754853097150852,0.2278528393222874,0.6937406055827932,4,0.18505537071774952,1.1040218577784313,0.06482994801926463,109.69566274647586,0.8950645885736677,40.96297830113056,40.0,0.16,0.0,0.0,0.15
1.6299999999999955,0.0,1,0,0,1,1,0,0,1,0.5851398591643658,0.0,0.6531472850827647,0.489964527706624,-0.055064637836726875,-0.1726447338651728,0.05980996260039589,0.521197451285495,0.5406494926006523,4,0.2004960062813989,0.6956439855217952,0.0633598605947575,197.27706178260587,1.1397251728633169,39.36912116248095,10.0,0,0,0,0
1.6399999999999864,0.0,1,0,0,1,1,0,0,1,0.5941746788662494,0.0,0.6616871053562917,0.5183248040091426,-0.052360282640831105,-0.214261194677143,0.17371814993711499,0.3882667015015876,0.5882493869556061,4,0.25061153929630975,3.769723606344231,0.13822540853780432,64.15765442989932,0.7072773064799764,38.813516546478034,0.0,0,0,0,0
1.6499999999999773,0.0,1,0,0,1,1,0,0,1,0.6031910650641905,0.0,0.6701419365068796,0.5665021312082976,-0.05329277597310798,-0.18305707601047697,0.1013797120726379,0.3508181949097895,0.6833180597214965,4,0.12753213966775964,5.147833403761033,0.18725455058478468,145.982886106354,1.0858606340454,39.77276762998754,0.0,0,0,0,0
1.660000000000025,0.0,1,0,0,1,1,0,0,1,0.6121885098269197,0.0,0.6785106925700619,0.5746932303411356,-0.05727115719454126,-0.09130446648950355,-0.4612366471010363,0.3907634366011346,0.7311604185586349,4,0.12310728871303947,2.4703897379524404,0.14871529546146772,363.9514689998578,0.5703344268415398,40.40076376073389,0.0,0,0,0,0
1.670000000000016,0.0,1,0,0,1,1,0,0,1,0.6211652248376811,0.0,0.6867922986371213,0.5846142395245362,-0.049215537182125776,-0.02108531977060775,-0.5574667341742598,0.3637114545388491,0.7029191479702663,4,0.14041865424653555,1.3782233606276564,0.118605177883258,368.54604111025134,0.5103979875302418,40.57287715588923,0.0,0,0,0,0
1.6800000000000068,0.0,1,0,0,1,1,0,0,1,0.6301224221692321,0.0,0.694985690993153,0.5843596590920381,-0.044673951018461944,0.019039407904588718,-0.22728361049371315,0.23512124716102129,0.6790993263396766,4,0.0916956521556547,1.0121154785095734,0.09769879518871209,310.80076766617316,0.24495128427453938,40.25469288026631,0.0,0,0,0,0
1.6899999999999977,0.0,1,0,0,1,1,0,0,1,0.6390600241539418,0.0,0.7030898172536922,0.5890278224781756,-0.04078658234475239,0.04255211533074977,-0.16078413896673788,0.24707838150209022,0.6349161486288679,4,0.13891306061077155,0.9717262972592584,0.09882187647120104,281.1259575745051,0.39808524410454993,40.00872352726893,0.0,0,0,0,0
1.6999999999999886,0.0,1,0,0,1,1,0,0,1,0.6479773147074145,0.0,0.7111036364998855,0.5990053620402818,-0.04972647438400098,0.07936549718591455,-0.14701071064240634,0.2678286750705715,0.6448389456075815,4,0.16121995816149404,2.538862586594438,0.12906699160070928,261.0158870694211,0.13120164947383905,40.087149231767704,0.0,0,0,0,0
1.7099999999999795,0.0,1,0,0,1,1,0,0,1,0.656871040217769,0.0,0.7190261194121894,0.6227701962429307,-0.06012116566635243,0.11910440549044976,-0.18335671350922456,0.15000589523654462,0.6033858089976863,4,0.19406977533766534,3.034537834136998,0.12914135892277817,242.50864616964174,0.24558845955460473,40.139757344573596,0.0,0,0,0,0
1.7200000000000273,0.0,1,0,0,1,1,0,0,1,0.6657468519986898,0.0,0.7268562484025798,0.6263279946074968,-0.05973040033762911,0.12731739884687793,-0.16889635390712315,0.04793326254488103,0.603543701339989,4,0.2206483413730876,2.216793469040874,0.11615863349433804,222.18707978687127,0.13290311343611183,40.231875929923454,0.0,0,0,0,0
1.7300000000000182,0.0,0,0,0,0,1,0,0,1,0.6745998041573544,0.0,0.7345930177452535,0.619784263755941,-0.06522164893835401,0.1305307439152114,-0.16840107596719117,0.18373769483031044,0.686090645573374,4,0.1975044401588026,1.4326821276614607,0.11205521250756448,219.4538262545268,0.47326342455380477,40.72993530979336,50.0,0,0,0,0
1.740000000000009,0.0,0,0,0,0,1,0,0,1,0.6834304644015066,0.0,0.7422354337058074,0.6118578134590982,-0.06598547142745612,0.1271875145385027,-0.1108288945126348,0.3406824585056563,0.7450112270972706,4,0.1446526694448597,1.3422604934677513,0.11111126343822009,202.8630941854769,0.36301802005212647,41.473345860892316,50.0,0,0,0,0
1.75,0.0,0,0,0,0,1,0,0,1,0.6922398125380426,0.0,0.7497825146688759,0.6224563450033724,-0.05268117730350723,0.026286447664687282,-0.15891916408254692,0.4051538262253025,0.7329496903410193,4,0.14083734869003908,1.299268743729049,0.09073990605095253,138.64810055788652,0.3664772715986615,41.69424641645553,50.0,0,0,0,0
1.759999999999991,0.0,0,1,1,0,0,0,1,1,0.7010279794429656,0.0,0.7572332912642138,0.6324956589329072,-0.04318338044795122,-0.07973190925835491,-0.08119958349155895,0.47219253864273136,0.6745009887235482,4,0.171940858235408,0.5873150841046493,0.05823991198596912,55.08035036228873,0.27612685427263006,41.183787820669394,70.0,0.0,0.0,0.12999999999999998,0.0
1.7699999999999818,0.0,0,1,1,0,0,1,1,0,0.7097925878743632,0.0,0.7645868064912039,0.6192090639446912,-0.0715684512820129,-0.12151827205439183,0.9335184320402862,0.570046965848976,0.737057708579847,4,0.20017836436531625,0.5442001708507385,0.0800548067461611,110.23787949255211,0.7180639610301283,40.98815952051372,25.0,0.0,0.16,0.0,0.0
1.7800000000000296,0.0,0,1,1,0,0,1,1,0,0.7185354460302372,0.0,0.7718421158417781,0.6325617439571687,-0.0929785509938074,-0.04522888659231145,-0.1707629769446176,0.238411991008395,0.7435122875363118,4,0.20515539850519837,0.4158537157608218,0.09080096545963724,173.13209289260647,0.36018722580786733,41.252703231277245,0.0,0,0,0,0
1.7900000000000205,0.0,0,1,1,0,0,1,1,0,0.7272537737270582,0.0,0.7789982874217324,0.6866605784998714,-0.0894387627108654,-0.039249612953361934,-0.5145607902746625,0.11870463252775376,0.663337418259225,4,0.23577824407868975,2.576483358245437,0.1429162645131961,129.3586455582437,0.41515273715413326,41.062320155587955,0.0,0,0,0,0
1.8000000000000114,0.0,0,1,1,0,0,1,1,0,0.7359493730612605,0.0,0.7860544020704221,0.6920656434482131,-0.07933402319802314,0.008714506527183731,-0.2850812803189797,-0.14923320940836532,0.6689120313319497,4,0.23319547582121797,3.1538527208059444,0.16530808055048288,192.54853323998842,0.2329136977338475,41.19433716612402,0.0,0,0,0,0
1.8100000000000023,0.0,0,1,1,0,0,1,1,0,0.7446211338795995,0.0,0.7930095534788224,0.6896799496450264,-0.06955036966206801,0.030279519494644736,0.2076567228439375,-0.359596798530163,0.6731497079839377,4,0.254915012175285,2.5140546242250186,0.15196316512514585,247.25178078066855,0.3891494912051323,41.05818994349861,0.0,0,0,0,0
1.8199999999999932,0.0,0,1,1,0,0,1,1,0,0.7532691912344015,0.0,0.7998628483059366,0.6936251900274012,-0.06490471333136309,0.0551772692057638,0.5688182107031245,-0.2732068545463863,0.6864893023704861,4,0.22809380627820336,1.3370509760940146,0.1315267111138787,248.63164415117734,0.4027216610103146,41.39087822658457,0.0,0,0,0,0
1.829999999999984,0.0,0,1,1,0,0,1,1,0,0.7618924444331738,0.0,0.8066134062935402,0.7047995982360272,-0.05731836560091303,0.06086501487873592,0.9689306061256472,-0.25637361797858027,0.7355850938231728,4,0.2118776522494326,1.0021389724240881,0.11504202461711999,209.2110677778996,0.5251403817675193,41.554356749408385,0.0,0,0,0,0
1.839999999999975,0.0,0,1,1,0,0,1,1,0,0.7704934880841797,0.0,0.8132603603792435,0.7162484720508353,-0.07729368112113484,0.07538570707986961,0.7880792561792316,-0.3550534146670667,0.7593800051865089,4,0.1752873992152629,1.0228927463763262,0.11351077874591071,173.98211989194792,0.3911114884691278,42.1548041493883,0.0,0,0,0,0
1.8500000000000227,0.0,0,1,1,0,0,1,1,0,0.779067331341341,0.0,0.8198028568078602,0.7210189832193633,-0.09532230575707014,0.09753328744139572,0.2149393852364267,-0.3562469624106272,0.745254264187288,4,0.21813226648159137,1.6424320616205237,0.10585728241092632,163.49909815107515,0.22212657464193342,42.114476290488014,0.0,0,0,0,0
1.8600000000000136,0.0,0,1,1,0,0,1,1,0,0.7876184016980576,0.0,0.8262400552410661,0.739880178909815,-0.08609758305342559,0.12338741486902113,-0.3672976849274162,-0.2884592643740967,0.7771159201385237,4,0.2060219310418249,2.2570562134864636,0.11102998436640614,153.04232735413746,0.40613900302427997,42.441347060932785,0.0,0,0,0,0
1.8700000000000045,0.0,0,1,1,0,0,1,1,0,0.7961403167009588,0.0,0.8325711288653347,0.718382840295616,-0.07216776353050243,0.1502709534409514,-0.4322970472006139,-0.2887620762982433,0.8658287918901342,4,0.16216302853946446,3.0067396586537836,0.11303098883597573,145.35116288818512,0.5923844239180527,43.17257527670175,0.0,0,0,0,0
1.8799999999999955,0.0,0,0,0,0,0,1,1,0,0.8046399186223571,0.0,0.8387952644981355,0.7218613719794661,-0.060445256515794694,0.17895106448178152,-0.30448442334172654,-0.2787843701310664,0.8985729404442071,4,0.20289630773186254,1.9606636493439002,0.10523646926798032,145.78986232967546,0.3104072763759227,43.859954643196794,50.0,0,0,0,0
1.8899999999999864,0.0,0,0,0,0,0,1,1,0,0.813113677851957,0.0,0.8449116626923823,0.7199261038731254,-0.06779624331004837,0.15640950540520465,-0.1660692288894725,-0.08899178767613125,0.8843971450823833,4,0.20617061654957217,0.973268028726233,0.11529908113706415,142.42102822454447,0.30358383989943505,44.01367546722902,50.0,0,0,0,0
