time,trans_flag,des_cont_state_fl,des_cont_state_fr,des_cont_state_rl,des_cont_state_rr,cont_state_fl,cont_state_fr,cont_state_rl,cont_state_rr,vel_cmd_x,vel_cmd_y,vel_cmd_yaw,base_vel_x,base_vel_y,base_vel_z,base_vel_roll,base_vel_pitch,base_vel_yaw,gait_id,base,CoT,musculoskeletal,foot_force,MWE,WEXT,stability,FL_stride_t,FR_stride_t,RL_stride_t,RR_stride_t
0.014000000000123691,0.0,1,1,1,1,1,1,1,1,0.0,0.0,0.0,-0.0023155102843116196,0.004138918938653572,0.0009098843231848451,-0.003503443440422413,-0.00931877084076404,0.0034926470834761836,0,0.001989415261288275,0.0,0.016437914299242427,29.159999999999986,5.147512779234527,6.610732062186048,0.0,0,0,0,0
0.024000000000114596,0.0,1,1,1,1,1,1,1,1,0.0,0.0,0.0,0.0005850161961046086,-0.00046081385111546686,0.0018929224906857193,-0.004824618336979833,-0.001798293535104332,0.0031554972857993327,0,0.0059258579647415675,0.0,0.0830638110042695,145.87092251548083,0.0034679453755964876,33.05109875117006,0.0,0,0,0,0
0.0340000000001055,0.0,1,1,1,1,1,1,1,1,0.0,0.0,0.0,0.006619252667682036,-0.006898772031571377,0.015456526531678621,0.008591706391021992,0.005809110141375791,0.0027750365552885164,0,0.012636285170298883,0.0,0.09245168573633541,145.91511853239086,0.019060813993775055,33.05861894737139,0.0,0,0,0,0
0.044000000000096406,0.0,1,1,1,1,1,1,1,1,0.0,0.0,0.0,0.011233778830153909,-0.022874389921579072,0.0725524987838155,-0.01865885106766492,0.08819246015153263,0.0031441310151933055,0,0.028062267867805336,0.0,0.1729014222596979,152.40172708514206,0.12643335561886535,33.15085382492214,0.0,0,0,0,0
0.05400000000008731,0.0,1,1,1,1,1,1,1,1,0.0,0.0,0.0,0.00748382700495022,-0.015281275745089707,0.07201787916186998,0.00649452653801332,0.16353377444220407,0.04856465274376164,0,0.056008665908331576,0.0,0.1711362434587704,169.97428781304956,0.047777670080670125,33.24923833173494,0.0,0,0,0,0
0.06400000000007822,0.0,1,1,1,1,1,1,1,1,0.0,0.0,0.0,0.015219421888959778,-0.0006744040784879692,0.06585538415653185,0.12183173253378182,0.15219091758054915,0.0755061035844389,0,0.08637040075939276,0.0,0.1450137296657305,164.83127774998005,0.028160668119143833,33.317625251911856,0.0,0,0,0,0
0.07400000000006912,0.0,1,1,1,1,1,1,1,1,0.0,0.0,0.0,0.019916728973498533,0.004383682437932347,0.07900038388873663,0.0135514037182832,0.15095053845859643,0.07194489381770772,0,0.0989956308179015,0.0,0.15595880032216597,151.4717088045946,0.1013467524045022,33.40889344234192,0.0,0,0,0,0
0.08400000000006003,0.0,1,1,1,1,1,1,1,1,0.0,0.0,0.0,0.028766403513968964,0.008055980961695828,0.08202906536838504,-0.014638384016574413,0.15502923074991756,0.030426545686716322,0,0.07821121636753556,0.0,0.1602284655845646,152.5564053541311,0.11546262100701665,33.48267228403788,0.0,0,0,0,0
0.09400000000005093,0.0,1,1,1,1,1,1,1,1,0.0,0.0,0.0,0.05089356143631313,0.000805889919543385,0.07695747433618227,0.04313004183560892,0.1370084333252681,-0.013309488840793329,0,0.05868871461400297,0.0,0.15514507528055171,152.39843924087376,0.08471554499114788,33.56803456689188,0.0,0,0,0,0
0.10599999999999454,0.0,1,1,1,1,1,1,1,1,0.0,0.0,0.0,0.05553522742097339,-0.007497763876817768,0.07284708368524014,-0.047692156760107324,0.13083970809666903,-0.04497139109199541,0,0.09718445455001955,0.0,0.14913268768583293,147.43469993447076,0.06140614188038469,33.66745782515913,0.0,0,0,0,0
0.11400000000003274,0.0,1,1,1,1,1,1,1,1,0.0,0.0,0.0,0.05802379854533862,-0.007200890684143672,0.06713114014307844,-0.08259905673467713,0.11584371311328975,-0.057819433179948365,0,0.11876533310896578,0.0,0.14754492071518135,144.3293005337166,0.05829764891834575,33.74793029673831,0.0,0,0,0,0
0.12400000000002365,0.0,1,1,1,1,1,1,1,1,0.0,0.0,0.0,0.05817203327454863,-0.0016457405269352915,0.059138833704410775,-0.026491021860242752,0.10988336968345265,-0.04860319197958447,0,0.1130292716726582,0.0,0.14810752983785197,143.16901297174667,0.06943295711030324,33.81127627832692,0.0,0,0,0,0
0.13400000000001455,0.0,1,1,1,1,1,1,1,1,0.0,0.0,0.0,0.05731746402580894,0.0035121060486629063,0.054839560858421336,-0.01712779852659694,0.10938611769687112,-0.026684738880224386,0,0.09629675142227427,0.0,0.1467685506517794,142.70368463141466,0.07326662180200473,33.86707916162377,0.0,0,0,0,0
0.14400000000000546,0.0,1,1,1,1,1,1,1,1,0.0,0.0,0.0,0.05727208491113547,0.006734129074148738,0.050297125191748775,-0.031081964751946575,0.09899044815720437,0.0013967682439903315,0,0.07332853983015693,0.0,0.14582263115616906,143.37260469645452,0.057947517451722996,33.91605213518689,0.0,0,0,0,0
0.15399999999999636,0.0,1,1,1,1,1,1,1,1,0.0,0.0,0.0,0.056920890224289075,0.007554114748300889,0.048678117827420965,-0.008113532831616097,0.0856191542610364,0.02399140006978112,0,0.07705435236557127,0.0,0.14542539748514785,142.71227913723024,0.05135045482008739,33.97012840428374,0.0,0,0,0,0
0.16399999999998727,0.0,1,1,1,1,1,1,1,1,0.0,0.0,0.0,0.05996423142563455,0.00458103132208968,0.045749797468276086,-0.011784042097399514,0.07510867365592981,0.04669949193278635,0,0.102627168725076,0.0,0.14794514052372376,142.61750233339754,0.035183363594518485,34.02950326157724,0.0,0,0,0,0
0.17399999999997817,0.0,1,1,1,1,1,1,1,1,0.0,0.0,0.0,0.06070427180206924,-0.0012253332457106594,0.04100617096908649,-0.05999396134035383,0.06784132474185389,0.046863864369549,0,0.11263732674635574,0.0,0.14928804282036326,140.9022996703493,0.043242733764134136,34.083061082092215,0.0,0,0,0,0
0.18399999999996908,0.0,1,1,1,1,1,1,1,1,0.0,0.0,0.0,0.062117394536019686,-0.004261302113973595,0.035570420810574224,-0.08622575746307971,0.0700532364537759,0.040855481695913645,0,0.10721810582546128,0.0,0.14934893441487954,140.93748034804324,0.04066076629673051,34.11957446381501,0.0,0,0,0,0
0.19399999999995998,0.0,1,1,1,1,1,1,1,1,0.0,0.0,0.0,0.06283109327450104,-0.003445646020095759,0.0308481501025046,-0.08324079128741727,0.06894594301891836,0.03210130477922596,0,0.10258697310263451,0.0,0.14929372207794106,140.3029092789855,0.03571107258878629,34.15223015275934,0.0,0,0,0,0
0.2039999999999509,0.0,1,1,1,1,1,1,1,1,0.0,0.0,0.0,0.06294901145196771,-0.002107788862356558,0.025788098142976088,-0.04364181099082288,0.06611900934444312,0.01888313754955745,0,0.08932813961436338,0.0,0.14857880537867676,139.41892993305513,0.02955471384445614,34.175568385421954,0.0,0,0,0,0
0.2139999999999418,0.0,1,1,1,1,1,1,1,1,0.0,0.0,0.0,0.06116385238048619,-0.0025550462117015765,0.021810210109067276,-0.026708655857867226,0.05560866699583342,0.005337022306463291,0,0.07672187095968219,0.0,0.14882714355078874,138.46292016591946,0.024165654645456235,34.19570465905977,0.0,0,0,0,0
0.22400000000016007,0.0,1,1,1,1,1,1,1,1,0.0,0.0,0.0,0.05961967810586533,-0.0031039948947751386,0.018990716723603113,-0.03969606594341707,0.05345281890886712,-0.0023344449290451513,0,0.06490363326760148,0.0,0.14763042085773073,139.44093936714094,0.016725407209345206,34.210406453882825,0.0,0,0,0,0
0.23400000000015098,0.0,1,1,1,1,1,1,1,1,0.0,0.0,0.0,0.05713578564682149,-0.003541281885342451,0.016446906847041906,-0.04616202108136117,0.048215332430347375,0.006155000263722735,0,0.0655988097853758,0.0,0.14689155906345402,139.65923435898168,0.014542860124708679,34.222742221348774,0.0,0,0,0,0
0.24400000000014188,0.0,1,1,1,1,1,1,1,1,0.0,0.0,0.0,0.05465205257438838,-0.0033950705013375652,0.015204563843727233,-0.041682468992648686,0.04141687401224678,0.020123528607326573,0,0.07599916150232215,0.0,0.14704123497121022,140.79011150602804,0.010531427574925666,34.23417180504403,0.0,0,0,0,0
0.2540000000001328,0.0,1,1,1,1,1,1,1,1,0.0,0.0,0.0,0.05288909118337852,-0.002790267358354788,0.014091776245044551,-0.041676757425355745,0.02793643399499928,0.02301746522165142,0,0.07954968252379879,0.0,0.14786037644219568,141.1954419641067,0.01099436428119472,34.245659747649995,0.0,0,0,0,0
0.2640000000001237,0.0,1,1,1,1,1,1,1,1,0.0,0.0,0.0,0.05060571755611823,-0.0030413038958746067,0.012090407590034349,-0.03877454511025774,0.016731845341243955,0.01761541534116808,0,0.07493322885486985,0.0,0.14989638140883996,140.69150833982124,0.012650657634709118,34.25350429797694,0.0,0,0,0,0
0.2740000000001146,0.0,1,1,1,1,1,1,1,1,0.0,0.0,0.0,0.04890387118321578,-0.0042323827823353396,0.009034316996773522,-0.027837974992311564,0.005215147486669948,0.01487722430913877,0,0.06883844715737834,0.0,0.15069256872568418,139.58076341050145,0.009701800121159974,34.259879764164694,0.0,0,0,0,0
0.2840000000001055,0.0,1,1,1,1,1,1,1,1,0.0,0.0,0.0,0.04572857020444858,-0.005638388162869601,0.007867240169276,-0.04007416962079566,0.007058100376737565,-0.002613950115915134,0,0.05861079295000138,0.0,0.14902977260653935,139.88217898039562,0.008314379106794945,34.26411382104565,0.0,0,0,0,0
0.2940000000000964,0.0,1,1,1,1,1,1,1,1,0.0,0.0,0.0,0.04377401948152252,-0.006424989439095811,0.007393928773111402,-0.037996925404473754,-0.0005758755430871182,-0.003193519184610162,0,0.05530395686574439,0.0,0.14863554298621526,140.2518646185241,0.004642224188883357,34.26561098377475,0.0,0,0,0,0
0.3040000000000873,0.0,1,1,1,1,1,1,1,1,0.0,0.0,0.0,0.041837598500662924,-0.007309619614082315,0.007048629541337602,-0.01947351704503855,-0.009844840780804703,0.00023447899420361,0,0.051729340303902104,0.0,0.15008172597447084,141.84742727240663,0.0053860971727351555,34.26939469570958,0.0,0,0,0,0
0.3140000000000782,0.0,1,1,1,1,1,1,1,1,0.0,0.0,0.0,0.03996276472246494,-0.007837185850334157,0.008612760524365427,-0.03182949517029787,-0.011607092176091148,0.0011428405494228228,0,0.050851913178893225,0.0,0.14917239265596943,142.3852444758238,0.005267364673610813,34.27243659749064,0.0,0,0,0,0
0.3240000000000691,0.0,1,1,1,1,1,1,1,1,0.0,0.0,0.0,0.03983498098381455,-0.0082419457169284,0.009875625076146534,-0.033894720562472086,-0.020332739231992893,0.01302479167796426,0,0.055537585028999394,0.0,0.14962313954603493,142.8923447346817,0.009056617931292888,34.280207689960726,0.0,0,0,0,0
0.33400000000006,0.0,1,1,1,1,1,1,1,1,0.0,0.0,0.0,0.04044703062230998,-0.008113321335783475,0.009625476946511481,-0.025406571587553606,-0.023079116765481175,0.011669586985213181,0,0.06120903630932989,0.0,0.14972231838363298,142.56125607345737,0.009400526448305803,34.29122011895424,0.0,0,0,0,0
0.34400000000005093,0.0,1,1,1,1,1,1,1,1,0.0,0.0,0.0,0.04127407584098065,-0.008010424226972969,0.007761276119152142,-0.0038382879594362693,-0.016964244829037425,0.015286004377351756,0,0.06349463692525105,0.0,0.15153829462137927,142.54718072433494,0.005197300159496493,34.29958120626027,0.0,0,0,0,0
0.35400000000004184,0.0,1,1,1,1,1,1,1,1,0.0,0.0,0.0,0.04104019457547824,-0.0085335754750756,0.006609808629027855,0.01045209771047181,-0.014200751166780433,0.014380829220072763,0,0.06284167046898766,0.0,0.14994433362845844,142.42464713132836,0.006019831379316474,34.30483856495378,0.0,0,0,0,0
0.36400000000003274,0.0,1,1,1,1,1,1,1,1,0.0,0.0,0.0,0.04233085989079818,-0.00923324371872988,0.005957710570153286,-0.006226056709637927,-0.011428829096584396,0.018008457325014667,0,0.06778665817255494,0.0,0.150370788227556,142.35250310789436,0.0021554798774883945,34.31093556410618,0.0,0,0,0,0
0.37400000000002365,0.0,1,1,1,1,1,1,1,1,0.0,0.0,0.0,0.04434824965124716,-0.00947517716278176,0.005754605336331054,-0.015488112135980529,-0.01754377786556783,0.024800622849426895,0,0.0750633936483878,0.0,0.15073548960940567,142.55847680110188,0.0016255264120135504,34.316653263323744,0.0,0,0,0,0
0.38400000000001455,0.0,1,1,1,1,1,1,1,1,0.0,0.0,0.0,0.0456229777223491,-0.00924555977250766,0.007038031591015896,-0.014330552233048556,-0.015625478337097935,0.03111532048913159,0,0.08337941622006095,0.0,0.1505884915892503,143.23275934109083,0.0014464266452794174,34.32417527014239,0.0,0,0,0,0
0.39400000000000546,0.0,1,1,1,1,1,1,1,1,0.0,0.0,0.0,0.04642212508497468,-0.009680335833566044,0.006976002329812715,0.0006349990148130453,-0.013066241770312544,0.027583790440454725,0,0.08623680599850422,0.0,0.14966965292925788,144.54952326276901,0.0033889379776909333,34.32904728263576,0.0,0,0,0,0
0.40399999999999636,0.0,1,1,1,1,1,1,1,1,0.0,0.0,0.0,0.047351617897452736,-0.010118219608437933,0.007351429274649591,-0.005513391649951113,-0.0056537609469672935,0.028777045799182832,0,0.08291054909073066,0.0,0.15092724461194368,144.47503596325606,0.002575191659133006,34.33015861400427,0.0,0,0,0,0
0.41399999999998727,0.0,1,1,1,1,1,1,1,1,0.0,0.0,0.0,0.049217951098215265,-0.010731435512733353,0.008113199777699661,0.006426786819624461,-0.0013412831567756905,0.016419770772170404,0,0.08317305156761012,0.0,0.15159548393142813,144.53540638138762,0.009484726620153306,34.33750653054059,0.0,0,0,0,0
0.42399999999997817,0.0,1,1,1,1,1,1,1,1,0.0,0.0,0.0,0.050890561487585036,-0.01186032658915165,0.009156916375807431,0.009640517950875595,-0.009964688690179357,0.017691743332187582,0,0.07744029679637524,0.0,0.15096176304027423,144.67609674763443,0.004397889000325544,34.341986116148604,0.0,0,0,0,0
0.4339999999999691,0.0,1,1,1,1,1,1,1,1,0.0,0.0,0.0,0.052745942621502784,-0.012563061243054792,0.008984843262118385,-0.0005949183797162923,-0.002468665222748188,0.014838718076413102,0,0.0798588500299517,0.0,0.14944973000268458,144.5059235807956,0.005718169630644164,34.350207544503334,0.0,0,0,0,0
0.44399999999996,0.0,1,1,1,1,1,1,1,1,0.0,0.0,0.0,0.053039018156550446,-0.012873256747376828,0.00929578041415752,0.003844865253677226,-0.000600070922346768,0.014739440791565337,0,0.08191908198414213,0.0,0.1483627090672178,144.25376853682263,0.007091457984300213,34.35747287098819,0.0,0,0,0,0
0.4539999999999509,0.0,1,1,1,1,1,1,1,1,0.0,0.0,0.0,0.054062776101360226,-0.013523610175372866,0.008615716742921022,-0.005240259544965625,0.007598012826800729,0.01327572298865933,0,0.0779075680268932,0.0,0.14908582139050974,144.66595154000038,0.003416928689864391,34.362821303618794,0.0,0,0,0,0
0.4639999999999418,0.0,1,1,1,1,1,1,1,1,0.0,0.0,0.0,0.05673003809570836,-0.01438574249989134,0.008193314494295079,-0.0072552604044683775,-0.0014154490892516597,0.013357988879076486,0,0.08670656872458453,0.0,0.14951113284316161,144.21601498279168,0.004616833174955353,34.37076062380392,0.0,0,0,0,0
0.47400000000016007,0.0,1,1,1,1,1,1,1,1,0.0,0.0,0.0,0.057814163536499305,-0.014173725456441631,0.009219982207989214,-0.01010737226992982,-0.0013039150985344435,0.013452441459682747,0,0.08514354194896182,0.0,0.14877084554278355,144.45232025249544,0.00166494596433657,34.37540265644076,0.0,0,0,0,0
0.484000000000151,0.0,1,1,1,1,1,1,1,1,0.0,0.0,0.0,0.05823983666149495,-0.014391807218200959,0.010374359971250026,-0.011784929295697934,0.0010290223519922597,0.0076784744449629435,0,0.08169933706515398,0.0,0.14912166749297356,144.95543974741113,0.00527816297158426,34.378193145579374,0.0,0,0,0,0
0.4940000000001419,0.0,1,1,1,1,1,1,1,1,0.0,0.0,0.0,0.05872708044861577,-0.01440054737363349,0.010744725882614905,-0.004110835458866983,-0.0014609431283704266,-0.001809872098212594,0,0.07683525257050101,0.0,0.14924941653835938,145.25997227601434,0.005368474570800065,34.383373799557745,0.0,0,0,0,0
0.5040000000001328,0.0,1,1,1,1,1,1,1,1,0.0,0.0,0.0,0.05869928262989913,-0.01460696005956938,0.010878892600289026,-0.007824128847014155,-0.003003898583114873,0.008910269809966464,0,0.0781158668287619,0.0,0.14889677993953226,144.64798576581316,0.0044375358585905,34.3890505270976,0.0,0,0,0,0
0.5140000000001237,0.0,1,1,1,1,1,1,1,1,0.0,0.0,0.0,0.05855759697536908,-0.014664733416756472,0.010772430020734787,0.0011387892798037705,0.0017288099506658978,0.013214105037756774,0,0.08319160737396,0.0,0.14801561158375612,144.72853511090528,0.002506324750424921,34.393135854515265,0.0,0,0,0,0
0.5240000000001146,0.0,1,1,1,1,1,1,1,1,0.0,0.0,0.0,0.05879282193776693,-0.014552666066904814,0.009229267596327525,-0.01349606371654362,-0.005665279257813781,0.01945254252384319,0,0.09199980534814776,0.0,0.14715944703864883,144.23716745608218,0.002931405855529007,34.39836265927896,0.0,0,0,0,0
0.5340000000001055,0.0,1,1,1,1,1,1,1,1,0.0,0.0,0.0,0.058673572956093115,-0.01420684903303395,0.008632529466536903,-0.015191666884935446,-0.004879422753032704,0.008195730964865233,0,0.08535231216003811,0.0,0.14802599660681576,144.57654548835376,0.005313652834530717,34.4006230254716,0.0,0,0,0,0
0.5440000000000964,0.0,1,1,1,1,1,1,1,1,0.0,0.0,0.0,0.05933128403429827,-0.01372966429420302,0.008669328198715607,-0.013994537812708457,-0.0006470120208168761,0.01671629904514511,0,0.08486487218582764,0.0,0.14730719871625053,144.27888330657763,0.004985449318523273,34.406685040759214,0.0,0,0,0,0
0.5540000000000873,0.0,1,1,1,1,1,1,1,1,0.0,0.0,0.0,0.06013437621180217,-0.013298554382100786,0.008360321140111095,-0.012556622117950018,-0.004672512113977686,0.010573700199932853,0,0.08707007271413633,0.0,0.14942748126410044,144.22077870270084,0.00514567698709445,34.41288967832277,0.0,0,0,0,0
0.5640000000000782,0.0,1,1,1,1,1,1,1,1,0.0,0.0,0.0,0.05968721242879981,-0.012356389673252203,0.008371352319488521,-0.013103723788640616,-0.0024671838867744594,0.009684082809597705,0,0.08394652615822477,0.0,0.14870557210567434,144.42237431620106,0.0014169595252543667,34.414174332270065,0.0,0,0,0,0
0.5740000000000691,0.0,1,1,1,1,1,1,1,1,0.0,0.0,0.0,0.060275151662801535,-0.012289434664721783,0.007393666258303681,-0.013993249629361576,-0.008860854165439488,0.014622981917174418,0,0.0831539242286734,0.0,0.14906429133403026,144.4112548522668,0.002616175016047998,34.4166426708896,0.0,0,0,0,0
0.58400000000006,0.0,1,1,1,1,1,1,1,1,0.0,0.0,0.0,0.060155622959355864,-0.012783980457872776,0.006278688711150562,-0.012684514751213011,-0.006935962505051417,0.007017777990858542,0,0.08638506358733326,0.0,0.14927167426753032,144.5030688371862,0.0031769036718497304,34.41885963869447,0.0,0,0,0,0
0.5940000000000509,0.0,1,1,1,1,1,1,1,1,0.0,0.0,0.0,0.060248920650893815,-0.014353514224951616,0.00522567865914451,-0.006659104931672969,0.00719129441176089,0.0051560639505546626,0,0.0784248334932115,0.0,0.1481611831445575,144.18879145495129,0.0014551492464189714,34.418774710631524,0.0,0,0,0,0
0.6040000000000418,0.0,1,1,1,1,1,1,1,1,0.0,0.0,0.0,0.0608202362035662,-0.015347983269425462,0.00413722032636931,-0.011451565742460888,-0.0011882741817104438,0.000854933429714335,0,0.07769879451077508,0.0,0.14912232772756587,144.36279509931296,0.0025130017438641204,34.41982486658289,0.0,0,0,0,0
0.6140000000000327,0.0,1,1,1,1,1,1,1,1,0.0,0.0,0.0,0.06076257327163353,-0.016465264435071833,0.004229732984762117,-0.004960886714017729,0.0018800493643146721,0.0017045611169422144,0,0.07983078255809722,0.0,0.14743553902190187,144.51679461831205,0.0020907137686418872,34.41794045819277,0.0,0,0,0,0
0.6240000000000236,0.0,1,1,1,1,1,1,1,1,0.0,0.0,0.0,0.061210365146865266,-0.017254927082027017,0.004810198927962937,-0.009287539195448046,-0.005060569973925918,0.003999567593708721,0,0.08052286448718218,0.0,0.14878790867252856,144.89672120786136,0.001339169872477907,34.41875415873439,0.0,0,0,0,0
0.6340000000000146,0.0,1,1,1,1,1,1,1,1,0.0,0.0,0.0,0.06145449335606139,-0.017894759825116624,0.005821520805449718,-0.005474701324811273,-0.0022089924254228505,-0.0031458092754826153,0,0.08117811393588956,0.0,0.14774313787842525,145.66692496005717,0.004053705614880339,34.423052424874285,0.0,0,0,0,0
0.6440000000000055,0.0,1,1,1,1,1,1,1,1,0.0,0.0,0.0,0.06122167828310479,-0.018450548079037492,0.00659539088410493,-0.002471376346733153,-0.004436443211418357,-0.00311803341438831,0,0.08307113746135518,0.0,0.1494554572937,145.95058600638208,0.002142345294650478,34.42614549700357,0.0,0,0,0,0
0.6539999999999964,0.0,1,1,1,1,1,1,1,1,0.0,0.0,0.0,0.061370410627297416,-0.01868199234069521,0.0068137240526137295,-0.00791988899343011,-0.004569552604364724,0.009293170610481951,0,0.08363032946209745,0.0,0.14796041580696306,145.3865715433555,0.0018418797708979265,34.42847212314071,0.0,0,0,0,0
0.6639999999999873,0.0,1,1,1,1,1,1,1,1,0.0,0.0,0.0,0.061678805132511234,-0.017770724166973915,0.006652167481380866,-0.0020275337293461306,-0.005525375094540713,0.007962537044181992,0,0.09207288278294423,0.0,0.1480276958077295,144.9587368038375,0.0038093003201923846,34.4328461671715,0.0,0,0,0,0
0.6739999999999782,0.0,1,1,1,1,1,1,1,1,0.0,0.0,0.0,0.06117491451134028,-0.016416014365923166,0.007041786194870481,-0.00027559538999281024,-0.001074528227263885,0.011116974761865742,0,0.08788744770577724,0.0,0.1477597025831047,144.91379676889557,0.004269309874167307,34.435771922939864,0.0,0,0,0,0
0.6839999999999691,0.0,1,1,1,1,1,1,1,1,0.0,0.0,0.0,0.06196584068928533,-0.015564668152988572,0.005349253998708647,-0.004644611055059468,0.007605527504435107,0.0013345300271294374,0,0.08113274714189425,0.0,0.14880780582684472,144.81054750287132,0.003479135862527103,34.43896020131892,0.0,0,0,0,0
0.69399999999996,0.0,1,1,1,1,1,1,1,1,0.0,0.0,0.0,0.06350753778072447,-0.015170339495861166,0.004521276719025991,-0.009221706570473992,0.0016524900976422308,0.002737746740475889,0,0.0817339987405726,0.0,0.14786471810253152,144.7979319138291,0.001516759869350192,34.44221480372585,0.0,0,0,0,0
0.7039999999999509,0.0,1,1,1,1,1,1,1,1,0.0,0.0,0.0,0.06416300618765663,-0.014510576755754121,0.003975337658281079,-0.016421533605962487,-0.003188409353187004,-0.0007514697627619734,0,0.0794332212145397,0.0,0.14939605832375571,144.27149160353332,0.0018217139261932636,34.44544466500763,0.0,0,0,0,0
0.7139999999999418,0.0,1,1,1,1,1,1,1,1,0.0,0.0,0.0,0.06504350013582068,-0.014109677319710986,0.003731798947476564,-0.013703806416016179,-0.003958044135443458,0.001895320945511599,0,0.07984231845679256,0.0,0.14765275931912447,144.61532584308162,0.0022637039885882483,34.44898260648662,0.0,0,0,0,0
0.7240000000001601,0.0,1,1,1,1,1,1,1,1,0.0,0.0,0.0,0.06452104914111034,-0.014327296350454703,0.00416201896434402,-0.004273239969903488,0.008018625059257416,0.013054140198820027,0,0.08688812830770454,0.0,0.1470500081721033,145.1274326513634,0.0006649389069924815,34.450073453066366,0.0,0,0,0,0
0.734000000000151,0.0,1,1,1,1,1,1,1,1,0.0,0.0,0.0,0.06349476614238031,-0.014980812773841404,0.004780284796330437,-0.01323589972675201,0.0071768298191405705,0.013165254242692215,0,0.093902038359893,0.0,0.14757321423979042,145.04978875576413,0.0015827695424511547,34.45117636474559,0.0,0,0,0,0
0.7440000000001419,0.0,1,1,1,1,1,1,1,1,0.0,0.0,0.0,0.06410757786611362,-0.01567607552070124,0.004855152223631157,-0.009542881343329257,-9.838512966189568e-05,0.017936108561989905,0,0.09249355444471728,0.0,0.14679014402117802,145.36907317092522,0.001355316340216399,34.45143921603288,0.0,0,0,0,0
0.7540000000001328,0.0,1,1,1,1,1,1,1,1,0.0,0.0,0.0,0.0654746049750387,-0.016194448456733835,0.004218295427401846,-0.007838524236868403,-0.0004317390851855314,0.003743611327434714,0,0.0923903233503692,0.0,0.14756502435371927,145.65312034261297,0.0026524591265814357,34.45420384708284,0.0,0,0,0,0
0.7640000000001237,0.0,1,1,1,1,1,1,1,1,0.0,0.0,0.0,0.06445476704197593,-0.016476960654745503,0.0055272944533707605,0.00019519334735702463,0.0018874438993378066,0.008746120416509788,0,0.08574374374126434,0.0,0.14916773124409521,145.38567423023966,0.003026836879193813,34.45545286611923,0.0,0,0,0,0
0.7740000000001146,0.0,1,1,1,1,1,1,1,1,0.0,0.0,0.0,0.0636715994054655,-0.017668647552290095,0.006301201791156294,0.0013858919337954006,0.007414880193492278,0.008921081307417434,0,0.09243336377245451,0.0,0.14790189885358102,146.02899595543437,0.004067743226649732,34.45934338895225,0.0,0,0,0,0
0.7840000000001055,0.0,1,1,1,1,1,1,1,1,0.0,0.0,0.0,0.0641274193271345,-0.018334825331261802,0.006581582459905687,0.0008627972141726814,0.0014983806208501683,-0.0008232859549207087,0,0.08488214744206415,0.0,0.1485333881625236,146.15115541333984,0.003940522998655559,34.46249031607814,0.0,0,0,0,0
0.7940000000000964,0.0,1,1,1,1,1,1,1,1,0.0,0.0,0.0,0.06489532049026221,-0.018985275136218466,0.006235380415971893,-0.010528820045315267,0.0008233027671050394,-0.0021315102239082293,0,0.08417840007403354,0.0,0.14829538127089462,146.15552189380273,0.003971478459043561,34.46735298953951,0.0,0,0,0,0
0.8040000000000873,0.0,1,1,1,1,1,1,1,1,0.0,0.0,0.0,0.06440802571442932,-0.018801449423492784,0.006794706279670134,-0.0006995868832306096,0.005925065431006298,-0.003064677252407455,0,0.08890219431564475,0.0,0.14717616971968922,145.7664284380654,0.004583970600808854,34.472221774174024,0.0,0,0,0,0
0.8140000000000782,0.0,1,1,1,1,1,1,1,1,0.0,0.0,0.0,0.0652108727166103,-0.01799771390458446,0.006347285003957178,-0.0011553210232349207,0.0020712187868819607,0.005920606111901357,0,0.0859746467602388,0.0,0.14755509233231395,145.3402215611895,0.0021412138731213733,34.475565628804425,0.0,0,0,0,0
0.8240000000000691,0.0,1,1,1,1,1,1,1,1,0.0,0.0,0.0,0.06537277349641711,-0.017816021499351273,0.005981764608631073,-0.005308170880895497,0.006214440539648375,0.00560623834262755,0,0.08859762969675589,0.0,0.14752783522006382,145.14506433438916,0.001377698660683619,34.47779579962307,0.0,0,0,0,0
0.83400000000006,0.0,1,1,1,1,1,1,1,1,0.0,0.0,0.0,0.0649179021910635,-0.01751567313074826,0.004910391612996396,-0.002513423340052571,0.003934655318152415,0.016645032162669944,0,0.09605234067301631,0.0,0.1487190817314514,144.85628516241636,0.0010851803833372177,34.47966583877221,0.0,0,0,0,0
0.8440000000000509,0.0,1,1,1,1,1,1,1,1,0.0,0.0,0.0,0.06431368896251867,-0.01770712168596074,0.004574496510904485,-0.012669315008824733,-0.0003843241692569641,0.005826225867413845,0,0.09119475704586649,0.0,0.147611952124392,144.15002169082973,0.0027244534700733083,34.47862411487515,0.0,0,0,0,0
0.8540000000000418,0.0,1,1,1,1,1,1,1,1,0.0,0.0,0.0,0.06407383704078273,-0.018154532753818075,0.0038308744228356508,0.0014153314739042797,0.008638387139828401,0.002848742316404528,0,0.08835036564933885,0.0,0.14889768139042028,144.62927560702124,0.0008401245643236653,34.478201090493734,0.0,0,0,0,0
0.8640000000000327,0.0,1,1,1,1,1,1,1,1,0.0,0.0,0.0,0.06377365113954347,-0.018413118830727184,0.0031182115626148593,-0.010770626274746347,0.009443610485822514,0.002941112510101069,0,0.08472889398744628,0.0,0.14887493011590325,144.8023663709177,0.00042553953334026687,34.4771487576776,0.0,0,0,0,0
0.8740000000000236,0.0,1,1,1,1,1,1,1,1,0.0,0.0,0.0,0.06341423704622896,-0.018576519538768533,0.003078309456812693,0.0052231786907738975,0.0026581072245499006,-0.007716747492225135,0,0.0855602958611887,0.0,0.14780802847874258,145.75375864077088,0.0008007831905401282,34.47688165074464,0.0,0,0,0,0
0.8840000000000146,0.0,1,1,1,1,1,1,1,1,0.0,0.0,0.0,0.0636455399509583,-0.018619377475333668,0.003693799252162426,-0.0047269409092529574,-0.004350120427143472,-0.001324005623974064,0,0.08683364793733185,0.0,0.14791632367750204,145.39787173706878,0.0018510757611098355,34.47868852117519,0.0,0,0,0,0
0.8940000000000055,0.0,1,1,1,1,1,1,1,1,0.0,0.0,0.0,0.0630393227229541,-0.018576102573495467,0.0037043540750198653,-0.0014414301214049395,0.0034369354716660603,-0.0022211869936523644,0,0.0842273569959616,0.0,0.1487669209010584,145.94201985177276,0.0022061504871874575,34.480021827900785,0.0,0,0,0,0
0.9039999999999964,0.0,1,1,1,1,1,1,1,1,0.0,0.0,0.0,0.06311121758569914,-0.019038648126776185,0.004207490506513659,-0.004867692168355408,-0.0014705524241664157,0.008034114205482577,0,0.08583155138344865,0.0,0.14700914496259176,145.23996947948137,0.0015873965391500142,34.481394612693556,0.0,0,0,0,0
0.9139999999999873,0.0,1,1,1,1,1,1,1,1,0.0,0.0,0.0,0.06260697956890779,-0.01918931096028969,0.004509272122984656,-0.005317327448799137,-0.002301296741666405,0.012805052568489132,0,0.09429553383120055,0.0,0.14809619645163416,145.22939629572707,0.0015582871828186615,34.48465758500182,0.0,0,0,0,0
0.9239999999999782,0.0,1,1,1,1,1,1,1,1,0.0,0.0,0.0,0.06308416981231339,-0.019859987654112832,0.0037499481202861455,0.0005995423447980162,0.00027191763688030424,0.004087284862764764,0,0.08844388778394216,0.0,0.14935684744092578,144.83647483679547,0.0024562281895604797,34.4859148458239,0.0,0,0,0,0
0.9339999999999691,0.0,1,1,1,1,1,1,1,1,0.0,0.0,0.0,0.062311559415810784,-0.020282784838448982,0.004088118196312613,-0.007202843917115364,0.006237778737493569,0.0038934882444734255,0,0.09031531800595381,0.0,0.14854445016008425,145.75483397721325,0.0028051203580901733,34.48679114949172,0.0,0,0,0,0
0.94399999999996,0.0,1,1,1,1,1,1,1,1,0.0,0.0,0.0,0.06174267560929817,-0.020399043829712336,0.0044788752998962695,0.007292783165340333,0.0014235008719776336,-0.0020452116972047765,0,0.08437070094834064,0.0,0.14790437172417123,145.60435858465047,0.00156023875015502,34.48669713652454,0.0,0,0,0,0
0.9539999999999509,0.0,1,1,1,1,1,1,1,1,0.0,0.0,0.0,0.06160149769656112,-0.02009506249750013,0.004789488258980951,0.005972359028910142,-0.003762577829778514,-0.001831708799084734,0,0.08420191900056916,0.0,0.14820105714430148,145.6049658376365,0.001518635445250209,34.48709551932604,0.0,0,0,0,0
0.9639999999999418,0.0,1,1,1,1,1,1,1,1,0.0,0.0,0.0,0.061588304240992646,-0.019252974967997136,0.00496575078850743,0.0028236468671647822,-0.009360409489976237,-0.0007899415282379756,0,0.08625882720071387,0.0,0.1486492705725478,145.8089217411616,0.0015061025511472308,34.48817241302642,0.0,0,0,0,0
0.9740000000001601,0.0,1,1,1,1,1,1,1,1,0.0,0.0,0.0,0.06027385369306447,-0.01842827743689838,0.0060329375611548434,0.005676840268440648,-0.010193532694887108,0.004135590077136321,0,0.08309521480454866,0.0,0.1477875237987816,146.41222307362608,0.0025078391968607373,34.488651091639326,0.0,0,0,0,0
0.984000000000151,0.0,1,1,1,1,1,1,1,1,0.0,0.0,0.0,0.06001574991137472,-0.017493597250985295,0.005966016827375149,-0.006401056600527851,-0.005306870779515271,0.0169968941244102,0,0.08909569622138828,0.0,0.14732726326493173,146.14755428851302,0.0025094439591334533,34.49153725065965,0.0,0,0,0,0
0.9940000000001419,0.0,1,1,1,1,1,1,1,1,0.0,0.0,0.0,0.060297035447277804,-0.016835259642993726,0.0050488698583036895,-0.013453348244869172,-0.008943363152506002,0.012592926601995269,0,0.09337832285527418,0.0,0.14777984637930802,145.50574613324324,0.0025362047784349036,34.494603346454966,0.0,0,0,0,0
1.0040000000001328,0.0,1,0,0,1,1,1,1,1,-0.00953198683454742,0.0,0.0022666647257288935,0.060791957054035554,-0.016694399848188886,0.003897062763562366,-0.009380620993386393,-0.00125014761432548,0.01407701820513333,4,0.08882072987816403,16.98285584724558,0.14889582129072546,145.3927356911454,0.0021101028222086163,34.49610855047722,10.0,0,0,0,0
1.0140000000001237,0.0,1,0,0,1,1,1,1,1,9.967962895085763e-05,0.0,0.013599580761210471,0.06178042378538648,-0.016847345116874086,0.002850676894829198,-0.007218979939113383,-0.0015967906413239294,0.006085437393627697,4,0.08885987956217316,82.43110911968785,0.1495451628767423,144.91503486709752,0.0018162322392871223,34.497901819469156,50.0,0,0,0,0
1.0240000000001146,0.0,1,0,0,1,1,1,1,1,0.009759362973168552,0.0,0.024930750024793547,0.0655121039373023,-0.019438039418709595,-0.0038025838347643553,0.01556168113389553,-0.009460609625031662,0.005764044038116893,4,0.09454988940924632,48.44060050083634,0.1372489801710988,145.1594925638173,0.021059459022814933,34.4941524778529,50.0,0,0,0,0
1.0340000000001055,0.0,1,0,0,1,1,1,1,1,0.019368205657848536,0.0,0.03625871710631553,0.06328867237312984,-0.00316189886383424,-0.04077858268401974,-0.039127447732365234,-0.1228975142482462,0.0256332723479518,4,0.07661091043917803,80.63923546848028,0.14012071752178165,136.78749690296488,0.06685862799886341,34.4463908693878,50.0,0,0,0,0
1.0440000000000964,0.0,1,0,0,1,1,0,0,1,0.028988830252678705,0.0,0.047582027006911935,0.0649895408565078,0.014352002981158837,-0.03112476592185453,0.004705368107862892,0.05392879469388641,0.1171782002632696,4,0.0738042528183531,45.92632526666823,0.148142292917478,131.92485085640578,0.0666937761769732,34.528063099101644,10.0,0,0,0,0
1.0540000000000873,0.0,1,0,0,1,1,0,0,1,0.03863033989327282,0.0,0.058899225325900875,0.04277931296073631,0.011354302884467765,-3.1844151091904452e-06,-0.08905467689455958,0.3024202708843079,0.24280604748785078,4,0.17611338832688958,33.80095860618677,0.16298058742981336,146.74410553031035,0.1332920831807362,34.86471731851763,0.0,0,0,0,0
1.0640000000000782,0.0,1,0,0,1,1,0,0,1,0.04824351555930206,0.0,0.07020885844759077,0.026860685774022623,0.016011684259221896,-0.0009433051494327836,-0.40155571557388364,0.13967698161708847,0.2661958163310121,4,0.22474080488856107,17.207128185890237,0.12733805021947525,160.56400514880633,0.05511376082721303,35.13379979629059,0.0,0,0,0,0
1.0740000000000691,0.0,1,0,0,1,1,0,0,1,0.05788957905706223,0.0,0.0815094737279872,0.022218705530885292,0.026793839214328305,-0.028360812592209492,-0.435826350898288,-0.17180414701827676,0.3295736335449113,4,0.2802466732183272,8.291747251236075,0.1045806748265041,145.15329754473063,0.19781270212068042,35.34821011789076,0.0,0,0,0,0
1.08400000000006,0.0,1,0,0,1,1,0,0,1,0.06751541729704261,0.0,0.09279961968137498,0.012005290780872755,0.027901397586634638,-0.007793488637912636,-0.46994845070949826,-0.2689968275069833,0.2354788565557416,4,0.27496444300461087,5.32804928222132,0.08822739535041109,127.89078828260203,0.3759499093327293,35.31894218425699,0.0,0,0,0,0
1.094000000000051,0.0,1,0,0,1,1,0,0,1,0.07714069404530285,0.0,0.1040778461667514,-0.007565037520118844,0.026497540913464512,0.0036626173136903566,-0.7016100059621984,-0.3246541360603389,0.1082066239141809,4,0.14914793673204563,4.5496480048741565,0.08569855343574959,129.18196220136423,0.31967797844091095,34.98787058217853,0.0,0,0,0,0
1.1040000000000418,0.0,1,0,0,1,1,0,0,1,0.08674491381573032,0.0,0.11534270457408684,-0.030701835022356756,0.03359599139811101,-0.0037488848983909,-0.511383520806758,-0.3479514653543269,0.04037889638208913,4,0.1827645140983588,5.636084850666314,0.08079523922315424,127.82098498700434,0.09995401779218374,34.91855153550044,0.0,0,0,0,0
1.1140000000000327,0.0,1,0,0,1,1,0,0,1,0.09638442347953217,0.0,0.12659274801038858,-0.05127355596273836,0.04277658524183367,-0.00933380932497693,-0.3361090155664763,-0.3419003797958965,0.06382631328700186,4,0.23889537917834844,8.273773327107671,0.10400799649669254,125.78042945147527,0.02046086431850463,34.972254049161855,0.0,0,0,0,0
1.1240000000000236,0.0,0,0,0,0,1,0,0,1,0.1059813976474711,0.0,0.13782653148554438,-0.07501759072620677,0.04043843469554673,0.022380213119833722,-0.46167136925943275,-0.2436652519280168,0.10051692726025337,4,0.2634937376329586,12.272443831760507,0.1397887140946432,134.43033166251251,0.035478965967078016,35.081573236191055,10.0,0,0,0,0
1.1340000000000146,0.0,0,0,0,0,1,0,0,1,0.11561279119194455,0.0,0.14904261209792125,-0.0942959652876702,0.04103945672658971,0.05989946939564093,-0.6800628714068132,-0.27889492081071493,0.1809187788171726,4,0.25636987896342656,11.893914117355488,0.15044733051979006,158.08288606254766,0.0474700342635373,35.303790849278364,50.0,0,0,0,0
1.1440000000000055,0.0,0,0,0,0,1,0,1,1,0.12520426763092693,0.0,0.1602395492196962,-0.07663631749752275,0.05060747300874481,0.06358033866072463,-0.5941067554956404,-0.44421826352042204,0.28759777762382654,4,0.3529638683057275,10.18751453771844,0.15774542293113628,172.47196298450814,0.21553986497653904,35.686399779387294,55.0,0.0,0.0,0.09999999999999999,0.0
1.1539999999999964,0.0,0,1,1,0,1,0,1,1,0.1348269971922531,0.0,0.171415904681895,-0.023013789755745216,0.02870380851323756,-0.0006829518102765436,0.004829134394409407,-0.3112761199171126,0.3186441572560829,4,0.3404931608120524,10.11382754147628,0.12302735075423266,197.5962018180769,0.2696742242896216,35.696383834393984,75.0,0,0,0,0
1.1639999999999873,0.0,0,1,1,0,0,0,1,1,0.14442432757643967,0.0,0.18257024295911492,0.01694833083017984,0.016437991627993715,-0.034077562194632684,0.7420980300096842,0.002979855948992839,0.3524355433175983,4,0.3325299505678986,7.0203766921484405,0.1123940835651502,167.9964447267903,0.19478202703500946,35.774858283357524,60.0,0,0,0,0
1.1739999999999782,0.0,0,1,1,0,0,0,1,0,0.15402022592079778,0.0,0.1937011313539081,0.051789800588252964,0.014723561829809719,-0.05758471691208125,1.346392085677036,0.038160263647668224,0.2934379325151901,4,0.25844522352042626,5.936310270129176,0.10387763483403409,131.220394718339,0.18261970315634068,35.633406889352315,25.0,0,0,0,0
1.1860000000001492,0.0,0,1,1,0,0,1,1,0,0.16364364140984528,0.0,0.20480714018080148,0.07309335173905518,-0.008294401253786025,-0.10888379833093212,1.560708971203099,0.0012023538189453531,0.18608832904378547,4,0.1415577324867093,4.774499939463734,0.07705011731968903,122.66529814108253,0.2088215261770666,35.28759466702871,10.0,0.0,0.13999999999999999,0.0,0.0
1.19600000000014,0.0,0,1,1,0,0,1,1,0,0.1738891624819098,0.0,0.21588684294993013,0.06716767321315371,-0.04460519443464417,-0.11894559466278308,0.6209381559566997,0.06350311600786354,0.09009157355580831,4,0.21281700283389265,4.482653498964586,0.10090838426525575,132.8807289270326,0.04600667609201263,34.930106961767706,0.0,0,0,0,0
1.206000000000131,0.0,0,1,1,0,0,1,1,0,0.18313231738071037,0.0,0.22693881655025994,0.0587538299300571,-0.04978936072604035,-0.09942973207806516,0.12834649917861762,0.19449513738664367,0.05003104695432389,4,0.34070409633592497,4.6125384696039955,0.10395972774572841,144.004661724718,0.03499962818136327,34.79430909649012,0.0,0,0,0,0
1.2160000000001219,0.0,0,1,1,0,0,1,1,0,0.19243526348836434,0.0,0.23796164143237633,0.053312281766145324,-0.03596559513715071,-0.08189934966879889,0.06727005542469597,0.2510963342695458,0.14857034354493756,4,0.29766189495099593,5.7677524199028145,0.10917900162580658,152.93391028903451,0.08570281776167452,34.870747682895896,0.0,0,0,0,0
1.2260000000001128,0.0,0,1,1,0,0,1,1,0,0.20236863121869753,0.0,0.24895390179081553,0.06303963328125498,-0.021711734781467016,-0.05448013056824577,0.18222298609026555,0.3828138929473875,0.26214263963629275,4,0.20340638458809676,3.9646279401301916,0.09129811314296447,169.55800128635332,0.2671042865926434,35.09625896471095,0.0,0,0,0,0
1.2360000000001037,0.0,0,1,1,0,0,1,1,0,0.21224850781990345,0.0,0.25991418574591496,0.06741556140629366,-0.0076723635687999,-0.013136359750321356,0.24706558765443185,0.3904984254845281,0.3092555876828392,4,0.20373923675826716,2.331231668621178,0.09386566818709982,177.2065741964763,0.1487996866791001,35.397220748220434,0.0,0,0,0,0
1.2460000000000946,0.0,0,1,1,0,0,1,1,0,0.2221764401792478,0.0,0.2708410855251596,0.09143538008816407,-0.007608484407669753,0.004691534666960193,0.20146788937098448,0.18501192517078666,0.29524907198721895,4,0.18253572124582018,3.106692754652072,0.1085679244133911,163.53397910742916,0.08838911772299207,35.469637325832615,0.0,0,0,0,0
1.2560000000000855,0.0,0,1,1,0,0,1,1,0,0.23188984659266346,0.0,0.2817331976440005,0.1204695249548641,-0.009184746806115307,0.02242239988330464,0.07510781937844077,-0.11300645106023743,0.24796827814982872,4,0.1461034262357493,4.672790407037241,0.11682566712625161,161.36079643483595,0.19422968615677594,35.43157631472821,0.0,0,0,0,0
1.2660000000000764,0.0,0,1,1,0,0,1,1,0,0.24050241749736678,0.0,0.2925891230861224,0.14441993680178514,-0.006558517783495302,0.05347319704361323,0.07080175322700719,-0.26050652896529886,0.22650888409390174,4,0.16463891084195242,6.725348161348319,0.13238089229883473,165.50054280685288,0.09796953494889826,35.44702733283509,0.0,0,0,0,0
1.2760000000000673,0.0,0,0,0,0,0,1,1,0,0.2501398958168632,0.0,0.30340746748313796,0.16116895158129763,-0.008531118971224669,0.07560106242335696,0.16121817360920598,-0.37212256006087674,0.23110289047331617,4,0.17229754454993834,7.432605420021799,0.12622689998504394,163.72095318689856,0.07135337556671062,35.557718383682484,20.0,0,0,0,0
1.2860000000000582,0.0,0,0,0,0,0,1,1,0,0.2592564056244726,0.0,0.3141868412936847,0.18187518129491634,-0.015312399554679794,0.08300444476431303,0.3263150653343031,-0.4502268934769431,0.25013869165104863,4,0.16398315512917166,7.380412412469826,0.1124723262576571,172.23669785785816,0.037105329764338224,35.76506377503047,50.0,0,0,0,0
1.2940000000000964,0.0,0,0,0,0,0,1,1,0,0.26867191317642464,0.0,0.32492585998190165,0.19419678069635454,-0.03659038483244618,0.09697378384608164,0.2967237935275168,-0.3761790948703069,0.26733087871462635,4,0.15442857613612754,5.8003143289371675,0.10398856360345263,177.98815222865375,0.0462828497333041,35.998316074191294,50.0,0,0,0,0
1.3040000000000873,0.0,1,0,0,1,0,1,1,0,0.27820676750986123,0.0,0.335623144195264,0.21200737931212485,-0.06591420774106103,0.05938037165614811,0.3793469936772998,-0.21242774219808278,0.32889623213057845,4,0.16056173981975858,3.9342272381582113,0.09043415626906894,159.2294083544254,0.2589490379249064,36.18452706934657,70.0,0,0,0,0
1.3140000000000782,0.0,1,0,0,1,0,0,1,1,0.2876927976442162,0.0,0.3462773199417507,0.20913167556666495,-0.05972481693352338,0.05150434032710816,0.1499611090637017,0.3681637474768884,0.32434039992340297,4,0.1479525775323106,1.9429819173619336,0.07242074828718764,193.24604799806167,0.1467742103941707,36.42705198543799,60.0,0.0,0.0,0.0,0.13999999999999999
1.3240000000000691,0.0,1,0,0,1,1,0,1,1,0.2971811479216916,0.0,0.3568870187663246,0.2033980202400795,-0.037180140134632576,0.024957309238741586,0.036342782001865144,0.9083174258189537,0.23837298991869438,4,0.20049582289891096,0.6684931705358996,0.08196557151828138,242.1094819046216,0.10743396764803848,36.0784941000253,35.0,0.16,0.0,0.0,0.0
1.33400000000006,0.0,1,0,0,1,1,0,1,1,0.3066665095098754,0.0,0.36745087792670095,0.2492677547944437,9.378900942316209e-05,0.020508747740944765,0.891755892390617,0.25781812992084424,0.24886425339601134,4,0.25263451668050624,6.973405157920863,0.15969234232906823,125.4981424926541,0.256088467843672,35.745213292202834,25.0,0,0,0,0
1.344000000000051,0.0,1,0,0,1,1,0,0,1,0.3161503627290002,0.0,0.3779675405683822,0.2607023960307481,0.013316759714618842,0.00021441461203144626,0.9667553409922156,0.20423044807930624,0.3819872886037001,4,0.08078165386149805,4.661921483692138,0.14455290561381945,167.32656439592293,0.5522933859643129,36.49163310090929,0.0,0,0,0,0
1.3540000000000418,0.0,1,0,0,1,1,0,0,1,0.3255958569558061,0.0,0.38843565589893647,0.3080436032765621,-0.036164543677605375,0.023314839109440964,0.28482303432708866,0.3809319313382829,0.44679741809482,4,0.07827248669475677,6.886627364844218,0.17312661510843583,195.58141935597635,0.5057789851205088,36.84565692633221,0.0,0,0,0,0
1.3640000000000327,0.0,1,0,0,1,1,0,0,1,0.3350595251796249,0.0,0.39885387936149763,0.31547263804710923,-0.056234007911440106,0.051216992480249655,-0.8514283101260004,0.2869385977564559,0.41113889896932954,4,0.11120433035198281,3.2211233110429434,0.09695217184953187,197.92993634663117,0.2422815327377077,37.03997664383648,0.0,0,0,0,0
1.3740000000000236,0.0,1,0,0,1,1,0,0,1,0.34449643380126,0.0,0.4092208728074641,0.3410937827238553,-0.042201669559797206,0.057470443973533555,-0.949390751874231,0.004110143906446248,0.36711919268427795,4,0.07632654843114851,2.5393791090579736,0.0844123463608473,186.3009273313516,0.1826219053444491,36.95138585594742,0.0,0,0,0,0
1.3840000000000146,0.0,1,0,0,1,1,0,0,1,0.3539243068529399,0.0,0.419535304668375,0.32919203186044843,-0.013551783886541283,0.07521706710233952,-0.5278927324713204,-0.061064887377842915,0.32689318672958567,4,0.11375711734319852,1.6139980964245364,0.103838810499933,190.31547274846722,0.2926716915280638,36.773601060804474,0.0,0,0,0,0
1.3940000000000055,0.0,1,0,0,1,1,0,0,1,0.36332869909771404,0.0,0.4297958501269407,0.32963161564421506,0.0001992205406010051,0.09346703843284954,0.13163220109760673,0.05724923227193601,0.2801834671713287,4,0.1657376904738938,1.4799651030754881,0.09921264895216006,186.48163711599352,0.26700465288676734,36.64983251505722,0.0,0,0,0,0
1.4039999999999964,0.0,1,0,0,1,1,0,0,1,0.3727292976174526,0.0,0.4400011912872066,0.30384326470619977,0.0007294175680258438,0.09297529080216596,0.3822099373453379,0.19690267240042397,0.3542780394282981,4,0.16723111754959075,1.6249463760772087,0.0945990479575448,168.31053844567458,0.11010888022605436,36.79690677490835,0.0,0,0,0,0
1.4139999999999873,0.0,1,0,0,1,1,0,0,1,0.3821239808594116,0.0,0.45015001734382754,0.29633149110748846,-0.006183391663897109,0.08018769758052802,0.23902849431811163,0.27689061766688555,0.4243080399580531,4,0.13898644581369504,2.7106127494566907,0.10176674656629081,151.85403788678803,0.2335116464349285,37.10991657906952,0.0,0,0,0,0
1.4239999999999782,0.0,0,0,0,0,1,0,0,1,0.39152136372906565,0.0,0.46024102475043177,0.3052098138643184,-0.011067003010588319,0.07196868693047363,-0.10667874879065117,0.2559387290212463,0.446774376143771,4,0.10749511263292359,2.7252766895379414,0.09963768336349892,141.03420024903798,0.1579666990142603,37.50518858295724,20.0,0,0,0,0
1.433999999999969,0.0,0,0,0,0,1,0,0,1,0.400877336795994,0.0,0.4702729173870524,0.299756003434952,-0.021622723447680427,0.0653814674598441,-0.34183985246387194,0.20448808224678028,0.4630226366971275,4,0.12101774173308948,2.8063595259130283,0.11504272874956586,151.84994812566916,0.050020940371343414,37.65922531873143,50.0,0,0,0,0
1.44399999999996,0.0,0,0,0,0,1,0,0,1,0.41024209066634393,0.0,0.48024440672660523,0.30210463409971894,-0.02046698293469179,0.04875329461686679,-0.37148537622583866,0.16395602909688986,0.42522498534319436,4,0.1652273157281638,2.412716666771349,0.117896248609455,171.58427774934702,0.239793724116951,37.64722060764955,50.0,0,0,0,0
1.4539999999999509,0.0,0,1,1,0,1,0,0,1,0.41958763483196015,0.0,0.4901542120003906,0.3493250308941325,-0.013213269802975387,-0.041049423672322366,-0.5840047473055604,0.22987608409469423,0.38065643984028613,4,0.1826635526039509,2.1594815472197118,0.08291315135303809,137.91031939003946,0.17839235351254712,37.490764846271176,70.0,0,0,0,0
1.4639999999999418,0.0,0,1,1,0,0,0,1,1,0.4289101387688699,0.0,0.5000010603626,0.3593197690031208,-0.008878927012248343,-0.1069474856069998,-0.15615027613504454,0.3570550887927928,0.37748479446322813,4,0.20314524186893784,1.7241637401053893,0.07781934532181435,119.26625031205762,0.2295790194240388,37.30580420507952,55.0,0.0,0.0,0.11999999999999998,0.0
1.47400000000016,0.0,0,1,1,0,0,1,1,0,0.4382295396049171,0.0,0.5097836870538036,0.3391014911902594,-0.023016714250141315,-0.1692296761764927,0.726722357933508,0.4862136606995532,0.38976261471360857,4,0.22437174238762553,0.3990446348670011,0.07775477822088343,134.59597154407948,0.27586933490915255,37.043411094508315,35.0,0.0,0.16,0.0,0.0
1.484000000000151,0.0,0,1,1,0,0,1,1,0,0.4475270992445198,0.0,0.5195008355634003,0.3190348955164959,-0.0349426105400919,-0.16950912346913788,-0.001051746751875346,0.3459559899185724,0.4053242656911312,4,0.2679313248358025,2.887035084719233,0.10901579434516587,93.06870294100897,0.18234568995288525,36.80775071641001,0.0,0,0,0,0
1.4940000000001419,0.0,0,1,1,0,0,1,1,0,0.4567999001679653,0.0,0.5291512577910076,0.3446627880403133,-0.015444240474459164,-0.18552185129296545,0.02514464942669538,0.2549555388737354,0.46500483668330106,4,0.24660103696655744,4.133204450745028,0.13439996713875385,117.25575844228152,0.47340947379617493,36.921673249631915,0.0,0,0,0,0
1.5040000000001328,0.0,0,1,1,0,0,1,1,0,0.46607132803571205,0.0,0.5387337142067714,0.39881388901181986,-0.021807901894777205,-0.14496568609114785,0.20733663181411896,0.11209023758177333,0.5447431589889525,4,0.11897676797695375,3.281421081584822,0.14547127006037056,170.52486119155938,0.8014497382469168,37.7219981687781,0.0,0,0,0,0
1.5140000000001237,0.0,0,1,1,0,0,1,1,0,0.47534256516801093,0.0,0.5482469740105752,0.417928792584569,-0.04115340094945577,-0.10855972193312283,0.2147951509432614,-0.16150372798540916,0.5756218842890124,4,0.1049745057106362,2.6065769650583617,0.13340489716326892,190.49171744100826,0.44159972515958845,37.958899696754514,0.0,0,0,0,0
1.5240000000001146,0.0,0,1,1,0,0,1,1,0,0.48458528166089865,0.0,0.5576898152901278,0.43649362583863954,-0.03754788125935715,-0.07289151202504038,0.3221107785971602,-0.045815195430971206,0.5603255098620091,4,0.11528850811273761,1.9768911975114212,0.13426848294908553,197.1599137583762,0.3527759355595603,38.27867151514684,0.0,0,0,0,0
1.5340000000001055,0.0,0,1,1,0,0,1,1,0,0.493813092520941,0.0,0.5670610251779092,0.4578955914090101,-0.031194493559866313,-0.03545997970770348,0.30659921432373183,0.03719722068079547,0.5511755849583917,4,0.08225976824574589,1.5628902319666584,0.12998139325307662,187.69106285330622,0.13685956099202867,38.24565452535802,0.0,0,0,0,0
1.5440000000000964,0.0,0,1,1,0,0,1,1,0,0.5030202131432524,0.0,0.5763594000069554,0.4774689918103411,-0.0336559993779848,0.0023710448409422664,0.1998945717318627,-0.1412646831710463,0.5540111260093099,4,0.07826709735457651,1.7072859323660121,0.12154424496341906,167.24834435476157,0.1152254238560464,38.36274246483515,0.0,0,0,0,0
1.5540000000000873,0.0,0,1,1,0,0,1,1,0,0.5122319965845904,0.0,0.585583745465461,0.4820548708645128,-0.047646560366114386,0.01557246682252579,0.04298824978844718,-0.2213133279531786,0.5019369320880697,4,0.12898947453232154,2.484426596065063,0.1199956633155852,157.33647970231863,0.3647922979408147,38.295836461178475,0.0,0,0,0,0
1.5640000000000782,0.0,0,1,1,0,0,1,1,0,0.5213846390423386,0.0,0.5947328767501799,0.4963805707022638,-0.044321988900806124,0.032088847923824715,-0.17474187554283893,-0.13290915096840078,0.5192833209022659,4,0.160119207428736,3.7383917204475123,0.12441839664964796,145.24184541510587,0.17066256432043447,38.31047159785849,0.0,0,0,0,0
1.5740000000000691,0.0,0,0,0,0,0,1,1,0,0.5305424500018284,0.0,0.6038056187186057,0.49319415712171566,-0.03216393644986842,0.040085501394498,-0.1856565960627109,-0.2674433210740073,0.5717518570238159,4,0.1172026486968916,3.295297392462428,0.10396938078470379,141.80395282608666,0.2091739821736156,38.742759342004256,20.0,0,0,0,0
1.58400000000006,0.0,0,0,0,0,0,1,1,0,0.539699787737175,0.0,0.61280080603991,0.4832162659717704,-0.0304354144281549,0.03629177997930243,-0.23290322658150053,-0.2376122797923252,0.6165102427703746,4,0.09023491194599995,2.3418181549845984,0.10891569627954027,149.22677754985608,0.1305492240270847,39.17681867849711,50.0,0,0,0,0
1.594000000000051,0.0,0,0,0,0,0,1,1,0,0.5488125708058631,0.0,0.6217172833446216,0.4847672884555517,-0.04581332344028872,-0.00931795058741794,-0.0683025692768987,-0.0833577908442941,0.621799171739299,4,0.1015031707887013,1.357026201389137,0.10386122388622714,157.6742177934371,0.07215391705875662,39.42154180558136,50.0,0,0,0,0
1.6040000000000418,0.0,1,0,0,1,0,1,1,0,0.5579333837597755,0.0,0.6305539053730251,0.5142080450667948,-0.06880354346922121,-0.060165054608380564,0.014375097227280113,-0.020065196873858174,0.6637772931636868,4,0.1313726501020303,1.28154707473136,0.09304975284207254,130.76301489349422,0.5999611784287913,39.69973063617946,70.0,0,0,0,0
1.6140000000000327,0.0,1,0,0,1,0,0,1,1,0.5670115493185367,0.0,0.6393095371222622,0.53632856885299,-0.06799217214010791,-0.11306086939838059,0.4936068895764653,0.2164685837400333,0.7496183102787252,4,0.17732158892345457,0.9161941835128309,0.08072413777300341,105.68998351694533,1.047965827146692,40.33774144837359,75.0,0.0,0.0,0.0,0.13999999999999999
1.6240000000000236,0.0,1,0,0,1,1,0,1,1,0.5760821461947884,0.0,0.6479830539921146,0.5164727581448543,-0.04594805668776344,-0.13097295189732197,0.26994599091487775,0.3885047341368729,0.6713189931967011,4,0.17971287342948192,0.7130338446160793,0.05915297778778853,143.89792486650327,0.8695652109063685,40.220269957298036,30.0,0.16,0.0,0.0,0.0
1.6340000000000146,0.0,1,0,0,1,1,0,0,1,0.5851402904493357,0.0,0.6565733419294512,0.4945381489438476,-0.038369705966165915,-0.1738615922627997,0.2678061722551217,0.434663859384741,0.5775987483430852,4,0.17846205711663282,1.5373953853890074,0.08915381112505578,109.32284518474364,0.8147966275110963,38.71186621336177,10.0,0,0,0,0
1.6440000000000055,0.0,1,0,0,1,1,0,0,1,0.5941725269548924,0.0,0.6650792975713203,0.5428621462193137,-0.05832715550648743,-0.1894339052798396,0.19934032693847992,0.43001034783909703,0.6426906870047917,4,0.1501290808462549,5.9572409366097645,0.1858679019831443,75.17498660406837,0.774196557449367,39.08025364714685,0.0,0,0,0,0
1.6539999999999964,0.0,1,0,0,1,1,0,0,1,0.6031887030035492,0.0,0.6734998283866692,0.5614996580096738,-0.07093153848765928,-0.11406808546380165,-0.39839567698575196,0.34083578437267187,0.628123595376019,4,0.13548654457618806,4.179900223442556,0.17227144848117235,206.95608156771897,0.257513117081686,39.505367174478025,0.0,0,0,0,0
1.6639999999999873,0.0,1,0,0,1,1,0,0,1,0.6121867956869574,0.0,0.6818338528166723,0.5656772107876539,-0.0704386316189342,-0.04223488833899511,-0.9464106252800744,0.2722275022541417,0.656253197423617,4,0.1508935706872434,2.1059405313457513,0.12062678310710792,271.47261064788864,0.24611161549165406,39.6254380224192,0.0,0,0,0,0
1.6739999999999782,0.0,1,0,0,1,1,0,0,1,0.6211622317016484,0.0,0.6900803004136494,0.5824446756042378,-0.0371795488354674,-0.004416292855557984,-0.5522622093493342,0.010418516338514858,0.6450008056933407,4,0.13096023700012807,1.4567023474997984,0.1231530803104142,250.26427713631998,0.07868799729267018,39.76887418051933,0.0,0,0,0,0
1.683999999999969,0.0,1,0,0,1,1,0,0,1,0.6301313814464162,0.0,0.6982381119785577,0.5733768332751582,-0.024572335285669246,0.022507459000585338,-0.14526933896193883,-0.014916161609921399,0.6867844131698667,4,0.10444904133103017,0.9087024970891845,0.10506181998639455,219.40276823735402,0.19548629028197784,40.0492468158464,0.0,0,0,0,0
1.69399999999996,0.0,1,0,0,1,1,0,0,1,0.6390585343402009,0.0,0.7063062396970385,0.5560493424615132,-0.02958790565318364,0.04549995107375604,0.09534962715325791,0.16844708642799866,0.7188368879536905,4,0.11094255001040562,1.2037911028522035,0.09962742765026286,200.61503386636747,0.3547584791071001,40.290311217316585,0.0,0,0,0,0
1.7039999999999509,0.0,1,0,0,1,1,0,0,1,0.6479841095101668,0.0,0.7142836472740015,0.5712822856608444,-0.043313243742421036,0.08937178270852862,0.049039126616825766,0.23840940284387185,0.7302839850215431,4,0.1478562777860432,2.662653517919591,0.11497008436737373,185.4430128185585,0.2964801749274768,40.83230394168847,0.0,0,0,0,0
1.7139999999999418,0.0,1,0,0,1,1,0,0,1,0.6568691336717455,0.0,0.72216931006673,0.5899291045888138,-0.05658741223554323,0.11210406232205825,-0.24499505095118784,0.04552829754432846,0.6853354100876444,4,0.13882577457041637,2.6029625283586113,0.10645584698008184,166.27611260564308,0.4237168794345205,40.8469519149717,0.0,0,0,0,0
1.72400000000016,0.0,0,0,0,0,1,0,0,1,0.6657540372806601,0.0,0.7299622152164887,0.593121661578237,-0.06441072130039588,0.11216253376273704,-0.43745241640201155,-0.0026959868519792823,0.6647265869304211,4,0.18736173521510877,2.1308575298383574,0.10619306734219998,160.90357449451207,0.35791588322615997,40.81204216423781,20.0,0,0,0,0
1.734000000000151,0.0,0,0,0,0,1,0,0,1,0.6746073936320635,0.0,0.7376613617786193,0.5863430825030619,-0.06662403873155269,0.11977611817519693,-0.5403959346927393,0.13001154662048986,0.6548129911189275,4,0.22045222698175201,1.2269640165958868,0.09902345811091341,173.88232211385474,0.31118599217449194,40.957731342363786,50.0,0,0,0,0
1.7440000000001419,0.0,0,0,0,0,1,0,0,1,0.6834262584156909,0.0,0.7452657608511035,0.558831528307797,-0.05349911456662465,0.062473598152917094,-0.25624192501375687,0.28058644669547095,0.7363579902106999,4,0.22047608468845983,1.7038674455104978,0.11504131133149913,158.12394367746626,0.5758881986309285,41.191450537277085,50.0,0,0,0,0
1.7540000000001328,0.0,0,1,1,0,1,0,0,1,0.692252398870037,0.0,0.7527744357015821,0.5888855206348221,-0.031123101011139423,-0.015986322105417262,-0.27034679867075206,0.45931941000142046,0.6428844351939427,4,0.216919504209599,1.1005624900760913,0.07997527204971863,107.62558994672307,0.5619570830301441,41.13255861466109,70.0,0,0,0,0
1.7640000000001237,0.0,0,1,1,0,0,0,1,1,0.7010198191047363,0.0,0.7601864218928084,0.6036536989532225,-0.01801146664992252,-0.11690518316419463,0.17707083623575465,0.5789156603899612,0.6232286608485912,4,0.2503856710449217,0.7114864390457358,0.06934554340287882,79.54019704268987,0.0995950313820062,40.75201678678347,55.0,0.0,0.0,0.12999999999999998,0.0
1.7740000000001146,0.0,0,1,1,0,0,1,1,0,0.7097861181944827,0.0,0.7675007674065241,0.6176263678603525,-0.047033778485195715,-0.13482008729468356,0.8275882620943207,0.5416490824023273,0.671168277152133,4,0.2419087034337612,0.5578619845240576,0.09547736543781513,118.68796233184602,0.7772088151886427,40.8023727124976,30.0,0.0,0.16,0.0,0.0
1.7840000000001055,0.0,0,1,1,0,0,1,1,0,0.718540441682651,0.0,0.774716532765739,0.5936302204553792,-0.0715377239025166,-0.10511470196164766,-0.21373553967624415,0.18142209359825529,0.7275904756376592,4,0.22421466256992736,0.8190282281139807,0.08468642967474495,108.71335765616386,0.7275598070663234,41.17719988280026,0.0,0,0,0,0
1.7940000000000964,0.0,0,1,1,0,0,1,1,0,0.7272506597414635,0.0,0.781832791155401,0.6424392326449223,-0.08422767021042114,-0.1276720130104987,-0.6646535190716695,0.202180510406475,0.7189731657384053,4,0.2588928133103223,1.831486427850575,0.1185504532791208,99.53916135923262,0.6615258081140327,41.14658414347084,0.0,0,0,0,0
1.8040000000000873,0.0,0,1,1,0,0,1,1,0,0.7359549631048643,0.0,0.7888486285414381,0.6434187004103273,-0.06372982600399953,-0.0956753926532651,-0.5196245101777138,0.01063486140787576,0.7516127872022537,4,0.19702511866173017,4.151333735929268,0.19037492839839937,142.83209662578997,0.4899880100751739,41.70997171558386,0.0,0,0,0,0
1.8140000000000782,0.0,0,1,1,0,0,1,1,0,0.7446062678537491,0.0,0.7957631437881606,0.6679566378128676,-0.07012853857854977,-0.08093571032705574,0.10597933605323687,-0.2821882890247486,0.7615569225489459,4,0.19783474284683744,2.8300143158494646,0.16499673449265842,182.04299823199412,0.5874112911096239,41.71456684323129,0.0,0,0,0,0
1.8240000000000691,0.0,0,1,1,0,0,1,1,0,0.7532597198793265,0.0,0.8025754487740052,0.6627076636307038,-0.07384093593707837,-0.05651873003976176,0.5929215299959323,-0.21193402367584,0.7365638371689269,4,0.21195981955171334,1.799438114118243,0.16149628550230546,202.26049069947925,0.2544527564164776,41.780866327301744,0.0,0,0,0,0
1.83400000000006,0.0,0,1,1,0,0,1,1,0,0.7618914178392379,0.0,0.8092846685056084,0.6811728861913544,-0.07386167845000355,-0.020416777230902412,0.9440160952980874,-0.16471123831538856,0.7429562172249797,4,0.22196660620543046,1.0784236785700065,0.1402273386160241,191.6480273248285,0.2799103674900625,41.76245190713611,0.0,0,0,0,0
1.844000000000051,0.0,0,1,1,0,0,1,1,0,0.7704724006083289,0.0,0.8158899412301931,0.6870780307547326,-0.08381105958580183,-0.0080296250455138,0.9649170154033557,-0.21926168089387943,0.7038442849277272,4,0.26124847569469556,1.0193286496622946,0.11647066741260896,162.65114433572563,0.3393679100959224,41.57862207540869,0.0,0,0,0,0
1.8540000000000418,0.0,0,1,1,0,0,1,1,0,0.7790701892851565,0.0,0.8223904185462548,0.7060262460273876,-0.08805925056609684,0.026906969072014092,0.5040353616156177,-0.3337853661211927,0.7188055399796949,4,0.26990682277061967,1.4740922053455796,0.10632537366128585,151.86502559626598,0.31419193700740333,41.722100897156686,0.0,0,0,0,0
1.8640000000000327,0.0,0,1,1,0,0,1,1,0,0.7876302069430715,0.0,0.8287852655125333,0.7113728507279664,-0.08467186757104453,0.04764724876411123,-0.048524174025366296,-0.3257850628260718,0.7714653462986957,4,0.24729301744151302,2.627188272226351,0.11379413411253636,136.99792190918626,0.5054225923989657,42.04104910719396,0.0,0,0,0,0
1.8740000000000236,0.0,0,0,0,0,0,1,1,0,0.7961393020355636,0.0,0.8350736607552541,0.7119195484128664,-0.06876202684814656,0.07504817582995671,-0.27707508027427274,-0.30617354824765464,0.8642053775361137,4,0.17608288037152123,3.3001973290191216,0.10732483019055154,126.97923453864223,0.8532518363884254,42.99493805315898,20.0,0,0,0,0
1.8840000000000146,0.0,0,0,0,0,0,1,1,0,0.804637086137926,0.0,0.8412547965736297,0.7047645668502139,-0.06330839889859138,0.10039021911418927,-0.30857333407964377,-0.31079190967250075,0.9478961959531564,4,0.23739929601024584,1.9835588949370844,0.10436075626081982,129.19004923349203,0.7508209351789095,44.03767027926867,50.0,0,0,0,0
1.8940000000000055,0.0,0,0,0,0,0,1,1,0,0.8131158965608133,0.0,0.8473278790436015,0.6963592015796705,-0.07225913323544939,0.0751688946875463,-0.2750510718856153,-0.16026113929751432,0.9190948105060575,4,0.2708829922949883,0.678876583668972,0.0956861703241341,134.15498012941947,0.4892922016628223,44.29164678265494,50.0,0,0,0,0
