"time","trans_flag","des_cont_state_fl","des_cont_state_fr","des_cont_state_rl","des_cont_state_rr","cont_state_fl","cont_state_fr","cont_state_rl","cont_state_rr","vel_cmd_x","vel_cmd_y","vel_cmd_yaw","base_vel_x","base_vel_y","base_vel_z","base_vel_roll","base_vel_pitch","base_vel_yaw","gait_id","base","CoT","musculoskeletal","foot_force","MWE","WEXT","stability","FL_stride_t","FR_stride_t","RL_stride_t","RR_stride_t"
0.009999999999991,0,1,1,1,1,1,1,1,1,0,0,0,-0.021170131362993,-0.015188375678251,-0.005812856442634,-0.000828217482194,-0.020023662596941,0.010563084855676,0,0.009384318379384,0,0.015191169507576,36.09,4.65949877333008,6.71021728336926,0,0,0,0,0
0.019999999999982,0,1,1,1,1,1,1,1,1,0,0,0,-0.000363455295845,-0.009020578644895,-0.001936623109535,-0.007531481277608,-0.002595177051188,0.003189494783278,0,0.032375394250714,0,0.075187192762665,180.669933133565,0.006157432649433,33.5450562928072,0,0,0,0,0
0.029999999999973,0,1,1,1,1,1,1,1,1,0,0,0,0.016047043134286,-0.005735580662983,-0.002607089455933,-0.004675726253022,0.005645105092025,-0.000311385959035,0,0.020375033425155,0,0.074396651573715,181.334581969343,0.001729923271736,33.5439314837769,0,0,0,0,0
0.039999999999964,0,1,1,1,1,1,1,1,1,0,0,0,0.010792362081683,-0.003497248288579,0.014791179221402,0.014234091687913,0.0063736747886,0.001372468492998,0,0.017868176843209,0,0.108273523763778,181.096811106148,0.026668827368704,33.5512217477763,0,0,0,0,0
0.049999999999955,0,1,1,1,1,1,1,1,1,0,0,0,-0.007207070202052,0.004930381081904,0.055845532594184,0.098617427085816,0.100911811000677,-0.004512005844657,0,0.011196402449424,0,0.151399599710183,195.56408152939,0.088940760588597,33.6279314570188,0,0,0,0,0
0.057999999999993,0,1,1,1,1,1,1,1,1,0,0,0,-0.018339259887786,0.003540867223339,0.049913504808826,0.08709869085526,0.157629312494886,0.002811964330062,0,0.026804079224952,0,0.133131510645661,217.383578900106,0.11711567681699,33.7352871739924,0,0,0,0,0
0.069999999999993,0,1,1,1,1,1,1,1,1,0,0,0,0.005268921906797,-0.003331254515104,0.057986328881121,0.039387191931263,0.113738755271166,0.018683473181556,0,0.024501769196791,0,0.136211493075721,201.800142899207,0.100949439879693,33.8399461676068,0,0,0,0,0
0.077999999999975,0,1,1,1,1,1,1,1,1,0,0,0,0.019529023573111,-0.005127021916572,0.065260362526969,0.027234626672712,0.059614755133095,0.030759876278347,0,0.044380098136539,0,0.145376321572283,193.892601908192,0.051590317560057,33.9179036620222,0,0,0,0,0
0.089999999999975,0,1,1,1,1,1,1,1,1,0,0,0,0.028157212690574,-0.005764503151544,0.059946814268256,0.027266995067728,0.009571775927001,0.025062583293959,0,0.058858781168561,0,0.134288697372373,190.823494296614,0.046187744262453,33.9725063001697,0,0,0,0,0
0.099999999999966,0,1,1,1,1,1,1,1,1,0,0,0,0.025343423807786,-0.004325110361277,0.049598225778338,-0.082211301534987,0.019768372231928,-0.006033966918815,0,0.045122797877508,0,0.127825182717234,178.735946333285,0.046596668578895,34.0119314743855,0,0,0,0,0
0.109999999999957,0,1,1,1,1,1,1,1,1,0,0,0,0.02761818043533,0.000639054649454,0.04307448361675,-0.033476850924117,0.062321584183964,-0.034681914925464,0,0.05284629120587,0,0.127598182213591,175.575346949574,0.035510285959802,34.0578873709038,0,0,0,0,0
0.120000000000005,0,1,1,1,1,1,1,1,1,0,0,0,0.032349768444496,0.002363527129804,0.040552612659005,0.036773884847016,0.082018900494607,-0.050543894270545,0,0.077525147529817,0,0.128855962809388,179.204779803196,0.03324302785394,34.1106434944338,0,0,0,0,0
0.127999999999986,0,1,1,1,1,1,1,1,1,0,0,0,0.040014593524998,0.002035679034508,0.04149460082562,0.036513978253423,0.095269127889749,-0.057421909003379,0,0.092294452047054,0,0.131360042198182,181.851125296022,0.041069335648002,34.1645901803617,0,0,0,0,0
0.139999999999986,0,1,1,1,1,1,1,1,1,0,0,0,0.045073255796037,-0.000572690197661,0.039620592464643,0.011543166481602,0.110290563341621,-0.061696670257771,0,0.106550303812893,0,0.132499324564707,182.668299025925,0.040114617651303,34.2239830916577,0,0,0,0,0
0.149999999999977,0,1,1,1,1,1,1,1,1,0,0,0,0.050227587471669,-0.000837741401632,0.036901951310452,0.008691978970621,0.111284784366056,-0.02648330725309,0,0.089524599077392,0,0.131873594891882,181.438211247992,0.053438133524495,34.2517630809469,0,0,0,0,0
0.159999999999968,0,1,1,1,1,1,1,1,1,0,0,0,0.055473932834771,0.000144073531279,0.033197087724264,-0.012171710500765,0.108150834573268,-0.0036931227825,0,0.064334266018478,0,0.132167520021262,177.823258408879,0.039701287978598,34.2849830793943,0,0,0,0,0
0.169999999999959,0,1,1,1,1,1,1,1,1,0,0,0,0.059053666232319,0.001594523849517,0.029252851451837,-0.023573970393983,0.107616085963875,0.020991660996327,0,0.069251069363253,0,0.128193269965845,178.274745464147,0.026204263950399,34.3216091904894,0,0,0,0,0
0.177999999999997,0,1,1,1,1,1,1,1,1,0,0,0,0.059285300356565,0.0034908314736,0.022941199877761,0.021470300111678,0.097430923065354,0.012736477788643,0,0.081931657826643,0,0.12718585798839,175.331259469702,0.025744645022357,34.3521370877097,0,0,0,0,0
0.189999999999998,0,1,1,1,1,1,1,1,1,0,0,0,0.057872353816273,0.003521313536665,0.018843387385299,0.022886683765778,0.08401041125999,0.001881828408959,0,0.066310928193135,0,0.127845372177346,173.247069623352,0.02242544648597,34.3703564823616,0,0,0,0,0
0.197999999999979,0,1,1,1,1,1,1,1,1,0,0,0,0.057473531251224,0.002528178232034,0.015485584387585,-0.008907381974271,0.079969041375978,-0.015915139359497,0,0.067749401128076,0,0.128813841606537,173.764698340315,0.018394929319682,34.3905305225045,0,0,0,0,0
0.20999999999998,0,1,1,1,1,1,1,1,1,0,0,0,0.055791090659234,0.002406863317797,0.014005074235432,-0.030122551743018,0.088358928585739,-0.027230216139337,0,0.085192291446738,0,0.127934531995708,174.954123039058,0.015314832707848,34.4115708282004,0,0,0,0,0
0.21999999999997,0,1,1,1,1,1,1,1,1,0,0,0,0.053903533910846,0.002924705456784,0.012303414828494,0.006579727460471,0.084282034392873,-0.017712305938682,0,0.078032823341082,0,0.128819438289176,176.031425848277,0.018080679905375,34.423103626549,0,0,0,0,0
0.229999999999961,0,1,1,1,1,1,1,1,1,0,0,0,0.050928117704816,0.003373182940709,0.011830103343356,0.012375356868567,0.078300026081138,-0.014112258458446,0,0.071793910349303,0,0.128849901681444,176.72180978525,0.061112039602397,34.4596984848219,0,0,0,0,0
0.238,0,1,1,1,1,1,1,1,1,0,0,0,0.047926440228978,0.003909698545175,0.012275001797989,0.005023818981281,0.054859914926804,-0.014227039568747,0,0.066435028489027,0,0.12858044721819,175.679769693083,0.057766348185782,34.5162995423719,0,0,0,0,0
0.25,0,1,1,1,1,1,1,1,1,0,0,0,0.045508279622293,0.003335376231015,0.012108526116651,0.008763472042394,0.040071730806897,-0.001392580570902,0,0.058594963570203,0,0.128110775744347,176.381590922439,0.051360379515721,34.5668005029709,0,0,0,0,0
0.259999999999991,0,1,1,1,1,1,1,1,1,0,0,0,0.041708440806684,0.003096720222923,0.01248859634098,0.002887488947103,0.024281641492185,0.00582765874976,0,0.051133185833845,0,0.128027884841087,177.17021213838,0.042398089665546,34.6072561228513,0,0,0,0,0
0.269999999999982,0,1,1,1,1,1,1,1,1,0,0,0,0.039019388348742,0.002877872153757,0.013259471914194,-0.004928860223358,0.028090896589464,0.003129883032147,0,0.047503988358079,0,0.127885749400354,176.181799326916,0.039070270394249,34.6451264323288,0,0,0,0,0
0.277999999999963,0,1,1,1,1,1,1,1,1,0,0,0,0.036172969794193,0.001601008828313,0.011338449985159,0.006932585521887,0.022461089174185,0.007837146353633,0,0.045138981728581,0,0.127102959538572,176.087752448429,0.030018630595684,34.6759265531755,0,0,0,0,0
0.289999999999964,0,1,1,1,1,1,1,1,1,0,0,0,0.033369580987627,0.002531471858204,0.01057176413627,-0.000141655975494,0.02396004272038,-0.002374186389343,0,0.039486350255758,0,0.127257533506293,176.179351026196,0.026190233093066,34.7006013305535,0,0,0,0,0
0.298000000000002,0,1,1,1,1,1,1,1,1,0,0,0,0.031029381023812,0.002317690941502,0.007637904894779,0.002477053898836,0.004614322991409,0.000456768645272,0,0.035656983362559,0,0.127198480292495,174.963109572709,0.019814905463054,34.7207343912171,0,0,0,0,0
0.310000000000002,0,1,1,1,1,1,1,1,1,0,0,0,0.028557058553789,0.002849626021343,0.004856724360445,0.001997693376359,0.002763506619888,-0.005104809196677,0,0.03659253286601,0,0.127235349533376,174.978041851761,0.015303787120658,34.7297611395556,0,0,0,0,0
0.319999999999993,0,1,1,1,1,1,1,1,1,0,0,0,0.026386031985714,0.003869005247001,0.005046829330102,0.011686074595509,-0.004149603983704,-0.003707878672228,0,0.034391577845695,0,0.128181342178579,175.386385565765,0.017826282953982,34.7122381486362,0,0,0,0,0
0.329999999999984,0,1,1,1,1,1,1,1,1,0,0,0,0.025302049404186,0.004386162418952,0.004156530230811,-0.002936885186656,-0.002493822038607,-0.005543577503908,0,0.034620590151385,0,0.12744477937262,176.4289218604,0.017759440556054,34.6937351454081,0,0,0,0,0
0.339999999999975,0,1,1,1,1,1,1,1,1,0,0,0,0.024283487930461,0.004991321321428,0.004142637167434,0.00227832876137,-0.006349534089729,-0.003644912811845,0,0.036119693213536,0,0.128898038939901,178.065003868559,0.017284321336469,34.6761599317251,0,0,0,0,0
0.349999999999966,0,1,1,1,1,1,1,1,1,0,0,0,0.023785944929292,0.005721010838623,0.005852881964962,0.008149083771146,-0.013124427233632,0.002607133963911,0,0.031195162021696,0,0.128936187435357,178.872826573647,0.014292854117915,34.6592810790921,0,0,0,0,0
0.358000000000004,0,1,1,1,1,1,1,1,1,0,0,0,0.024183337938169,0.006183095266718,0.006460827189743,-0.00269794174518,-0.015654505638489,-0.00595852167814,0,0.032968345957645,0,0.128356505643873,179.547263878767,0.011336193257146,34.6469322589715,0,0,0,0,0
0.370000000000005,0,1,1,1,1,1,1,1,1,0,0,0,0.024132181142102,0.00707106393723,0.007642705557169,-0.009713727280023,-0.01701632589094,0.003624206976336,0,0.033739013079543,0,0.128982554840329,180.054511367345,0.011095617465573,34.6366969008898,0,0,0,0,0
0.379999999999995,0,1,1,1,1,1,1,1,1,0,0,0,0.025387154617105,0.007217214567024,0.007740027507658,-0.002241321786088,-0.016065405462643,-0.000688178968775,0,0.033082369370194,0,0.128483473040792,179.973114350551,0.008100803630504,34.6271104664038,0,0,0,0,0
0.389999999999986,0,1,1,1,1,1,1,1,1,0,0,0,0.027470435816353,0.008409844185069,0.008079796407242,-0.00221730995028,-0.012840013607567,0.002648391342244,0,0.037455382744163,0,0.128097372493374,180.038212404856,0.008563486619354,34.6208740921513,0,0,0,0,0
0.399999999999977,0,1,1,1,1,1,1,1,1,0,0,0,0.030251336022477,0.008414306548787,0.007631316924064,-0.001501993156383,-0.015492804801841,-0.002822570999382,0,0.040739358497967,0,0.129286505501986,179.852893349504,0.008665167221991,34.6133177429528,0,0,0,0,0
0.407999999999959,0,1,1,1,1,1,1,1,1,0,0,0,0.031938347930109,0.008257615597384,0.008132181281881,-0.000748329486096,-0.018863241015126,-0.000733013121881,0,0.04079747525811,0,0.12839556126079,180.738071178376,0.006862052719531,34.607428590949,0,0,0,0,0
0.418000000000006,0,1,1,1,1,1,1,1,1,0,0,0,0.033836396746393,0.007557210133358,0.008655810296081,0.004126112895135,-0.018036232908194,-0.009311480227755,0,0.049032960594697,0,0.127176500063294,181.096917773176,0.005315234208023,34.6037146447861,0,0,0,0,0
0.430000000000007,0,1,1,1,1,1,1,1,1,0,0,0,0.035283697308124,0.00694052208368,0.008391131698181,0.003755553707454,-0.00339449522163,-0.015710375760056,0,0.054944096208006,0,0.127220276124212,180.542771019811,0.00856727940833,34.5992882813425,0,0,0,0,0
0.439999999999998,0,1,1,1,1,1,1,1,1,0,0,0,0.037922834803256,0.006345697814044,0.008047409672594,-0.000828584270969,-0.001667736632768,-0.009074017400598,0,0.054910807656628,0,0.127052263709909,179.956536986441,0.00158064478474,34.5961750673579,0,0,0,0,0
0.449999999999989,0,1,1,1,1,1,1,1,1,0,0,0,0.040460525689277,0.006296115887741,0.007239031642968,0.00651634252242,0.005035457945085,-0.01478374643165,0,0.058158475808339,0,0.127793266891339,179.70673273338,0.00566907332041,34.5954649594994,0,0,0,0,0
0.45999999999998,0,1,1,1,1,1,1,1,1,0,0,0,0.042562240112572,0.006114292326624,0.006295876551443,0.005213028480537,0.006137939384491,-0.007186453388914,0,0.058763644854604,0,0.126924556722305,179.600591861014,0.006213036692265,34.5911418586649,0,0,0,0,0
0.46999999999997,0,1,1,1,1,1,1,1,1,0,0,0,0.043849260078546,0.006522833723919,0.004878914032013,0.002855013249464,-0.004398602657533,0.00012938252802,0,0.053007574334953,0,0.127106240877319,179.917982304159,0.007905435574017,34.584642630378,0,0,0,0,0
0.479999999999961,0,1,1,1,1,1,1,1,1,0,0,0,0.044766554374121,0.007138247740253,0.004565315914579,0.007662293701975,0.009302131705476,-0.000769252419288,0,0.052344520019468,0,0.126997655434914,179.838687453907,0.005676871173511,34.578606245513,0,0,0,0,0
0.489999999999952,0,1,1,1,1,1,1,1,1,0,0,0,0.044269445991933,0.006983772225791,0.004861629273459,-0.000664014138724,0.00211119598113,2.30078474571197E-05,0,0.052978393672748,0,0.126891714132231,181.010784662803,0.004989743274612,34.573196440506,0,0,0,0,0
0.5,0,1,1,1,1,1,1,1,1,0,0,0,0.045047566082563,0.00705159543557,0.005709705386334,0.008677769945613,0.000498859488047,0.00078632989394,0,0.052696241558096,0,0.127193062697693,181.289666606523,0.011404581281351,34.5730817950893,0,0,0,0,0
0.509999999999991,0,1,1,1,1,1,1,1,1,0,0,0,0.044770387002632,0.007522680059304,0.007099303497507,0.004224302252787,-0.001237271752211,-0.004511934889652,0,0.055402890233922,0,0.128225716894431,181.469194783226,0.04206380501093,34.6079975153083,0,0,0,0,0
0.519999999999982,0,1,1,1,1,1,1,1,1,0,0,0,0.044554759573114,0.008200413394175,0.007396709825898,0.003005352277137,-0.004447815462827,-0.006006946842974,0,0.057587271672335,0,0.127707740106673,181.105540655676,0.004595119059603,34.622637091524,0,0,0,0,0
0.529999999999973,0,1,1,1,1,1,1,1,1,0,0,0,0.044731548765119,0.008643961725874,0.006708534332016,0.006743239520349,-0.005782745906947,0.003399417728248,0,0.05582005474213,0,0.126936264175852,180.77552116215,0.005734371282923,34.6166575779109,0,0,0,0,0
0.539999999999964,0,1,1,1,1,1,1,1,1,0,0,0,0.045399661549294,0.00904772638329,0.006745399053239,0.006638775323909,-0.003796628479668,-0.005314110254072,0,0.057175092597398,0,0.126391170288789,180.524084972827,0.003915587367508,34.612866781696,0,0,0,0,0
0.549999999999955,0,1,1,1,1,1,1,1,1,0,0,0,0.045924776714605,0.009250714070172,0.006764421452309,-0.000439080507995,-0.005000317117956,-0.007281628242811,0,0.059979020846008,0,0.125695269182871,180.401378303265,0.004098817588383,34.6096425305763,0,0,0,0,0
0.560000000000002,0,1,1,1,1,1,1,1,1,0,0,0,0.045731280510728,0.008715300206572,0.006452543501332,0.002998722631272,-0.009877393788141,-0.008677510430303,0,0.064092321184355,0,0.126338883426876,181.037056972443,0.033959126908103,34.6272295092812,0,0,0,0,0
0.569999999999993,0,1,1,1,1,1,1,1,1,0,0,0,0.044820679680628,0.008374283727147,0.005825858384889,0.004788588058103,-0.013406207076294,-0.010731218900202,0,0.06565870202283,0,0.126892115864333,180.680459521991,0.032755246901233,34.6627533946854,0,0,0,0,0
0.577999999999975,0,1,1,1,1,1,1,1,1,0,0,0,0.042905713307903,0.008270338739935,0.005329454264683,6.83514047739194E-06,0.002200622395772,-0.005142895292172,0,0.056998597752389,0,0.125873647063129,180.734749452212,0.029333830705409,34.6908505840855,0,0,0,0,0
0.587999999999965,0,1,1,1,1,1,1,1,1,0,0,0,0.043390237859178,0.008355683978614,0.003548832841163,-0.001481945597489,0.001630587200639,-0.008923567962686,0,0.060574576152868,0,0.126054240400095,180.017526908289,0.014273916903695,34.7025844010131,0,0,0,0,0
0.597999999999956,0,1,1,1,1,1,1,1,1,0,0,0,0.044585173096414,0.008061445124477,0.00275833486995,0.00133309556286,-0.008210210410285,-0.002726937654816,0,0.057160458469905,0,0.126732187475337,179.397024580363,0.015497360780407,34.688432431577,0,0,0,0,0
0.608000000000004,0,1,1,1,1,1,1,1,1,0,0,0,0.045218281116909,0.009030082996228,0.001594649188273,-0.002747474871298,0.000583449723833,0.001328510899787,0,0.054825074688385,0,0.126419813885222,179.702432137084,0.016026232906297,34.673146331313,0,0,0,0,0
0.617999999999995,0,1,1,1,1,1,1,1,1,0,0,0,0.045877214845348,0.009705604538019,0.001409561593187,-0.008554094929233,-3.97628526241273E-05,0.003467864035211,0,0.058140113146113,0,0.126560498937957,180.300491664755,0.013246115914387,34.6596021331914,0,0,0,0,0
0.627999999999986,0,1,1,1,1,1,1,1,1,0,0,0,0.046174441702249,0.010414872338156,0.0020786579349,-0.004842836744997,0.004367221165697,0.000717265470628,0,0.057434609127089,0,0.126321835797282,181.346221480081,0.008464349302389,34.6492275725936,0,0,0,0,0
0.637999999999977,0,1,1,1,1,1,1,1,1,0,0,0,0.045466172211652,0.00963731943549,0.003273327494626,-0.003975718121551,-0.004386155750434,-0.006626290240482,0,0.05825998581569,0,0.126879436152672,181.983699114161,0.030327309131665,34.6648951570871,0,0,0,0,0
0.647999999999968,0,1,1,1,1,1,1,1,1,0,0,0,0.045245781111796,0.009431611448712,0.003688271901484,-0.006900602305599,-0.001356367569338,-0.006633023816917,0,0.064814181951454,0,0.126689099244695,181.872290468354,0.02608436966333,34.6934891045879,0,0,0,0,0
0.657999999999959,0,1,1,1,1,1,1,1,1,0,0,0,0.044755623655322,0.009781350750139,0.003795742534399,0.005320150456843,-0.003647410859414,-0.012966729073823,0,0.064260362052213,0,0.125202275804002,181.962277964852,0.018319068434364,34.7153405300425,0,0,0,0,0
0.668000000000006,0,1,1,1,1,1,1,1,1,0,0,0,0.044615461441723,0.010109867441185,0.00342344515828,-0.001257894605018,-0.000818115437214,-0.002634631800679,0,0.061047239720724,0,0.126393182109011,181.454135617649,0.014407257872976,34.7109352587653,0,0,0,0,0
0.677999999999997,0,1,1,1,1,1,1,1,1,0,0,0,0.045725270046652,0.010044941157069,0.002510879743058,0.001401158366959,-0.001746080937631,-0.008555030713367,0,0.061596680210674,0,0.125969265356479,179.974836837136,0.015425541856714,34.6958863325754,0,0,0,0,0
0.687999999999988,0,1,1,1,1,1,1,1,1,0,0,0,0.046297970965342,0.010310442559166,0.002155480122177,-0.002063287866293,0.002927064140197,-0.002411122456186,0,0.061888349879722,0,0.126482402249152,179.611186046982,0.016247542502839,34.6808167057807,0,0,0,0,0
0.697999999999979,0,1,1,1,1,1,1,1,1,0,0,0,0.047436425295614,0.010890120436286,0.001714146208086,0.00235354843172,0.001517042309307,0.001125325820481,0,0.058288400799474,0,0.125640491327332,180.085301439763,0.013539112529775,34.6663882688662,0,0,0,0,0
0.70799999999997,0,1,1,1,1,1,1,1,1,0,0,0,0.048419078995506,0.011192432115536,0.001697730539426,-0.001176880460783,0.003341701300327,0.008340428423306,0,0.063947775011338,0,0.126493904290872,180.952970159642,0.011876143510306,34.6564665445597,0,0,0,0,0
0.717999999999961,0,1,1,1,1,1,1,1,1,0,0,0,0.049308911444773,0.011423984106587,0.002078516485898,0.000187440714335,-0.001293667115228,0.001257543061298,0,0.066125804692323,0,0.12640451113326,181.003093832297,0.011341899523985,34.6459160761818,0,0,0,0,0
0.728000000000009,0,1,1,1,1,1,1,1,1,0,0,0,0.050578383723935,0.011087205307096,0.001573155367547,-0.006243488683102,0.002198819790812,0.002170444372044,0,0.062648713993437,0,0.126565278914702,181.020647843473,0.013069336371364,34.6340885204337,0,0,0,0,0
0.737999999999999,0,1,1,1,1,1,1,1,1,0,0,0,0.050189269353331,0.011231569408214,0.00205607899294,0.003351533517089,0.004921661015582,-0.006773020494582,0,0.065494997197573,0,0.12681041164876,181.617442517922,0.01111845031203,34.630482336636,0,0,0,0,0
0.74799999999999,0,1,1,1,1,1,1,1,1,0,0,0,0.049924393385814,0.011011528468756,0.002428613925486,0.006163339958,-0.004527242476956,-0.001228903767387,0,0.065575166583702,0,0.127119404781925,181.674700973923,0.012539769484742,34.6453701606063,0,0,0,0,0
0.757999999999981,0,1,1,1,1,1,1,1,1,0,0,0,0.049725775620067,0.011185757481321,0.002743371945499,-0.00449523649438,0.001755590192587,-0.000986308269632,0,0.061363864200944,0,0.126815192986174,180.736555106082,0.003022710583239,34.6431355326621,0,0,0,0,0
0.767999999999972,0,1,1,1,1,1,1,1,1,0,0,0,0.049284511444593,0.011502219101348,0.003390468532007,0.000869181507623,0.002746091319351,0.007719886042414,0,0.064450152720331,0,0.126599650105946,180.311903916514,0.005978974828956,34.641359594403,0,0,0,0,0
0.777999999999963,0,1,1,1,1,1,1,1,1,0,0,0,0.049938919175144,0.011537848113255,0.003066905215828,0.00204351931682,-0.001601933340306,-0.007951055369227,0,0.066456211917369,0,0.125883880161862,180.807078404471,0.005177122070082,34.635575035378,0,0,0,0,0
0.787999999999954,0,1,1,1,1,1,1,1,1,0,0,0,0.049378405450081,0.011408804224882,0.003308394852843,4.69699369576196E-06,-0.003910232429235,-0.001344492183132,0,0.063644375825209,0,0.126930066069583,180.576977741147,0.006229779239534,34.6370982560868,0,0,0,0,0
0.798000000000002,0,1,1,1,1,1,1,1,1,0,0,0,0.049901310142599,0.011221757354213,0.003258300292878,0.00096867428424,0.000550523373729,0.002203668635858,0,0.064429845460346,0,0.126890993781002,180.710565973636,0.004145462545969,34.637023506383,0,0,0,0,0
0.807999999999993,0,1,1,1,1,1,1,1,1,0,0,0,0.050034332105558,0.010638843819287,0.002734812956745,0.005960771298198,-0.002749490470078,-0.000370524123788,0,0.064660893853796,0,0.125728197426121,180.673938716624,0.002527595805476,34.6378119318316,0,0,0,0,0
0.817999999999984,0,1,1,1,1,1,1,1,1,0,0,0,0.049713175204253,0.010672216933194,0.002661687014338,0.002671259977312,-0.000580017439399,-0.00379830671507,0,0.064563686175976,0,0.126667022144468,180.62668197505,0.004537145913085,34.6382346915729,0,0,0,0,0
0.827999999999975,0,1,1,1,1,1,1,1,1,0,0,0,0.051139921553944,0.010301591458568,0.002426791765667,-0.003034447350591,-0.00169893223309,-0.000959335811699,0,0.064060037139087,0,0.127273263806577,180.593633389943,0.008915267460841,34.6338941084044,0,0,0,0,0
0.837999999999965,0,1,1,1,1,1,1,1,1,0,0,0,0.051572524411979,0.010582483143131,0.002739823444463,0.005681341947217,-0.005177937781686,0.004468816702055,0,0.067108369035691,0,0.126991621432391,180.807064439474,0.004994990507938,34.6287304348643,0,0,0,0,0
0.847999999999956,0,1,1,1,1,1,1,1,1,0,0,0,0.051221713400098,0.010636023621457,0.003199040118346,-0.001973456284083,0.002873527516215,0.000192568044008,0,0.06422050925252,0,0.127296623920577,180.811883484177,0.002353387130482,34.6249915446464,0,0,0,0,0
0.858000000000004,0,1,1,1,1,1,1,1,1,0,0,0,0.051789515717376,0.010452214587854,0.002782304264809,0.002578118063483,-0.002479565346268,5.93583627974236E-05,0,0.063765498178574,0,0.127246280111515,181.010483541029,0.003214370305481,34.6234396851494,0,0,0,0,0
0.867999999999995,0,1,1,1,1,1,1,1,1,0,0,0,0.052436411874334,0.010300546745482,0.002688773730958,0.005899524773468,6.19286068941554E-06,-0.003092231686873,0,0.064517533208282,0,0.125707220799864,180.949891556719,0.003986547617961,34.6205987604363,0,0,0,0,0
0.877999999999986,0,1,1,1,1,1,1,1,1,0,0,0,0.052520166908308,0.010217294738295,0.003222660447229,0.000438150421998,0.002360388823459,-0.011283985765156,0,0.073782902370592,0,0.126690954955201,181.07690997783,0.024325530730302,34.6308038383687,0,0,0,0,0
0.887999999999977,0,1,1,1,1,1,1,1,1,0,0,0,0.051688581099625,0.010384336683524,0.003926839632822,0.003754647317695,0.002272899460454,-0.007971787911662,0,0.068501542553292,0,0.126826959034798,181.248733088043,0.013555370343247,34.6511539605141,0,0,0,0,0
0.897999999999968,0,1,1,1,1,1,1,1,1,0,0,0,0.052069059323736,0.010431029236085,0.003633367681747,0.000277184547842,-0.005320208505415,0.000107393470635,0,0.068346923929342,0,0.126921332706295,180.783265323403,0.005381950491947,34.6456671838597,0,0,0,0,0
0.907999999999959,0,1,1,1,1,1,1,1,1,0,0,0,0.052308532036872,0.010431308274124,0.00354058663398,-0.005451950390507,-0.001212541288968,0.003484567720371,0,0.066818607666091,0,0.126843255570729,180.646618912638,0.005645387954479,34.6403604017321,0,0,0,0,0
0.918000000000006,0,1,1,1,1,1,1,1,1,0,0,0,0.052008000979817,0.010614100923483,0.003463516337754,-0.003973823628517,-0.003073757525582,0.006824938823905,0,0.067211380872329,0,0.125840612162368,181.07283972695,0.006820598305748,34.6341638932194,0,0,0,0,0
0.927999999999997,0,1,1,1,1,1,1,1,1,0,0,0,0.052467330089181,0.01087068329549,0.00285807178093,-0.002707031614815,-0.001593780152948,-0.000368606832563,0,0.065845425157764,0,0.126089358291577,180.531080179694,0.00741051073437,34.6271344848933,0,0,0,0,0
0.937999999999988,0,1,1,1,1,1,1,1,1,0,0,0,0.052173655090463,0.011286578655027,0.002810020817931,-0.004098646454856,-0.002530730273546,0.001273388942878,0,0.064759197210453,0,0.126177523434343,180.858913759933,0.005918106565954,34.6202778334189,0,0,0,0,0
0.947999999999979,0,1,1,1,1,1,1,1,1,0,0,0,0.052550081684739,0.011587828350981,0.002754547474629,-0.002543912777289,-0.004865433807706,-0.007047857943447,0,0.067048934314148,0,0.127072469595214,181.060098521849,0.00396417617234,34.6159971832842,0,0,0,0,0
0.95799999999997,0,1,1,1,1,1,1,1,1,0,0,0,0.052055214788531,0.011362742764803,0.003454223259248,0.003152269411368,0.001871679731373,-0.009311170611541,0,0.076550234721147,0,0.126487747280977,181.606495159986,0.002244935638738,34.6153175209392,0,0,0,0,0
0.967999999999961,0,1,1,1,1,1,1,1,1,0,0,0,0.051565840965722,0.011402323048734,0.003885201963178,-0.0007143319035,0.001242179678829,-0.002267847025646,0,0.068512082124486,0,0.125437391219402,181.175448211793,0.001959169622413,34.6119092723845,0,0,0,0,0
0.978000000000008,0,1,1,1,1,1,1,1,1,0,0,0,0.051216711702095,0.011527809059034,0.004249305654263,0.001997303845038,0.000790598455118,0.001964865892115,0,0.06664301688206,0,0.126778307850276,180.922125212718,0.002679417208298,34.6088773521676,0,0,0,0,0
0.988,0,1,1,1,1,1,1,1,1,0,0,0,0.050795568564476,0.012116593215266,0.004033271286065,-0.006618408069272,-0.004053388777199,-0.001508658117809,0,0.065678167914058,0,0.126911838957518,180.46886251119,0.003946373926339,34.6050760996501,0,0,0,0,0
0.99799999999999,0,1,1,1,1,1,1,1,1,0,0,0,0.049989095720474,0.012268694459767,0.004447476389955,-0.003873257057905,0.002320026696963,0.005459571865244,0,0.067554761713071,0,0.127069090983261,180.724555726871,0.018322014787851,34.6067208411169,0,0,0,0,0
1.00799999999998,0,1,0,0,1,1,1,1,1,-9.50860976677057E-05,0,0.006799947594788,0.048893371704763,0.011945286745455,0.00513495867515,0.001935219352832,-0.000719828767561,-0.005740525424733,3,0.068893472090796,81.1082583407755,0.126839047792064,181.533787122419,0.040284094745827,34.6422362923829,30,0,0,0,0
1.01799999999997,0,1,0,0,1,1,1,1,1,0.009520732859588,0,0.018132339589277,0.048757795526345,0.011130647373501,0.005737382453526,-0.003564302857392,0.005775405231727,-0.001427388861553,3,0.070852907915743,52.1920243300491,0.126922164937882,181.511221226204,0.033698574908072,34.6772402629325,50,0,0,0,0
1.02799999999996,0,1,0,0,1,1,1,1,1,0.019165414276647,0,0.029462402610409,0.058167810073657,0.010703361986343,-0.00235175100583,0.049160072369574,-0.01708221495215,0.027895860874161,3,0.061991853365281,39.1639322873822,0.125801012044043,179.676044311293,0.016010154007644,34.7067242743065,50,0,0,0,0
1.03799999999995,0,1,0,0,1,1,0,1,1,0.028797078022084,0,0.040788681390112,0.054260208212996,0.014345569943996,-0.011137753091596,0.056056207563133,0.115769805788767,0.070141456316185,3,0.06411892728634,26.7724852156984,0.123702035906042,172.63738267669,0.009251647721873,34.7408752104296,35,0,0,0,0
1.048,0,1,0,0,1,1,0,1,1,0.03842873566937,0,0.052109721146371,0.041168055777629,0.01983143741124,-0.01658367571114,0.165360376295567,0.30501189109721,0.11557645314619,3,0.080881024342614,20.151092219274,0.12022166715915,171.954612273683,0.015236088421763,34.7993705710346,25,0,0,0,0
1.05799999999999,0,1,0,0,1,1,0,1,1,0.048088775701795,0,0.063424067770089,0.030750396377124,0.015514729029567,-0.024073469846971,0.237983692327847,0.308515037280128,0.176842722501943,3,0.119094852224493,20.0915832437251,0.136853280598752,167.718199789799,0.06238468150674,34.9150505161799,25,0,0,0,0
1.06799999999998,0,1,0,0,1,1,0,0,1,0.057689416844955,0,0.074730268011855,0.024345062197585,0.00148956924884,-0.034360398581248,0.072507861076433,0.203964012300518,0.206864179153155,3,0.162664425254246,19.1152099005116,0.132587674465498,165.381835005598,0.038720113090366,35.0527372175615,0,0,0,0,0
1.07799999999997,0,1,0,0,1,1,0,0,1,0.067296019169165,0,0.086026869668605,0.030682937962604,-0.009755492701994,-0.01461185966469,-0.203148257015753,0.136345452776039,0.233490208526975,3,0.192274933589856,16.6247454039445,0.123422898054031,179.155358837373,0.078394402371649,35.1695070137145,0,0,0,0,0
1.08799999999997,0,1,0,0,1,1,0,0,1,0.076948881727343,0,0.097312421770144,0.037011538876161,-0.009651511203727,-0.002254767729477,-0.40131037267628,-0.102776158207847,0.203195580018561,3,0.166611553141504,10.6843420655014,0.100539521770754,194.579185745508,0.10570033457453,35.1526797839421,0,0,0,0,0
1.09799999999996,0,1,0,0,1,1,0,0,1,0.086555676950558,0,0.108585474765519,0.029355428014582,0.002719541103576,0.008021251939171,-0.326717366950659,-0.320379152299235,0.170064586543484,3,0.132478693506538,6.34134740732316,0.090715874504122,193.02673091088,0.112932914158126,35.1114208123007,0,0,0,0,0
1.108,0,1,0,0,1,1,0,0,1,0.096180110139841,0,0.119844580709199,0.007074886401359,0.01464382460229,0.011689871126887,-0.082421448309169,-0.22954461642859,0.149984019299511,3,0.134471130668657,4.17943708145121,0.085012368826221,194.64632741328,0.082238783166243,35.1063813362452,0,0,0,0,0
1.118,0,1,0,0,1,1,0,0,1,0.105798242413588,0,0.131088293447056,-0.010969212263938,0.01667672555911,0.033190698861402,-0.020693854703393,-0.07917174239203,0.121900405681623,3,0.133414663307488,3.20226356782239,0.086841888750006,196.905051205356,0.083165036109895,35.0782397368185,0,0,0,0,0
1.12799999999999,0,1,0,0,1,1,0,0,1,0.115407705734018,0,0.142315168802111,-0.012885083928621,0.018064573332583,0.034916789569882,-0.110180857313775,-0.024496502774606,0.086324073226609,3,0.179295743538771,3.74201944224584,0.090043910586587,186.212247115561,0.102321712458921,35.0846805035624,0,0,0,0,0
1.13799999999998,0,1,0,0,1,1,0,0,1,0.125045991597339,0,0.153523764760032,-0.011518054736439,0.021962098662438,0.029897571507431,-0.226938940972397,-0.130541194439999,0.066419767481941,3,0.22677395204885,4.41972403330942,0.095970620426026,178.653101862657,0.067406778650089,35.1089275400877,0,0,0,0,0
1.14799999999997,0,1,0,0,1,1,0,0,1,0.134610406474611,0,0.164712641654348,-0.013409217319383,0.023470872586602,0.03963188253109,-0.4258677991607,-0.151379703031912,0.088441100325748,3,0.253818117015329,5.48655036207196,0.116075725331768,180.035640427332,0.03406201659357,35.158761914639,0,0,0,0,0
1.15799999999996,0,1,0,0,1,1,0,0,1,0.144205549380546,0,0.175880362351364,-0.02429769596119,0.025585943626111,0.056780866113681,-0.625935800241874,-0.107099658557099,0.166221611636277,3,0.224080267445467,6.2723053882801,0.127678597439724,189.406217047418,0.060902465698269,35.3027379176721,0,0,0,0,0
1.16800000000001,0,1,0,0,1,1,0,0,1,0.153918668642213,0,0.187025492434754,-0.036856467467859,0.032259152200521,0.060921669432491,-0.647886336682713,-0.11382121414121,0.26406813337899,3,0.253860969206968,5.76380085871915,0.122735941493364,194.894522749186,0.204216774476237,35.5820799568127,0,0,0,0,0
1.178,0,1,0,0,1,1,0,0,1,0.163411372132737,0,0.198146600389799,-0.049291833985901,0.037869442419575,0.059366118653555,-0.60013053252733,-0.198843504521325,0.353383902006766,3,0.362577096106763,5.14965473104601,0.114945509963064,189.827206514167,0.293092531913498,35.9611304959947,0,0,0,0,0
1.18799999999999,0,1,0,0,1,1,0,0,1,0.17303031430791,0,0.209242257787256,-0.051122352493065,0.044941655912184,0.064354844330035,-0.442911705218223,-0.323671510671366,0.404661725019115,3,0.445588412622667,4.47934330330205,0.107464539400374,191.208622010355,0.172352628302007,36.345384405706,0,0,0,0,0
1.19799999999998,0,1,0,0,1,1,0,1,1,0.182669693650996,0,0.220311039466828,-0.046390638162922,0.041698349599965,0.069309609301345,-0.127107560418914,-0.226877523876,0.40970620893658,3,0.461421039159726,3.67977138108302,0.107253969451023,227.324397688489,0.0827228093922,36.4833166339422,20,0,0,0.13,0
1.20799999999997,0,0,1,1,0,1,0,1,1,0.192199302472843,0,0.23135152372022,-0.040366384434488,0.014768308939,0.065826273040532,-0.076955084078779,0.06853619540096,0.366098254085052,3,0.418795617111079,2.83571293306506,0.095375639486015,259.064682011119,0.183990308162825,36.3668079070726,65,0,0,0,0
1.21799999999996,0,0,1,1,0,1,0,1,1,0.201686080707228,0,0.242362292473745,0.007229045342107,-0.008628746132167,0.066410642135609,-0.278992023743218,0.072586555910024,0.294880866539265,3,0.305716070073049,5.11990915151391,0.134206845308829,219.153868817085,0.349211142672176,36.0837596018839,75,0,0,0,0
1.22800000000001,0,0,1,1,0,1,0,1,1,0.211313941746485,0,0.253341931470464,0.075854707218305,-0.004943637539917,0.067515564920014,0.182735668206129,-0.237055053717844,0.1593810128726,3,0.211055326024232,6.65583926821441,0.140618936981506,227.844135378951,0.368158550681154,35.7981049595284,75,0,0,0,0
1.238,0,0,1,1,0,1,0,1,1,0.220821514078442,0,0.264289030451841,0.123682090641558,0.004801805549001,0.075644703417393,0.728873145345629,-0.420468387595646,0.144094704892015,3,0.233224396369173,5.88452185443447,0.140608202124473,229.55613687784,0.041551619150765,35.6774420211802,75,0,0,0,0
1.24799999999999,0,0,1,1,0,1,1,1,1,0.230375997438774,0,0.275202183338881,0.152775896094092,-0.008221632385634,0.050148378171124,0.985979642860529,-0.387397331581722,0.184297207851152,3,0.188132563715799,2.78497808901972,0.08110503141484,225.557487136822,0.167883741444463,35.8016357749481,70,0,0.21,0,0
1.25799999999998,0,0,1,1,0,0,1,1,1,0.239958998946896,0,0.286079988412727,0.161692006173448,-0.027227435847816,0.018106769901419,0.515902538817427,-0.373404978162897,0.210946867804274,3,0.186480062978655,2.48844261258023,0.067002059841241,171.558250370145,0.122062488198347,35.8210248382199,35,0,0,0,0
1.26799999999997,0,0,1,1,0,0,1,1,0,0.249516505908056,0,0.296921048494705,0.146097240847807,-0.024871016721795,-0.006023413200355,0.274921938035619,-0.240557412888039,0.257462762387006,3,0.174648537167675,2.83029793225625,0.082595203190035,140.912974807836,0.075372613223081,35.9501731048092,0,0,0,0,0
1.27799999999996,0,0,1,1,0,0,1,1,0,0.259035315108454,0,0.307723971125779,0.142862023916375,-0.024715548861691,-0.011167205314207,0.463950432022441,-0.144885364143225,0.299967249644195,3,0.150420532786742,3.54107891573814,0.102305406247567,155.480594023945,0.124793074272627,36.1318745366101,0,0,0,0,0
1.28799999999995,0,0,1,1,0,0,1,1,0,0.268529488046775,0,0.318487368745407,0.128618254367112,-0.036689460235981,-0.028544775302407,0.3165250121354,0.005093078030544,0.294637774906267,3,0.178656474999159,3.3128289237525,0.099243344933282,168.430300823148,0.037757143737739,36.146540191988,0,0,0,0,0
1.298,0,0,1,1,0,0,1,1,0,0.278078975507996,0,0.329209858869758,0.119683887682507,-0.034912295089126,-0.03543478544667,0.023221557541649,0.203192915962773,0.288498735359356,3,0.222832947669578,2.02613188617061,0.084418113372662,174.504711190605,0.034026053006833,36.0866784661637,0,0,0,0,0
1.30799999999999,0,0,1,1,0,0,1,1,0,0.287541132717978,0,0.339890064269287,0.115218494841178,-0.029171232783762,-0.036592635224289,-0.045215339650502,0.276504540480963,0.326966411581024,3,0.220394831385309,1.36219612363865,0.083528339737794,170.12417611512,0.173389836130744,36.1401274884743,0,0,0,0,0
1.31799999999998,0,0,1,1,0,0,1,1,0,0.297060162273348,0,0.350526613145629,0.118561750489567,-0.022045876796881,-0.024279713931925,0.055880036160428,0.233112400143911,0.340715128008243,3,0.212988626075408,1.50395984453183,0.092657999726031,164.740489362988,0.0796025497126,36.1840019200448,0,0,0,0,0
1.32799999999997,0,0,1,1,0,0,1,1,0,0.306545873481385,0,0.361118139307795,0.132136503386527,-0.012871460166835,-0.014282434674399,0.145363749085881,0.0728964316008,0.345936384872484,3,0.204255813205125,1.86772996286902,0.105782077703059,165.204596634602,0.064486351594744,36.2310370121953,0,0,0,0,0
1.33799999999997,0,0,1,1,0,0,1,1,0,0.315929203437782,0,0.371663282347652,0.161252869401364,-0.007593589573849,-0.002124691833132,0.11669516588901,-0.173258722555657,0.319288147467307,3,0.213895714165478,2.82429330406474,0.115303375998458,163.119909073035,0.058621551032784,36.176447054777,0,0,0,0,0
1.34799999999996,0,0,1,1,0,0,1,1,0,0.32546691308809,0,0.382160687814661,0.181644986617019,-0.006448104350237,0.015107906711004,0.156368078168104,-0.378352557229895,0.29144365488415,3,0.228062756870924,4.26980498435165,0.122886258181426,162.478359556184,0.07253301349274,36.1265885690946,0,0,0,0,0
1.358,0,0,1,1,0,0,1,1,0,0.334880286829279,0,0.392609007389839,0.206347206698938,-0.014456062504357,0.028496058594793,0.159799125402218,-0.562339451431218,0.310916935311117,3,0.232343416807237,5.37881025335371,0.123934231105693,174.745323200269,0.093349077711072,36.2140668773729,0,0,0,0,0
1.368,0,0,1,1,0,0,1,1,0,0.344280066223036,0,0.403006899058947,0.230100472857504,-0.019636404238471,0.039457966016887,0.141134757352422,-0.692369524974861,0.319856098673238,3,0.218912518658243,5.04272925789157,0.113510578732486,198.482122182078,0.051109526942977,36.3776864485641,0,0,0,0,0
1.37799999999999,0,0,1,1,0,0,1,1,0,0.353743241733942,0,0.413353027284863,0.253845929153726,-0.031502081706057,0.034964037828556,0.143068036224533,-0.760725288194411,0.333681088236862,3,0.212694507646722,4.49628221590672,0.109080300742458,221.200168908913,0.076927245083824,36.543093451541,0,0,0,0,0
1.38799999999998,0,0,1,1,0,0,1,1,0,0.36314471368225,0,0.423646063179118,0.250945279415173,-0.049503376567231,0.026673830503744,0.292263751202737,-0.582316006909575,0.387175351496477,3,0.196561077408745,3.13696851467628,0.10159878658502,237.995915570999,0.19899735644497,36.8166024627261,0,0,0,0,0
1.39799999999997,0,0,1,1,0,0,1,1,1,0.372531873354798,0,0.433884684672587,0.239497813467639,-0.062404292881373,0.02730304999767,0.341289469443217,-0.276543744076122,0.422966817912672,3,0.208165296158592,2.27245012843312,0.099512755661137,244.080656130138,0.12756506666506,36.9966889590793,5,0,0,0,0.13
1.40799999999996,0,1,0,0,1,0,1,1,1,0.381944491739598,0,0.444067576685295,0.189875741344185,-0.057418894316553,0.075760573959591,-0.273632743347933,0.453665554535383,0.29290187096987,3,0.296518792379642,2.0971498343779,0.105584651155113,322.102428041868,0.78677391395492,36.847960567254,65,0,0,0,0
1.41800000000001,0,1,0,0,1,0,1,1,1,0.391335630749701,0,0.454193431295335,0.184529637980821,-0.035763256591712,0.098407884302551,-0.508484625117193,1.02116767854874,0.084328636337424,3,0.549541593057974,3.29945629358703,0.125492920336414,331.713847299984,0.553319738329576,36.0753466631203,75,0,0,0,0
1.428,0,1,0,0,1,1,1,1,1,0.400675784677582,0,0.464260947906859,0.33668019129876,-0.026222580185335,0.093137440379012,0.118309377149102,0.320517093274449,0.051548915928952,3,0.577324760407472,14.0556790542187,0.195040251702812,255.353491870793,0.339122138365903,36.2719147830556,55,0.17,0,0,0
1.43799999999999,0,1,0,0,1,1,0,1,1,0.410048397580796,0,0.47426883341713,0.425962989755738,-0.006410661315137,0.136547936612781,0.825613221274881,0.307493847937961,0.182743655505659,3,0.391020205336797,11.5592593239999,0.267622544265002,345.319650492708,0.494984846687364,37.0281352346085,35,0,0,0,0
1.44799999999998,0,1,0,0,1,1,0,1,1,0.419376411600415,0,0.484215802382612,0.461370450919118,-7.24516310184305E-05,0.194873384769131,0.824757499202907,0.159219668619639,0.61940673187002,3,0.164265061588338,11.9847793130767,0.25070631940948,370.686443495006,2.15162745811308,38.641587756965,25,0,0,0,0
1.45799999999997,0,1,0,0,1,1,0,0,1,0.428750563902208,0,0.494100577184078,0.4393938771614,-0.012425656543154,0.19889307366917,0.648768006899201,0.087656068212509,0.92766791849308,3,0.367174497949681,4.33654491434438,0.162629197269157,458.043953002528,2.59190725237329,41.9567277152509,10,0,0,0,0
1.46799999999996,0,1,0,0,1,1,0,0,1,0.438110370523703,0,0.50392188819071,0.447971236407543,-0.044939796277211,0.160102323040406,-0.019458112798082,-0.282519817389692,1.04148982525537,3,0.567532563235837,1.48680265401664,0.09404331773122,277.918880842819,1.49207589785693,44.312797089648,0,0,0,0,0
1.47800000000001,0,1,0,0,1,1,0,0,1,0.447333217769899,0,0.513678473923174,0.448367283409061,-0.037341568861863,0.095406085323738,-0.171322701349805,-0.229237983646695,0.965863737017792,3,0.535961860210923,1.16609366061548,0.056497717876733,100.438194807187,1.11892081607256,44.2117652738307,0,0,0,0,0
1.488,0,1,0,0,1,0,0,0,1,0.456603666245174,0,0.523369081215651,0.423798530977307,-0.028864398095287,0.035335995130621,-0.217118401951559,0.142356268095021,0.773669747177891,3,0.392460260569886,1.22054234898187,0.070854359553557,66.6862928234903,2.35913465014975,42.7121907629305,15,0,0,0,0
1.49799999999999,0,1,0,0,1,1,0,0,1,0.465921351050504,0,0.532992465376792,0.408150794592986,-0.023773272575768,0.037828202065598,-0.195628998677354,0.485557209581763,0.626834948853297,3,0.230533864812525,0.844784497389947,0.07953863570509,92.5231626758856,1.45525227423677,40.9827712529766,5,0.01,0,0,0
1.50999999999999,0,1,0,0,1,1,0,0,1,0.475150713496458,0,0.542547390349597,0.413246272675371,-0.028001757154874,0.004531191510151,0.168622196525091,0.663929936983617,0.453561488110272,3,0.133317176996531,0.652282058144154,0.057192317861604,103.006692645615,1.22029646925547,39.7961817407379,0,0,0,0,0
1.51999999999998,0,1,0,0,1,1,0,0,1,0.484781429911281,0,0.552032628870171,0.438351930515999,-0.0460574154994,-0.026784252408522,0.202164560218682,0.717167663240438,0.391977983708349,3,0.233483118672553,1.14725902966133,0.075755551260925,103.731634260746,0.270336884839461,39.3327520269532,0,0,0,0,0
1.52999999999997,0,1,0,0,1,1,0,0,1,0.493905616270695,0,0.561446962625363,0.474996035612269,-0.070185597314964,-0.05696217871621,-0.045031707056385,0.52489631394485,0.374048871778614,3,0.265499663025922,1.83446408423395,0.098438999855837,107.589161787787,0.138002942959038,39.4529982819581,0,0,0,0,0
1.53799999999995,0,1,0,0,1,1,0,0,1,0.502876509538245,0,0.570789182409248,0.501404176663121,-0.064575486777994,-0.07304909571728,-0.159784968744609,0.338177211206448,0.461396459871947,3,0.230752387056025,2.39843086765151,0.1232071423417,116.424760441419,0.549136850629936,39.7970458093747,0,0,0,0,0
1.548,0,1,0,0,1,1,0,0,1,0.512049126307409,0,0.580058088278438,0.514469160432371,-0.050620149125565,-0.090796947421038,-0.107801938798557,0.283590959555204,0.546005703347045,3,0.122391619752924,2.0167990205286,0.115825438334524,125.082709247087,0.593161736797648,40.5659299851215,0,0,0,0,0
1.55799999999999,0,1,0,0,1,1,0,0,1,0.521270087238379,0,0.589252489706213,0.531008405213092,-0.04388098936641,-0.110663582381417,-0.06061627130611,0.289293045972382,0.660429832227843,3,0.082433605907671,1.87635985494279,0.109354888479923,116.612617057011,1.01094306952577,41.2739657249189,0,0,0,0,0
1.56799999999998,0,1,0,0,1,1,0,0,1,0.530403014856028,0,0.598371205735429,0.541420013100114,-0.038530509491742,-0.122201409053784,-0.097708531083172,0.397946145425939,0.711503560371772,3,0.151029070184527,1.50117537604635,0.093974986929813,117.191166250915,0.593003310983651,41.9731191545224,0,0,0,0,0
1.57799999999997,0,1,0,0,1,1,0,0,1,0.539547328842457,0,0.607413065130208,0.55490364095304,-0.040815172101828,-0.13088127242892,-0.305984571670148,0.433063071736563,0.730170889567879,3,0.181524754732672,1.85029450544302,0.104873329526052,123.982266095144,0.303033169322901,42.3349059359712,0,0,0,0,0
1.58799999999997,0,1,0,0,1,1,0,0,1,0.54865475107575,0,0.616376906526376,0.569569463734001,-0.038925789848128,-0.128356115902493,-0.199693820574002,0.35809558227979,0.668805868408244,3,0.144289626072413,1.75316009487987,0.105736534866117,151.998428753501,0.434462765803912,42.1673449971027,0,0,0,0,0
1.59799999999996,0,1,0,0,1,1,0,0,1,0.557795615478595,0,0.625261578580627,0.592639389652501,-0.034337981783107,-0.114597200540369,0.276161070703428,0.43019392990204,0.541621858072505,3,0.111917655844126,1.39058970573901,0.119476459584368,180.956150697666,0.742037501363329,41.4001345426555,0,0,0,0,0
1.608,0,0,1,1,0,1,0,0,1,0.566856948071828,0,0.634065940118411,0.586702175160009,-0.040738229309136,-0.107241562260507,0.28847076047345,0.803968345269522,0.481146545436725,3,0.186427559837486,1.01223077360794,0.103521028979148,154.75591791205,0.353778292076951,40.7933460383929,80,0,0,0,0
1.618,0,0,1,1,0,1,1,1,1,0.575872536678407,0,0.642788860280504,0.594194609376601,-0.041780609419138,-0.108587117818689,0.07014693398165,0.94888561785206,0.486256965029511,3,0.221042011240953,0.479609994651544,0.054580940080672,148.687965174508,0.15161597897861,40.5813545507506,70,0,0.18,0.16,0
1.62799999999999,0,0,1,1,0,1,1,1,1,0.584998179739822,0,0.651429218668267,0.613818362227844,-0.018966559724444,-0.070800138745279,0.074040333341856,0.707596782296254,0.556737955282031,3,0.163369058784491,0.878434585736938,0.072887568885478,235.241935150636,0.713766871340536,40.9278658555996,50,0,0,0,0
1.63799999999998,0,0,1,1,0,1,1,1,0,0.594010054515683,0,0.659985905487544,0.633508494413716,-0.00703546169324,-0.075717699929897,0.214502265829356,0.154683265149958,0.597434086800262,3,0.134841513576095,1.05788670235133,0.090622272335293,151.997855808556,0.471558898473574,41.2589635463332,35,0,0,0,0
1.64799999999997,0,0,1,1,0,0,1,1,0,0.603042467382535,0,0.668457821691215,0.62843304361965,-0.026313258110525,-0.07817304927348,-0.520947719714052,-0.33001359401789,0.623316288809584,3,0.094781594723382,1.77686195815792,0.110227644779015,117.671154864419,0.23804374149344,41.6884944287419,5,0,0,0,0
1.65799999999996,0,0,1,1,0,0,1,1,0,0.612035520019127,0,0.676843879120357,0.613003564701359,-0.057326785234309,-0.079150122226193,-0.983646146441556,-0.404395827041215,0.650694976598141,3,0.096692205950523,1.74556523991231,0.094081197868418,172.825476407558,0.258383890839049,41.7117874070231,0,0,0,0,0
1.66800000000001,0,0,1,1,0,0,1,1,0,0.621052553113046,0,0.685143000644012,0.578658306487334,-0.047129869262233,-0.061842891479324,-0.962550065385568,-0.155260080731802,0.680752922774427,3,0.102378100164303,1.42466178417501,0.102334488096265,204.091771757794,0.342842493929321,41.6859783925533,0,0,0,0,0
1.678,0,0,1,1,0,0,1,1,0,0.629967764782097,0,0.693354120297536,0.549879252801225,-0.03328892325401,-0.061336085082157,-0.717490551734691,0.176614359497215,0.775616064573485,3,0.167784267133401,1.2088496145894,0.103378038281246,195.119997751781,0.65558689997145,42.2299886935962,0,0,0,0,0
1.68799999999999,0,0,1,1,0,0,1,1,0,0.639032781755203,0,0.701476183419516,0.564364784947072,-0.021804968117592,-0.069495858512978,-0.215918622491632,0.280189292383761,0.732113494982196,3,0.169638235053913,0.949575312532513,0.104149918943982,189.41626570469,0.433014637284735,42.3275812895012,0,0,0,0,0
1.69799999999998,0,0,1,1,0,0,1,1,0,0.647823579058515,0,0.709508146787233,0.593007371327606,-0.023811491114845,-0.079475814577578,0.208520765958166,0.129723823149761,0.63539214309857,3,0.123800152820667,1.32406180840086,0.120691749369548,167.815194843196,0.565180217688241,41.6369733751598,0,0,0,0,0
1.70799999999997,0,0,1,1,0,0,1,1,0,0.656726987338604,0,0.717448978750657,0.629822645437879,-0.032316220102535,-0.077817892042105,0.518158536237131,-0.076985309967102,0.546312677027836,3,0.20476036772817,1.3909663482866,0.126266619468606,161.262034151166,0.338770979927911,41.0854354360845,0,0,0,0,0
1.71999999999997,0,0,1,1,0,0,1,1,0,0.665770309779072,0,0.725297659364956,0.641141903986235,-0.045557864957277,-0.067173941087546,0.553481951426041,-0.166396759574309,0.576815612041232,3,0.227323854419453,1.08494560346264,0.111628263700576,169.557310233651,0.382709563733759,41.0978114034688,0,0,0,0,0
1.72800000000001,0,0,1,1,0,0,1,1,0,0.67451294569934,0,0.733053180521497,0.649088874790682,-0.061285371383774,-0.029069172698885,0.420431632006291,-0.13498817452793,0.646752928566062,3,0.197577715403172,1.3359968720821,0.098154031868089,159.572351933261,0.674887602456509,41.4689750537206,0,0,0,0,0
1.738,0,0,1,1,0,0,1,1,0,0.683289140545441,0,0.740714546077339,0.644853720982871,-0.060177162064732,0.00702713508633,0.246834345367913,-0.059164112711217,0.729949367623342,3,0.131395632626438,1.65230625911006,0.089003033652637,147.212944889314,0.692965611187824,42.1868193103959,0,0,0,0,0
1.74799999999999,0,0,1,1,0,0,1,1,0,0.692119400996286,0,0.748280771983171,0.630687812481377,-0.064189339959735,0.013179706177551,0.025495713796497,0.002862570784206,0.811501917406433,3,0.150514760735362,2.52474039808921,0.103172580866289,139.472418378221,0.660805242364376,42.8357815441212,0,0,0,0,0
1.75799999999998,0,0,1,1,0,0,1,1,0,0.700916453136,0,0.755750886409713,0.615006281191351,-0.057755216425722,0.026172085391078,-0.014451858644323,0.059538181149121,0.865507836990373,3,0.226949091207374,2.09317454298082,0.108278690861291,139.368627668914,0.407664391032383,43.3656506389256,0,0,0,0,0
1.76799999999997,0,0,1,1,0,0,1,1,0,0.709644199504085,0,0.763123929872537,0.611189692638254,-0.054196870848344,0.003564823066487,0.025390596307773,-0.038823781799888,0.785400390035981,3,0.218391565123847,1.27542435502544,0.123435444393554,139.115749617541,0.871006647793216,43.162015332535,0,0,0,0,0
1.77799999999996,0,0,1,1,0,0,1,1,0,0.718376830138744,0,0.770398955355308,0.605190693444854,-0.064047109484737,-0.010817570698077,0.166176737645015,-0.011414741942415,0.669236373218305,3,0.21644252220483,0.898906592163741,0.1246362152596,143.2675730667,1.08489471199463,42.0679046864689,0,0,0,0,0
1.78999999999996,0,0,1,1,0,0,1,1,0,0.727250036943986,0,0.777575028431422,0.600663253072568,-0.072094451729293,-0.030743886466846,0.289994226585083,0.109932516109425,0.58103066989817,3,0.35559761530951,0.801890265333179,0.109598551971051,146.10697058742,0.671272533267405,41.117800105709,0,0,0,0,0
1.798,0,0,1,1,0,0,1,1,0,0.735806720116756,0,0.784651227384025,0.612287404163785,-0.091077998037638,-0.028838082262806,0.191374721625741,0.162903001522163,0.665988599144298,3,0.370525131987766,0.620896103133889,0.097142214599528,147.00927426928,0.838453154761806,41.1902314831021,0,0,0,0,0
1.80799999999999,0,1,0,0,1,0,1,1,0,0.744534001446614,0,0.791626643324403,0.632795986105829,-0.101704042441352,-0.041318874350293,0.156147536485308,0.118829001740161,0.800799365568341,3,0.258774473754056,0.540765042199798,0.109464022848948,140.01116920941,1.48461143326319,42.3755535471326,80,0,0,0,0
1.81799999999998,0,1,0,0,1,1,1,1,1,0.7533050174013,0,0.79850038030872,0.61925858189573,-0.091056546877112,-0.020865055808362,-0.079795726885718,0.31836654448887,0.803335847848321,3,0.254636095752277,0.654235825757207,0.100535256795503,167.062980640612,1.02788105702343,43.1056336229546,75,0.17,0,0,0.18
1.82799999999997,0,1,0,0,1,1,1,1,1,0.76192816968557,0,0.805271555453098,0.599482760864871,-0.061447707882814,0.009019134675758,-0.200744020779345,0.711549262706705,0.580190325799904,3,0.35729214345978,0.554103235565076,0.09234852450798,265.533498748863,1.94850738418758,41.3468226816539,50,0,0,0,0
1.83999999999998,0,1,0,0,1,1,1,0,1,0.770628608174531,0,0.811939299047017,0.633673132036464,-0.058164850461369,0.00671586178358,0.171926617148551,0.554033587879434,0.438525114615795,3,0.535264416928806,1.70378249090656,0.121541924273659,172.105890097359,0.621511868834875,39.9802385953811,45,0,0,0,0
1.84799999999996,0,1,0,0,1,1,0,0,1,0.778918714422427,0,0.818502754665022,0.679995486519561,-0.054377029359986,0.061203529928093,-0.441185929545595,0.20772372925907,0.503338560493291,3,0.524087218791088,4.00090118389635,0.205762964889064,145.32221132582,0.664644141156969,40.2581339318541,20,0,0,0,0
1.858,0,1,0,0,1,1,0,0,1,0.787495054349245,0,0.824961079276726,0.731432764691686,-0.057348564903983,0.122952211761689,-0.782170287440516,-0.040435265324335,0.727558509717945,3,0.318625784427879,4.37858605486728,0.224687246505532,235.386152140501,2.03754816633282,41.966594028727,0,0,0,0,0
1.868,0,1,0,0,1,1,0,0,1,0.795993795256719,0,0.831313443355091,0.728377402121766,-0.035550606744383,0.158806817571686,-1.08947637749434,-0.333614297517254,0.797176828859421,3,0.16415267749865,1.95801414470064,0.156027307327489,316.483158538129,0.51271012881496,43.5007489221285,0,0,0,0,0
1.87799999999999,0,1,0,0,1,1,0,0,1,0.80452257042816,0,0.837559030982976,0.715455272509202,-0.000948864209656,0.167909205378045,-0.556150162649782,-0.503906744430615,0.944380354245013,3,0.149339781921372,0.857501989484235,0.094543733371082,281.345838715654,1.37733247087937,44.6164245908143,0,0,0,0,0
1.88799999999998,0,1,0,0,1,1,0,0,1,0.812939201032807,0,0.843697039957935,0.706880294177013,0.00906346749514,0.135006001304851,0.146093551329281,-0.441539270389529,1.04846901247446,3,0.271134104455877,0.374413577324486,0.06279466553324,211.468284265263,1.14709251455902,46.068714085098,0,0,0,0,0
1.89799999999997,0,1,0,0,1,1,0,0,1,0.821432027859824,0,0.849726681895253,0.69239839733848,-0.010713959525919,0.090069207606321,0.497254507843991,-0.267451635854709,1.03620451956972,3,0.342606956834793,0.308115387057904,0.042387212804046,160.727464969151,0.857512367057732,46.6946701408233,0,0,0,0,0
1.90799999999996,0,1,0,0,1,1,0,0,1,0.829792553865286,0,0.855647182329211,0.695301396965401,-0.045049150905254,0.075842329239832,0.167886978141639,-0.191550545934065,0.866738116226846,3,0.245660078600891,0.587291880914058,0.052635339001534,137.165659731039,2.01362589548059,45.1144347761593,0,0,0,0,0
1.91800000000001,0,1,0,0,1,1,0,0,1,0.838207343039217,0,0.86145778081256,0.713440469064439,-0.070281192384815,0.061611703641232,-0.292657128722277,-0.274996169093671,0.718504272650745,3,0.2769223536426,1.12107117116748,0.083577956211708,157.883961105966,1.3315412302799,43.5932121596701,0,0,0,0,0
1.928,0,1,0,0,1,1,0,0,1,0.846576164218913,0,0.867157731014195,0.743483730501039,-0.076469083151868,0.061446375130861,-0.352356672251112,-0.473623808084307,0.650656185259242,3,0.376397186252756,1.32698692208465,0.103912775420873,186.04559144452,0.329035818494487,42.9650748608926,0,0,0,0,0
1.93799999999999,0,1,0,0,1,1,0,0,1,0.854912828926091,0,0.872746300815013,0.74753603557791,-0.070559338292693,0.066862037546614,-0.462667055374467,-0.46889410508201,0.628001754797181,3,0.410650012051146,1.30208511464834,0.109486740502775,206.802493364387,0.173215475630788,42.8487987637876,0,0,0,0,0
1.94799999999998,0,1,0,0,1,1,0,0,1,0.863212765507103,0,0.878222772401957,0.737683919588907,-0.064353129071906,0.069075500499472,-0.417604745318295,-0.248157902072099,0.696548877623581,3,0.398224564613319,1.2848505262498,0.114898019017765,208.925903678177,0.446491719186816,43.0028735871342,0,0,0,0,0
1.95799999999997,0,1,0,0,1,1,0,0,1,0.871498281795886,0,0.883586442360203,0.72024009363055,-0.05532756078668,0.0481310918635,-0.158648980222984,0.008938776779952,0.818839869179733,3,0.315287192426488,0.832929821341023,0.08995067357705,189.611918980153,0.978182523955851,43.7934322157128,0,0,0,0,0
1.96799999999996,0,1,0,0,1,1,0,0,1,0.879760527478971,0,0.88883662176352,0.711999592772188,-0.054160669117981,0.01939043841262,0.048072918809905,0.206407252286011,0.913994575853708,3,0.237355469551319,0.524486130869066,0.078775342793612,162.794141958446,0.969631625386083,44.8966293656949,0,0,0,0,0
1.97800000000001,0,1,0,0,1,1,0,0,1,0.887982932848538,0,0.893972636262747,0.715775502966535,-0.054093555813662,-0.018952288137547,0.206546679233836,0.261243839454164,0.937025762193694,3,0.267462925674547,0.59015479367895,0.076779877797595,137.8916676783,0.34605701534085,45.3795283728268,0,0,0,0,0
1.988,0,1,0,0,1,1,0,0,1,0.896197166770098,0,0.898993826172417,0.750855812682426,-0.05272592356221,-0.03688848061093,0.347456307272014,0.227371076773085,0.889009264013553,3,0.229597714563934,1.08294017214884,0.101012873625183,136.178795314755,0.24395403761638,45.3526189423881,0,0,0,0,0
1.99799999999999,0,1,0,0,1,1,0,0,1,0.904369689788208,0,0.903899546555485,0.784284933298175,-0.063653808253501,-0.038070063636236,0.406618481190823,0.157787834099165,0.751453396429673,3,0.284325097526241,1.21841780013893,0.117432415484316,172.408060195634,1.00568262506258,44.4631932713255,0,0,0,0,0
2.00799999999998,0,0,1,1,0,1,0,1,1,0.912499600755763,0,0.908689167306166,0.814631302416512,-0.063131774479702,-0.020843545696596,0.458614010993393,0.349432689768918,0.7172399644888,3,0.357592669852926,1.13846103718933,0.122901220093159,204.733982057833,0.361823589039074,43.857001438862,75,0,0,0.17,0
2.01799999999997,0,0,1,1,0,1,1,1,1,0.920624436707534,0,0.913362073230869,0.838828104605926,-0.060103095679054,-0.023178015379276,1.10716511639281,0.814387740622509,0.839137262552433,3,0.286496919846498,1.13548495544171,0.104071129310242,240.929573266909,1.57486884910056,44.5259025658839,70,0,0.17,0,0
2.02799999999996,0,0,1,1,0,1,1,1,1,0.928696156147088,0,0.917917664127212,0.87738410669859,-0.069958323203855,0.029179067320251,0.569966161258096,0.632704008541864,0.919942895215326,3,0.154792295622319,0.98659748366239,0.086126576031389,248.573444782386,1.40848683749483,45.9512446558882,50,0,0,0,0
2.03799999999995,0,0,1,1,0,1,1,1,1,0.936750408746279,0,0.922355354861117,0.905412873713168,-0.07217318929139,0.068785134878661,-0.172873788625127,0.116616534382695,0.956641736813659,3,0.129838047360049,0.90869712164274,0.095429158848965,199.109055293788,0.700987042024252,46.9052966184226,50,0,0,0,0
2.048,0,0,1,1,0,0,1,1,0,0.944792717885482,0,0.926674575441965,0.898794638022475,-0.08585931310989,0.076676031089617,-0.392301254432273,-0.304130884770768,0.964727876319894,3,0.168664701414068,0.968543509378281,0.113518051709789,156.636705768772,0.697499034919103,47.4848853513754,30,0,0,0,0
2.05799999999999,0,0,1,1,0,0,1,1,0,0.952764413252922,0,0.930874771095804,0.877433801473467,-0.103432913177393,0.065766586144067,-0.737614669738904,-0.599494490570109,0.828452166850603,3,0.218384315504898,1.05827903769345,0.114779401251277,148.315692516356,1.81981283278006,46.2118146221859,0,0,0,0,0
2.06799999999998,0,0,1,1,0,0,1,1,0,0.960781473120769,0,0.934955402336614,0.853454438949707,-0.097207856586167,0.027551378747314,-0.482368102388953,-0.661614037274947,0.757454002617509,3,0.343438248886642,1.20361828924813,0.108572902384265,152.428772685799,1.00780484043958,45.118456928348,0,0,0,0,0
2.07799999999997,0,0,1,1,0,0,1,1,0,0.968651372977521,0,0.93891594503559,0.836383941194473,-0.095289934557065,-0.004890288327669,-0.148176087289812,-0.457862640300541,0.781303850261613,3,0.390556637363701,1.19386192331846,0.100500234057066,149.235943286641,0.252095015968305,44.6811137245421,0,0,0,0,0
2.08799999999997,0,0,1,1,0,0,1,1,0,0.976599317820281,0,0.942755890488471,0.833184057012412,-0.106310244255088,-0.023514404781837,0.346564650203145,-0.166599886260395,0.830101155323371,3,0.366168680947551,0.762318056739542,0.08990813435026,137.207779015352,0.506659289888976,45.0892414588979,0,0,0,0,0
2.09799999999996,0,0,1,1,0,0,1,1,0,0.984437447131973,0,0.946474745480877,0.83662558926962,-0.110287931423252,-0.045144844668723,0.786469934362506,-0.046829450623539,0.841710632954463,3,0.360485438797453,0.376566399304825,0.076411617326986,120.056836123197,0.237076674271991,45.2767105569631,0,0,0,0,0
2.108,0,0,1,1,0,0,1,1,0,0.992312285824302,0,0.950072032351656,0.845873604707226,-0.120560759650971,-0.061520516182824,0.887824116795509,-0.045713037975935,0.8098571198586,3,0.38439802993045,0.442728562480753,0.080124101772024,108.114096550987,0.177992357142561,45.1689327155682,0,0,0,0,0
2.11799999999999,0,0,1,1,0,0,1,1,0,1.00010555619842,0,0.953547289054241,0.852094015634269,-0.127730997837077,-0.067060419496295,0.734071139069759,-0.108619010254117,0.776094110066869,3,0.441486842089119,0.502247632659732,0.081159191065885,111.857268490923,0.191445867021351,44.7291546232614,0,0,0,0,0
2.12799999999999,0,0,1,1,0,0,1,1,0,1.00785886299678,0,0.956900069215992,0.859308934389235,-0.119381882627924,-0.05262563308619,0.598702032803639,-0.073701789446496,0.773573412714839,3,0.456089366628307,0.992253751403547,0.092950807752934,113.816210562538,0.14134673784174,44.5672530618517,0,0,0,0,0
2.13799999999998,0,0,1,1,0,0,1,1,0,1.01562068255341,0,0.960129942195535,0.860127320787417,-0.111167384734043,-0.035352920107007,0.491807653473328,-0.07254080712347,0.835298199220617,3,0.418644786363041,1.44295184745386,0.095095875387294,115.765790379617,0.692832957163326,44.852919732325,0,0,0,0,0
2.14799999999997,0,0,1,1,0,0,1,1,0,1.0232961643908,0,0.96323649313807,0.855307868119727,-0.109182003987979,-0.026335586773529,0.296152462475605,-0.126854807761736,0.934518441857791,3,0.336504666950207,1.95522457739471,0.106205024755333,115.481232403566,1.05004426859397,45.7504521479009,0,0,0,0,0
