"time","trans_flag","des_cont_state_fl","des_cont_state_fr","des_cont_state_rl","des_cont_state_rr","cont_state_fl","cont_state_fr","cont_state_rl","cont_state_rr","vel_cmd_x","vel_cmd_y","vel_cmd_yaw","base_vel_x","base_vel_y","base_vel_z","base_vel_roll","base_vel_pitch","base_vel_yaw","gait_id","base","CoT","musculoskeletal","foot_force","MWE","WEXT","stability","FL_stride_t","FR_stride_t","RL_stride_t","RR_stride_t"
0.009999999999991,0,1,1,1,1,1,1,1,1,0,0,0,-0.013857422941674,0.002669274419492,-0.00033680805398,-0.001824710285291,-0.000552182842512,-0.013937203213573,0,0.006092780114948,0,0.013679569128788,30.96,3.89086360212989,6.86295536751435,0,0,0,0,0
0.019999999999982,0,1,1,1,1,1,1,1,1,0,0,0,-0.011367300469932,-0.000501532006262,-0.001407014755835,0.001788031122204,-0.00424138956156,-0.010437612001381,0,0.026159540922947,0,0.068546785726237,154.866612405568,0.001049678802616,34.3130584802939,0,0,0,0,0
0.029999999999973,0,1,1,1,1,1,1,1,1,0,0,0,0.006054318001497,0.007058621163518,0.028325756356885,-0.010418439316543,0.005053499620169,-0.010052392551333,0,0.021688194684534,0,0.106374947874834,155.026694578334,0.036891771514199,34.3246861889043,0,0,0,0,0
0.038000000000011,0,1,1,1,1,1,1,1,1,0,0,0,0.014702540125622,0.016725720488119,0.068055939348761,-0.022636780175408,0.067448660638516,4.62867811369428E-05,0,0.031389489602472,0,0.151041030128872,165.259791202078,0.093179681717722,34.4123134226952,0,0,0,0,0
0.050000000000182,0,1,1,1,1,1,1,1,1,0,0,0,0.003116414135484,0.007147547960935,0.062179752710877,-0.047670212142179,0.076038160560649,0.011648000867144,0,0.024944197709937,0,0.135035357219525,175.322806770895,0.0418284989065,34.4700686714654,0,0,0,0,0
0.060000000000173,0,1,1,1,1,1,1,1,1,0,0,0,0.001498532851234,-0.0022073585621,0.05775804860231,-0.054479839073706,0.092790167212512,0.003818665881282,0,0.009791604934221,0,0.135243726003794,163.25519501207,0.050234572574455,34.5077282524073,0,0,0,0,0
0.070000000000164,0,1,1,1,1,1,1,1,1,0,0,0,0.012290176925788,-0.002526475715902,0.059456017862547,0.039174889495544,0.103159307534576,0.000700672184084,0,0.01559818319397,0,0.139561831784738,157.843093600198,0.073684781399007,34.5784594146752,0,0,0,0,0
0.080000000000155,0,1,1,1,1,1,1,1,1,0,0,0,0.017992624022586,-0.004015444238916,0.05515627990251,0.00233069158444,0.078639740819692,-0.025425581234086,0,0.039340662231281,0,0.13421516367111,158.12088134437,0.047351069589058,34.6429548025464,0,0,0,0,0
0.090000000000146,0,1,1,1,1,1,1,1,1,0,0,0,0.018929523900731,-0.004122549785032,0.04525144808084,-0.01373902095159,0.07936382954753,-0.019261329595506,0,0.044115938906002,0,0.130425892835238,152.75152118884,0.050456935675662,34.6922144294522,0,0,0,0,0
0.100000000000136,0,1,1,1,1,1,1,1,1,0,0,0,0.017915512856306,-0.003748097558316,0.036545524191622,0.012247980636046,0.095577060929508,-0.02242517793818,0,0.043089585570961,0,0.13264589148888,149.041975287196,0.051909531563224,34.7440529288495,0,0,0,0,0
0.108000000000175,0,1,1,1,1,1,1,1,1,0,0,0,0.023047958770615,-0.003603227696256,0.032594017139993,0.01581902849341,0.086288613752139,-0.025610155003974,0,0.050185221672538,0,0.131488550324252,149.535959646418,0.042355355385347,34.7940102654696,0,0,0,0,0
0.120000000000118,0,1,1,1,1,1,1,1,1,0,0,0,0.028071521127664,-0.003263503066911,0.02916864291634,0.010096187264845,0.079775825552093,-0.008676583865692,0,0.045441982782069,0,0.130509769103273,149.014796547355,0.038789691111235,34.8331197647476,0,0,0,0,0
0.130000000000109,0,1,1,1,1,1,1,1,1,0,0,0,0.028003862070798,-0.00410304692455,0.024115275333941,0.000242158261865,0.073037992324893,-0.014867997370226,0,0.045093983960687,0,0.131848198332121,149.157413908672,0.019399645014754,34.86159172355,0,0,0,0,0
0.138000000000147,0,1,1,1,1,1,1,1,1,0,0,0,0.028228510913699,-0.00398584458541,0.018399394621924,0.00904863484706,0.053737769962439,-0.003055167346045,0,0.038352508079392,0,0.130056741221282,148.725091264355,0.013778087876356,34.8739998460127,0,0,0,0,0
0.148000000000138,0,1,1,1,1,1,1,1,1,0,0,0,0.027461376185509,-0.004117097233232,0.014692278652015,-0.001385642598953,0.069094486605294,-0.009177082121066,0,0.038961245002631,0,0.12949756339122,148.3401759166,0.013776087270249,34.8880797283956,0,0,0,0,0
0.160000000000082,0,1,1,1,1,1,1,1,1,0,0,0,0.024432981552552,-0.004070029666998,0.013902354820184,-0.022257663897893,0.067768352440457,-0.015461816368104,0,0.044526258899868,0,0.129663706897384,149.165741297586,0.01150848494875,34.9002106493277,0,0,0,0,0
0.170000000000073,0,1,1,1,1,1,1,1,1,0,0,0,0.020882998509985,-0.005072789252294,0.014527371340463,-0.021096640551365,0.071435122740699,-0.009821292099044,0,0.038025333643031,0,0.130087387024272,149.758159662025,0.015463762606373,34.9115505937675,0,0,0,0,0
0.180000000000064,0,1,1,1,1,1,1,1,1,0,0,0,0.018064746599757,-0.006402063791524,0.015721504663972,-0.01754597610153,0.060421375953617,-0.015068971555113,0,0.036717146049665,0,0.129925872834993,150.943203058519,0.013118075087471,34.9244251169607,0,0,0,0,0
0.188000000000102,0,1,1,1,1,1,1,1,1,0,0,0,0.01512535785726,-0.007424026884597,0.018428261072898,-0.007516034711432,0.060168481707003,-0.009240863439839,0,0.035978877292791,0,0.130905305161265,151.88051887474,0.016670714166022,34.9387442091477,0,0,0,0,0
0.200000000000045,0,1,1,1,1,1,1,1,1,0,0,0,0.012577499466213,-0.008902132430486,0.020857053815984,-0.021710345741344,0.052252977990882,-0.012308422356267,0,0.031365392568581,0,0.130901319968269,152.376575793087,0.016555911646629,34.9539342776031,0,0,0,0,0
0.210000000000036,0,1,1,1,1,1,1,1,1,0,0,0,0.010123603636657,-0.009705028382965,0.021608787538246,-0.006093701072091,0.053057691563512,-0.004860313955675,0,0.031365093305862,0,0.130643734077417,152.042104694593,0.018830452518545,34.9709675490415,0,0,0,0,0
0.218000000000075,0,1,1,1,1,1,1,1,1,0,0,0,0.008945807698432,-0.011415997232708,0.019682917244581,0.009625352821505,0.04555276482599,0.002899055852412,0,0.022521833035143,0,0.131222705866637,151.640402783218,0.016771643205223,34.9874731791556,0,0,0,0,0
0.230000000000018,0,1,1,1,1,1,1,1,1,0,0,0,0.007991467387685,-0.013466347712797,0.01924708139712,-0.014429945461907,0.048878861126912,-0.002005111859772,0,0.022689382471311,0,0.131601280069237,150.526092328849,0.017387824405192,35.0053622257897,0,0,0,0,0
0.240000000000009,0,1,1,1,1,1,1,1,1,0,0,0,0.007612937741974,-0.013964406548339,0.018656722500537,-0.02359517192077,0.043786017181465,0.003764839599856,0,0.024074068468805,0,0.131000204803096,150.828087084393,0.017530318939864,35.0225134255256,0,0,0,0,0
0.248000000000047,0,1,1,1,1,1,1,1,1,0,0,0,0.00705294075001,-0.014086394574163,0.018395979118406,-0.022359948935651,0.051679921868553,-0.011459000428627,0,0.026674592197981,0,0.132348861003215,150.578627715765,0.016564075973218,35.039971642209,0,0,0,0,0
0.259999999999991,0,1,1,1,1,1,1,1,1,0,0,0,0.006520340569839,-0.01369164488808,0.018160830635761,-0.036131081043713,0.046453732263818,-0.009341816879711,0,0.032509793084398,0,0.132239132694801,150.235364179112,0.018706722353564,35.0590259803116,0,0,0,0,0
0.269999999999982,0,1,1,1,1,1,1,1,1,0,0,0,0.004716286409245,-0.012636143290435,0.016538261971245,-0.034887626805702,0.039808401171313,-0.012753181298974,0,0.028626070146291,0,0.132063692065603,149.853441689099,0.015053217305837,35.0752826157958,0,0,0,0,0
0.27800000000002,0,1,1,1,1,1,1,1,1,0,0,0,0.003245651386018,-0.012045591328079,0.014920232142744,-0.035338930045163,0.011532129784731,-0.013126798420487,0,0.028652475560306,0,0.131906814787872,149.178501347286,0.013088017323191,35.088508801124,0,0,0,0,0
0.288000000000011,0,1,1,1,1,1,1,1,1,0,0,0,0.001948534858466,-0.011979754256723,0.012433544874718,-0.029698720572909,0.014111962101571,-0.016297161204128,0,0.03034822989233,0,0.131671100742281,148.69443223446,0.012902217492504,35.1026242818692,0,0,0,0,0
0.300000000000182,0,1,1,1,1,1,1,1,1,0,0,0,-0.000528662980334,-0.010979899230385,0.011695794118406,-0.03474477295217,0.021992684051791,-0.008053894928014,0,0.023549880132999,0,0.132935522265164,148.610449920565,0.01060237339064,35.1127716004674,0,0,0,0,0
0.310000000000173,0,1,1,1,1,1,1,1,1,0,0,0,-0.00208638542018,-0.010390517538016,0.011474052017089,-0.044378060284607,0.029074531299347,-0.001355411924797,0,0.015698644368654,0,0.131689821159879,148.830531093782,0.011910631472558,35.1216779425391,0,0,0,0,0
0.320000000000164,0,1,1,1,1,1,1,1,1,0,0,0,-0.002237423806004,-0.010527908779514,0.012007413187333,-0.030010048974091,0.022126349384088,-0.006832500078788,0,0.016604596721165,0,0.133830499483171,149.861135851946,0.01367124909943,35.1353159316009,0,0,0,0,0
0.330000000000155,0,1,1,1,1,1,1,1,1,0,0,0,-0.001963081564893,-0.012019310565778,0.012252359780302,-0.013318402010743,0.027027213059383,-0.00111205613255,0,0.017099823973382,0,0.133451345702676,150.107718196203,0.014067110112691,35.1493833197182,0,0,0,0,0
0.340000000000146,0,1,1,1,1,1,1,1,1,0,0,0,-0.002771127093146,-0.014870119381396,0.013026397337878,-0.024150305528109,0.035554371866929,-0.006572640416548,0,0.02092009010305,0,0.134651822584653,150.568029742853,0.010870664677158,35.162611998543,0,0,0,0,0
0.350000000000136,0,1,1,1,1,1,1,1,1,0,0,0,-0.003860679054887,-0.016676669656198,0.013135308489482,-0.035261705656214,0.035145442158348,-0.010389577144033,0,0.027425611472952,0,0.132855378656324,150.055699562852,0.01119220403101,35.1744956140616,0,0,0,0,0
0.360000000000127,0,1,1,1,1,1,1,1,1,0,0,0,-0.004400141397789,-0.018084802853558,0.014501798319003,-0.046818283585453,0.031145868024244,-0.0111487916711,0,0.032385348188101,0,0.132212636392092,150.316346961121,0.015763974333901,35.1896663556688,0,0,0,0,0
0.370000000000118,0,1,1,1,1,1,1,1,1,0,0,0,-0.00498546807551,-0.017901501601382,0.016641215969412,-0.039249209186283,0.019449689619919,-0.012096932671657,0,0.036019373058014,0,0.132896936732133,150.665674098838,0.017664318955431,35.2077722883052,0,0,0,0,0
0.380000000000109,0,1,1,1,1,1,1,1,1,0,0,0,-0.005795239878844,-0.017777149702088,0.018748984511859,-0.040975482626144,0.013337681245891,-0.030654636938375,0,0.046057422663069,0,0.13196055913987,150.527672477572,0.014684883558226,35.229059714997,0,0,0,0,0
0.3900000000001,0,1,1,1,1,1,1,1,1,0,0,0,-0.006747922298896,-0.017218031565474,0.019384703694976,-0.025420654593212,0.015489102420636,-0.007183741909436,0,0.039526552344294,0,0.131828615709146,150.426351749757,0.023252065586625,35.2458238414619,0,0,0,0,0
0.400000000000091,0,1,1,1,1,1,1,1,1,0,0,0,-0.007281167878267,-0.016385051314941,0.018118554668813,-0.032453634521093,0.010339415796355,-0.025937476213273,0,0.045872346569822,0,0.130977776883531,149.343797621208,0.012674475114845,35.2646077512043,0,0,0,0,0
0.410000000000082,0,1,1,1,1,1,1,1,1,0,0,0,-0.007699583034714,-0.015931142025564,0.017168458852914,-0.052821704815838,-0.000900932030176,-0.018069294720389,0,0.042501558193185,0,0.132002038523808,148.731377780137,0.016766101562086,35.2782997833533,0,0,0,0,0
0.420000000000073,0,1,1,1,1,1,1,1,1,0,0,0,-0.008982420206537,-0.015055311551031,0.015076711393621,-0.041850401127549,0.006006078514029,-0.000519662939396,0,0.030748031150377,0,0.131071282364988,148.027712909442,0.015413774018347,35.2901019729991,0,0,0,0,0
0.430000000000064,0,1,1,1,1,1,1,1,1,0,0,0,-0.010153661537151,-0.014862923415922,0.013370185824924,-0.034382983793086,0.016919654266445,0.009301950089368,0,0.030206657264249,0,0.133019130094017,147.621641086595,0.010718969456428,35.3026856821835,0,0,0,0,0
0.440000000000055,0,1,1,1,1,1,1,1,1,0,0,0,-0.009924111209985,-0.016803550574022,0.011160368824937,-0.037434185028334,0.027515850019741,0.006989838025225,0,0.035162408179909,0,0.132940270281284,147.717181467859,0.010135215647895,35.3135952912627,0,0,0,0,0
0.448000000000093,0,1,1,1,1,1,1,1,1,0,0,0,-0.00976849711963,-0.019282271215776,0.008917787557218,-0.038080790832197,0.032031352656135,0.000578261774129,0,0.029893792418491,0,0.13295992162242,147.552901791811,0.00627617792392,35.321424119501,0,0,0,0,0
0.460000000000036,0,1,1,1,1,1,1,1,1,0,0,0,-0.010470381738105,-0.020733593875766,0.008137890773047,-0.023574197250866,0.025816923546036,0.000476284489874,0,0.032090397089634,0,0.133114842945434,147.321014422299,0.007691594031508,35.3294265098596,0,0,0,0,0
0.470000000000027,0,1,1,1,1,1,1,1,1,0,0,0,-0.010054842045824,-0.02292654062645,0.009695179843314,-0.034933311598538,0.009569723275175,-0.022414948048166,0,0.047532971870308,0,0.132139723834253,148.821118831118,0.004977560240665,35.3401659148699,0,0,0,0,0
0.480000000000018,0,1,1,1,1,1,1,1,1,0,0,0,-0.010821284930802,-0.024349797627188,0.011983391628593,-0.051350490818728,-0.000465191019798,-0.015250557816601,0,0.051479417350521,0,0.131336366232932,149.909117898624,0.010260090253993,35.3493808335803,0,0,0,0,0
0.490000000000009,0,1,1,1,1,1,1,1,1,0,0,0,-0.011988679843801,-0.024627515423162,0.013791003285621,-0.030180497764681,-0.00282532178931,-0.016936273482143,0,0.053056524253658,0,0.130699862178406,150.306815889196,0.011079831478027,35.3603789199682,0,0,0,0,0
0.5,0,1,1,1,1,1,1,1,1,0,0,0,-0.013244809609369,-0.024369290346037,0.015585845624048,-0.03445803137243,0.004954571699433,-0.00647129622377,0,0.048708275087417,0,0.129977991270146,150.563421631533,0.013325868939915,35.3719095471068,0,0,0,0,0
0.508000000000038,0,1,1,1,1,1,1,1,1,0,0,0,-0.013516270144282,-0.022831050802386,0.013684473488269,-0.031728821885182,0.000637809032689,0.012869334388484,0,0.043437201433148,0,0.130155852216305,149.180251218118,0.012741750582297,35.3836683934,0,0,0,0,0
0.519999999999982,0,1,1,1,1,1,1,1,1,0,0,0,-0.013849248941799,-0.022549337109029,0.012645510987931,-0.034132621055873,-0.001485056130885,0.006309947698846,0,0.047333156814309,0,0.13031110356698,148.37748696776,0.014037742182483,35.3969588541979,0,0,0,0,0
0.52800000000002,0,1,1,1,1,1,1,1,1,0,0,0,-0.013865050178765,-0.02204679006253,0.010677171568536,-0.056807615800356,-0.001669866359141,-0.003049128692159,0,0.038427177674335,0,0.133021461637089,147.971020461274,0.010684721769833,35.4079341421303,0,0,0,0,0
0.538000000000011,0,1,1,1,1,1,1,1,1,0,0,0,-0.015089426543943,-0.022060347716522,0.007681373622095,-0.018708475695664,-0.00161361139232,0.005369660245155,0,0.039398143374242,0,0.131667026571333,147.023087672721,0.008244413266933,35.4172104040869,0,0,0,0,0
0.550000000000182,0,1,1,1,1,1,1,1,1,0,0,0,-0.017063676494433,-0.022343324443117,0.006563698215061,-0.025629683104309,0.019497637724047,-0.004072511877361,0,0.041615726289969,0,0.131430497769719,147.645383415662,0.004774121675608,35.424312124509,0,0,0,0,0
0.560000000000173,0,1,1,1,1,1,1,1,1,0,0,0,-0.01831212777637,-0.022356883640294,0.005913618880174,-0.038262191225885,0.017774572936507,-0.00096610755022,0,0.043093881191289,0,0.131538092348456,147.996886863615,0.00470386679189,35.4290228610988,0,0,0,0,0
0.570000000000164,0,1,1,1,1,1,1,1,1,0,0,0,-0.018804516045286,-0.023310486771438,0.005946729327892,-0.017179968608929,0.006689423082615,-0.003253939754519,0,0.042737273090063,0,0.133384262035847,147.786779597365,0.00526011601716,35.4353590409751,0,0,0,0,0
0.577999999999975,0,1,1,1,1,1,1,1,1,0,0,0,-0.020251730172563,-0.024159868854414,0.005760717436339,-0.012438244624584,0.008924761309655,0.003039204901861,0,0.04628966570767,0,0.13279628204196,147.92504369868,0.004825524219078,35.4407657572632,0,0,0,0,0
0.590000000000146,0,1,1,1,1,1,1,1,1,0,0,0,-0.019465960024841,-0.026269396004457,0.00585407335459,-0.007337833016979,0.010881739626268,-0.003461802483623,0,0.047630034580434,0,0.130612013111305,147.977714526378,0.007295886748989,35.4485276696634,0,0,0,0,0
0.600000000000136,0,1,1,1,1,1,1,1,1,0,0,0,-0.017980540891939,-0.027485175646956,0.005678558549313,-0.009937164816176,0.001060755671444,-0.007121332606602,0,0.050848405167345,0,0.130784382999779,148.286572358938,0.006502560356562,35.4560244772768,0,0,0,0,0
0.608000000000175,0,1,1,1,1,1,1,1,1,0,0,0,-0.017373516809655,-0.028116292307174,0.006372781666115,0.012522959763862,-0.000348009984394,-0.013371225414223,0,0.05618066012189,0,0.130120585880433,149.205002370919,0.005986276103571,35.4635924872674,0,0,0,0,0
0.618000000000166,0,1,1,1,1,1,1,1,1,0,0,0,-0.01797945263824,-0.027771459403419,0.008511411182827,0.020289290995374,0.001855001753997,0.001959912159464,0,0.05263136656362,0,0.130311029530374,149.738211424738,0.008120847372744,35.470264094475,0,0,0,0,0
0.630000000000109,0,1,1,1,1,1,1,1,1,0,0,0,-0.018153466160116,-0.026300882581436,0.009214094392502,0.02891689264798,0.01001751057552,0.008623302683718,0,0.051062715797837,0,0.129321563693257,150.054565773958,0.008641747436628,35.4773743657663,0,0,0,0,0
0.638000000000147,0,1,1,1,1,1,1,1,1,0,0,0,-0.018029555696754,-0.025671373554273,0.008475839699764,0.027455925478594,0.016055221413522,0.029042086481584,0,0.066416216745704,0,0.13076646352565,149.197489188395,0.003901404861786,35.4892670926742,0,0,0,0,0
0.648000000000138,0,1,1,1,1,1,1,1,1,0,0,0,-0.017801672639974,-0.026356008107619,0.008332417862931,-0.000330489022975,0.003228773821915,0.019814444038866,0,0.067855136897484,0,0.13119516232387,148.064995645964,0.008528605125137,35.4965052389444,0,0,0,0,0
0.658000000000129,0,1,1,1,1,1,1,1,1,0,0,0,-0.017758782590282,-0.027394770168085,0.005819071843208,-0.035131439339447,0.001296492172323,0.012654868286207,0,0.060582047899517,0,0.130467866680349,147.395755300497,0.007655992873658,35.500775244554,0,0,0,0,0
0.670000000000073,0,1,1,1,1,1,1,1,1,0,0,0,-0.017035031084265,-0.027533826364997,0.003897839283044,-0.024717475076343,0.003016996526714,-0.003409332769482,0,0.048702876192751,0,0.130387400409576,146.862087582415,0.005171590751205,35.5046533907092,0,0,0,0,0
0.680000000000064,0,1,1,1,1,1,1,1,1,0,0,0,-0.018024090504222,-0.027523930602203,0.003518517518932,-0.015666989150379,0.005110536321175,-0.007271788529772,0,0.051758396321948,0,0.130973645280766,147.633491824004,0.004677943759299,35.5094064341018,0,0,0,0,0
0.690000000000055,0,1,1,1,1,1,1,1,1,0,0,0,-0.018601690248394,-0.027235720214422,0.004689875428262,0.001872480924506,0.014788439622005,-0.001689717535547,0,0.049004664716435,0,0.130451548836116,148.607210330406,0.005702098548204,35.5147131725052,0,0,0,0,0
0.698000000000093,0,1,1,1,1,1,1,1,1,0,0,0,-0.019854089410367,-0.027088384031966,0.004925080045805,0.025299075162646,0.002822453866273,0.001835079162666,0,0.047812787252134,0,0.130414291511707,148.500813629732,0.002729679894749,35.5191915375539,0,0,0,0,0
0.708000000000084,0,1,1,1,1,1,1,1,1,0,0,0,-0.019390378617196,-0.025863005313523,0.0066384874418,0.018715501911191,0.001835917786981,0.008134076340393,0,0.052061841990152,0,0.131450350792793,147.841652519288,0.007206773230335,35.5235967626325,0,0,0,0,0
0.720000000000027,0,1,1,1,1,1,1,1,1,0,0,0,-0.020333792582963,-0.025447573620859,0.007690539218922,-0.001811931193757,-0.000750861827135,0.010538228382954,0,0.052518232524249,0,0.130575657333753,148.447788312494,0.008294926147703,35.5321058520793,0,0,0,0,0
0.728000000000066,0,1,1,1,1,1,1,1,1,0,0,0,-0.021350089050196,-0.026198022020551,0.006991451262087,-0.027287816546341,0.008863756043585,0.005645747136996,0,0.05757779550679,0,0.131399499963805,148.848292083404,0.006914642207536,35.5409434492267,0,0,0,0,0
0.740000000000009,0,1,1,1,1,1,1,1,1,0,0,0,-0.021202818331391,-0.027125210518041,0.007005676407651,-0.03400444360385,0.005180579905825,0.000480007612395,0,0.049030806514524,0,0.131775699524426,147.882912968548,0.006312215188698,35.5465194126036,0,0,0,0,0
0.75,0,1,1,1,1,1,1,1,1,0,0,0,-0.020809775990805,-0.027566793666376,0.006942598266223,-0.022835590630378,-0.005399346727468,-0.00821178450996,0,0.051920506720169,0,0.131523417545682,147.154607474796,0.0076604020391,35.5546453327009,0,0,0,0,0
0.759999999999991,0,1,1,1,1,1,1,1,1,0,0,0,-0.020761620277771,-0.02750495521184,0.007313003726673,-0.009125234600147,-0.010019534571337,-0.004145499129182,0,0.054381929019108,0,0.131132984251567,148.015278527281,0.008073817282778,35.5624653555926,0,0,0,0,0
0.769999999999982,0,1,1,1,1,1,1,1,1,0,0,0,-0.020027520064775,-0.027529906023777,0.007691980565149,-0.003081939493709,0.006954938421605,-0.009655893923473,0,0.056435820662958,0,0.131491678866353,149.045909830505,0.007638887740177,35.5707718501346,0,0,0,0,0
0.779999999999973,0,1,1,1,1,1,1,1,1,0,0,0,-0.020246155974268,-0.027459833691157,0.007232320290512,-0.001332817696248,0.013437874646298,0.011033523869363,0,0.053931353378442,0,0.132126288013985,148.667049546951,0.008018006954085,35.5781645842715,0,0,0,0,0
0.789999999999964,0,1,1,1,1,1,1,1,1,0,0,0,-0.020080955076021,-0.027586419612627,0.006598872869484,-0.021674285344166,0.018810116285467,0.007364042989967,0,0.057113824722981,0,0.130547450484077,148.325219356868,0.006688127720129,35.5859200425781,0,0,0,0,0
0.800000000000182,0,1,1,1,1,1,1,1,1,0,0,0,-0.018762370903838,-0.027418359450411,0.00619603595501,-0.035874193574216,0.005106860674141,0.022556469032532,0,0.062353835077546,0,0.13135458542007,148.447113699211,0.004052959246593,35.5929946945514,0,0,0,0,0
0.810000000000173,0,1,1,1,1,1,1,1,1,0,0,0,-0.017386730176902,-0.027571131464652,0.006721035926374,-0.046549337694773,-0.006917324497409,0.014026531103256,0,0.064088257982929,0,0.133065654232509,148.462568431108,0.009136881773529,35.5999230861957,0,0,0,0,0
0.820000000000164,0,1,1,1,1,1,1,1,1,0,0,0,-0.018713426193131,-0.027342348315478,0.007343539919097,-0.029375642881824,0.000942641343525,-0.001290632294645,0,0.051046588626527,0,0.132101040676689,149.058153118128,0.007612145685633,35.6046102184119,0,0,0,0,0
0.830000000000155,0,1,1,1,1,1,1,1,1,0,0,0,-0.018908954459271,-0.027938779934852,0.008118422278466,-0.030348229566467,0.006315533303986,-0.002449477741326,0,0.051041420089555,0,0.131353378528338,149.176246581751,0.008696875206742,35.6131116152327,0,0,0,0,0
0.840000000000146,0,1,1,1,1,1,1,1,1,0,0,0,-0.019318664881785,-0.028200373847947,0.009021841552237,-0.02344658813203,0.010388691189247,-0.022483008170915,0,0.060407444235421,0,0.132178700042173,149.183557435631,0.005247559088065,35.6228607603236,0,0,0,0,0
0.850000000000136,0,1,1,1,1,1,1,1,1,0,0,0,-0.019583525858777,-0.027029875261512,0.009186741417897,-0.016596638905844,0.012252136475577,-0.006229193028547,0,0.060875582983205,0,0.133571150003566,149.0942709913,0.012132142134549,35.6319735003783,0,0,0,0,0
0.860000000000127,0,1,1,1,1,1,1,1,1,0,0,0,-0.019942920770994,-0.02606491040363,0.009688599045069,-0.005412240490383,0.004702184424242,0.019085007077522,0,0.054976268716433,0,0.131213620349601,149.06090156329,0.008568323892693,35.6404099760507,0,0,0,0,0
0.870000000000118,0,1,1,1,1,1,1,1,1,0,0,0,-0.020049414896787,-0.0259730381164,0.009020549357821,-0.010920351361827,0.009466400471541,0.031579839238317,0,0.074267989357136,0,0.131628658537145,148.61111102235,0.005773738919939,35.6548470315132,0,0,0,0,0
0.880000000000109,0,1,1,1,1,1,1,1,1,0,0,0,-0.019858649568122,-0.026280684387977,0.008297947897412,-0.011916269997644,0.001727341524677,0.038776770494218,0,0.080244203866409,0,0.132200497031719,148.193196539913,0.005412188391389,35.6661047078914,0,0,0,0,0
0.8900000000001,0,1,1,1,1,1,1,1,1,0,0,0,-0.019015348899841,-0.027626652643419,0.006030013094157,-0.007982360002899,0.005711768844198,0.021644173720303,0,0.078822039483302,0,0.131249463367708,147.538670573627,0.013620931794089,35.6739056672784,0,0,0,0,0
0.900000000000091,0,1,1,1,1,1,1,1,1,0,0,0,-0.018891064111694,-0.028950306501874,0.004707176817435,-0.01063573564666,3.19708898492042E-05,-0.005445953015867,0,0.054649761764908,0,0.130659284055599,147.51916799328,0.008124913199794,35.6741712675965,0,0,0,0,0
0.910000000000082,0,1,1,1,1,1,1,1,1,0,0,0,-0.019129356561767,-0.028617065949811,0.003945078641442,0.015086380984798,0.009606491116105,-0.013148688322361,0,0.059793869651532,0,0.130887568269061,148.231873268113,0.006274328318287,35.6815928869098,0,0,0,0,0
0.920000000000073,0,1,1,1,1,1,1,1,1,0,0,0,-0.020103209121435,-0.028328327928737,0.00513153749195,0.0298078319037,0.014449999938617,-0.005690432084133,0,0.057321922621741,0,0.131579821561114,148.679419897143,0.00620363234562,35.6872276571926,0,0,0,0,0
0.930000000000064,0,1,1,1,1,1,1,1,1,0,0,0,-0.020302163298109,-0.027546204170748,0.006609273203232,0.036598824349936,0.016426056887971,0.014131750691396,0,0.054371134710774,0,0.131304362599308,149.353735185463,0.005725997556313,35.6929121776678,0,0,0,0,0
0.940000000000055,0,1,1,1,1,1,1,1,1,0,0,0,-0.020072211192372,-0.026620814132348,0.007343878941911,0.044604807444899,0.002001812099793,0.027867819218307,0,0.070095310166254,0,0.130847175012202,149.55247935692,0.004100801712986,35.7027079091315,0,0,0,0,0
0.950000000000046,0,1,1,1,1,1,1,1,1,0,0,0,-0.020332069784682,-0.02628937495289,0.008398587070195,0.023285657526977,-0.003078656894365,0.039408994034633,0,0.083235903817001,0,0.130740088409571,148.911749563646,0.002549849719642,35.7148762508488,0,0,0,0,0
0.960000000000036,0,1,1,1,1,1,1,1,1,0,0,0,-0.020795286392675,-0.027319099044117,0.008783807928821,-0.02302511015225,0.006595862534867,0.022426948912361,0,0.077057733188805,0,0.131648275990726,148.522935432665,0.014283705415821,35.720049289914,0,0,0,0,0
0.970000000000027,0,1,1,1,1,1,1,1,1,0,0,0,-0.020914624486156,-0.027322871934719,0.00692642045497,-0.035991058556994,0.003563064906642,0.005193454787324,0,0.06017751545422,0,0.130444339171716,148.237514813438,0.011510365937066,35.7241493670921,0,0,0,0,0
0.980000000000018,0,1,1,1,1,1,1,1,1,0,0,0,-0.021724204911159,-0.02732362846866,0.005994412409051,-0.005679188869244,0.011247596941294,-0.014368105142041,0,0.054919587602963,0,0.132414113540203,148.471059095136,0.007007194655984,35.7320426014258,0,0,0,0,0
0.990000000000009,0,1,1,1,1,1,1,1,1,0,0,0,-0.022371220589745,-0.028062580599384,0.006790506542433,-0.00699674401442,0.010871692603121,-0.015927301752282,0,0.069532604200057,0,0.132545710167217,148.937887313456,0.006807302877262,35.742377503013,0,0,0,0,0
1,0,1,1,1,1,1,1,1,1,0,0,0,-0.022378823271728,-0.028682348317177,0.008300697715604,-0.020796719108891,0.013101667174853,-0.008206907398231,0,0.059468355402387,0,0.132566143695766,149.639694768121,0.009698608119439,35.7492134891122,0,0,0,0,0
1.00999999999999,0,1,0,0,1,1,1,1,1,9.76125398735273E-05,0,0.009066542447128,-0.021723962947672,-0.028620773843594,0.009948091323086,-0.02924835542343,0.006921651225765,0.007702824525699,3,0.052300953725265,77.0257467349909,0.131174150988396,149.958495310505,0.007698749405596,35.7562514895784,40,0,0,0,0
1.01999999999998,0,1,0,0,1,1,1,1,1,0.009762578392068,0,0.020398585085442,-0.020479061667508,-0.028672127165204,0.00999343267027,-0.03546887555552,-0.00448920191739,0.017283039511239,3,0.059453787466796,38.5126772561675,0.120635210933263,149.966756144401,0.009474500260297,35.766975533097,50,0,0,0,0
1.02999999999997,0,1,0,0,1,1,1,1,1,0.019491763578488,0,0.031728007666872,-0.006563796205236,-0.02239880176878,-0.012944969731463,0.225976902572475,-0.0086787131206,0.042917331641813,3,0.063685944149136,27.6297377523983,0.094984033953621,148.48423668268,0.005760418830794,35.7763558750623,50,0,0,0,0
1.03999999999996,0,1,0,0,1,1,1,1,1,0.029204464954993,0,0.043053355005604,0.007952058847613,-0.010325158482451,-0.023298246414227,0.54502097223697,0.093599231714106,0.063159176605048,3,0.048936453948198,15.6979612738268,0.094047965001655,142.749466913129,0.037973302058989,35.7650314069089,50,0,0,0,0
1.05000000000018,0,1,0,0,1,1,0,1,1,0.039132511143094,0,0.054373172439262,0.015558039830667,-0.00579479945215,-0.045562717858446,0.724842188119926,0.220815023168715,0.097746448165499,3,0.067643606025478,15.7160947168338,0.091019465417468,139.29548956331,0.078987309064621,35.7587354946017,35,0,0,0,0
1.06000000000017,0,1,0,0,1,1,0,1,1,0.048837446568578,0,0.065686006015746,0.041722083013862,-0.011196161524954,-0.069607332455994,0.366446023126102,0.0554411740717,0.10167614265648,3,0.062307746672879,18.2214618481965,0.103322198432047,133.072168139453,0.076816429828371,35.7260246173409,25,0,0,0,0
1.07000000000016,0,1,0,0,1,1,0,1,1,0.058419362311436,0,0.076990402679987,0.063213302487172,-0.011730563989237,-0.072733855238985,-0.058373692119813,-0.250915062011554,0.144232870811027,3,0.070869613140211,16.1095661430748,0.110270750886584,124.676505589825,0.152323227770889,35.7074257052135,25,0,0,0,0
1.08200000000011,0,1,0,0,1,1,0,1,1,0.06791978620669,0,0.088284910460577,0.063376550439806,-0.003438810520871,-0.057241486760557,-0.440711514321815,-0.294848524739021,0.157757033480786,3,0.086744598922634,10.5420108558101,0.104205271341122,142.326086454689,0.088739544342732,35.6999472822366,25,0,0,0,0
1.0920000000001,0,1,0,0,1,1,0,1,1,0.077773254714243,0,0.099568078656266,0.034426557107169,0.011284630605594,-0.042379916217762,-0.550401187351197,-0.156519178351598,0.133905866417746,3,0.090728315875676,7.56326510360162,0.102939723135597,169.740608937074,0.061030420029062,35.6209052392077,25,0,0,0,0
1.10200000000009,0,1,0,0,1,1,0,1,1,0.087397256624443,0,0.110838458022297,-0.003065776006827,0.016837444131631,-0.051097056071458,-0.326768174137451,0.030498894083116,0.042605454286521,3,0.123003368376829,5.38823009757719,0.094099326083088,187.72957361055,0.062856100396843,35.453437049314,25,0,0,0,0
1.11200000000008,0,1,0,0,1,1,0,1,1,0.097265637701826,0,0.122094600956547,-0.024472617166646,0.022984195724595,-0.031528268976383,0.023254068555032,0.19309591309001,0.012233664904756,3,0.230282892274427,3.86724480188829,0.097464555534648,192.474730434085,0.036933989363454,35.3717219743098,25,0,0,0,0
1.12000000000012,0,1,0,0,1,1,0,1,1,0.10642793363829,0,0.133335061685466,-0.0325659260376,0.008583143224968,-0.013369030606864,0.130578953739175,0.14604012256285,0.023857410238601,3,0.255044857965472,4.73129289162682,0.11204609396127,187.570199958659,0.015874602574359,35.356581896254,25,0,0,0,0
1.13000000000011,0,1,0,0,1,1,0,1,1,0.115587126958954,0,0.144558396449775,-0.021308185393928,-0.002803979383487,0.031373471153992,-0.10266251623939,-0.069974957477659,0.082308710606414,3,0.233896876306403,5.47777756778417,0.115293918283255,184.426065277745,0.021656044874464,35.3854003696689,25,0,0,0,0
1.1400000000001,0,1,0,0,1,1,0,1,1,0.125169222525025,0,0.155763163689904,-0.009529330493565,-0.003783760666675,0.038180543600106,-0.26982659221481,-0.320331139128233,0.138591889606482,3,0.162903721332483,5.18931419169179,0.115170604605707,177.763599668107,0.040040340016356,35.5042447944061,25,0,0,0,0
1.15000000000009,0,1,0,0,1,1,0,1,1,0.134824478708185,0,0.166947924231156,-0.009717846909013,0.002375855288828,0.030636616884926,-0.410455436191513,-0.476853514984893,0.145481875733468,3,0.165572811054969,3.70849338370867,0.097433002902981,170.274457122551,0.030827110938353,35.5715774056086,25,0,0,0,0
1.16000000000008,0,1,0,0,1,1,0,1,1,0.144441033343898,0,0.178111241468553,-0.024043069100147,0.008845138237408,0.032522345933305,-0.43590067302195,-0.446338211646863,0.178628071959303,3,0.176279068180989,2.65593583658153,0.079314129019165,163.631049058186,0.047357434866091,35.6469453094098,25,0,0,0,0
1.17000000000007,0,1,0,0,1,1,0,1,1,0.154078781216938,0,0.189251681551361,-0.031839857382227,0.018253221332654,0.030154487333403,-0.426859533465307,-0.325011393895989,0.201777252338991,3,0.201590662048872,2.89420443998073,0.083228380986028,155.727800806728,0.019087169283316,35.7472810088827,25,0,0,0,0
1.18000000000006,0,1,0,0,1,1,0,1,1,0.163555854958668,0,0.200367813567261,-0.046159105742724,0.023201181360818,0.022694609107084,-0.563779222845856,-0.148713517212626,0.219936624727326,3,0.238480723995583,3.75963440860179,0.098465073545489,154.752479845148,0.016765292574906,35.8496818057755,25,0,0,0,0
1.19000000000005,0,1,0,0,1,1,0,1,1,0.173156665354568,0,0.211458209726134,-0.02518461863925,0.030470006030138,0.027938197231032,-0.647424944201431,-0.116600898920309,0.235277143681331,3,0.259286694325224,7.04675347631269,0.136187519515939,159.171656847368,0.044945843698354,35.9525499986711,25,0,0,0,0
1.20000000000005,0,1,0,0,1,1,0,1,1,0.182744134524442,0,0.222521445543453,0.016974988197132,0.030675438161687,0.05590983923591,-0.737208072885585,-0.409105059771974,0.236818064932202,3,0.222026541430542,5.29564872923997,0.124335457354215,174.113330017491,0.083272907514084,36.0061742769666,25,0,0,0,0
1.21000000000004,0,0,1,1,0,1,0,1,1,0.192297429850033,0,0.23355610002325,-0.007942214595096,0.020421988432436,0.062051830549871,-0.153256996645886,-0.253450580045502,0.303302270618419,3,0.256775690492767,2.04112846142734,0.10080054920566,228.993450091617,0.179924994387466,36.193669347615,75,0,0,0,0
1.22000000000003,0,0,1,1,0,1,0,1,1,0.201864874277461,0,0.244560755840632,-0.004492301689271,0.015342768427595,0.077399980186294,0.121974878349883,0.160601781627713,0.374807840996458,3,0.33190638924368,2.32971242397508,0.092293093953538,221.020109841991,0.242038505073402,36.5090042488279,75,0,0,0,0
1.23000000000002,0,0,1,1,0,1,0,1,1,0.211503321394592,0,0.255533999523826,0.092406502466903,0.014154954498584,0.052421979484388,0.393124338322791,0.232758127888696,0.386301508889121,3,0.318946910113945,5.90846905674189,0.114505926474118,179.720532522538,0.15155501198397,36.8008563893073,75,0,0,0,0
1.24000000000001,0,0,1,1,0,1,0,1,1,0.221002786428924,0,0.266474421635728,0.126837086748243,-0.003408730388212,-0.006550758240192,0.564096368239902,0.106584885895441,0.308821614631543,3,0.186430115608993,4.25408607819722,0.115438459458581,165.74661756427,0.301657444338994,36.6825933478979,75,0,0,0,0
1.25,0,0,1,1,0,1,1,1,1,0.230626536089431,0,0.277380616954941,0.165278555792632,-0.008669514231908,0.007764083138141,0.589231872201435,-0.0468985421265,0.323545676015179,3,0.130359400551988,4.6992446933885,0.110588519379901,156.191062441442,0.142697315833577,36.6346740074423,55,0,0.2,0,0
1.25999999999999,0,0,1,1,0,1,1,1,1,0.240166137590859,0,0.288251184656259,0.183396762818077,-0.023521843350676,-0.018424819289319,0.36978649312741,-0.038714008262259,0.263255784003996,3,0.093168387518508,2.22458293208133,0.079465510222038,182.724397759127,0.114919258417566,36.5507165879147,50,0,0,0,0
1.26999999999998,0,0,1,1,0,1,1,1,0,0.249705298531436,0,0.299084728490599,0.202059105580745,-0.016457120515907,-0.030963931351797,0.279643009568927,-0.015327484023096,0.257391255875661,3,0.119918176284477,3.55670864663069,0.087279950401515,154.080255360903,0.077995147697663,36.4595648807223,45,0,0,0,0
1.27999999999997,0,0,1,1,0,0,1,1,0,0.259219406189605,0,0.309879856964335,0.228343550633467,-0.003394009714937,-0.05376448798319,0.471419400099105,-0.074771873037365,0.262106239328327,3,0.10055154551758,4.92894791391271,0.103648803762293,144.405003538009,0.130486178098367,36.5546320101803,0,0,0,0,0
1.28999999999996,0,0,1,1,0,0,1,1,0,0.268727930173642,0,0.32063518351803,0.250176496262518,-0.005045494087097,-0.07250575219412,0.785484421474228,0.024894783472265,0.270640133566166,3,0.071633746071627,4.61892586237857,0.09899512403153,143.821899386928,0.087250278674906,36.726853114626,0,0,0,0,0
1.30000000000018,0,0,1,1,0,0,1,1,0,0.278257747910964,0,0.331349326704525,0.25069648635803,-0.00842546818524,-0.07268066995176,0.829309224242561,0.295142019757889,0.29748655029974,3,0.068978357566352,2.74156563079541,0.084991284700715,152.978899681471,0.106967662573034,36.8114928607754,0,0,0,0,0
1.31000000000017,0,0,1,1,0,0,1,1,0,0.287800546219313,0,0.342020910366383,0.253385773200364,-0.015610049145678,-0.06407099213363,0.559611843962988,0.41573830556484,0.311263829353093,3,0.070906836390493,1.37856598329019,0.091270559837511,151.065831358785,0.096975955679986,36.8885415654758,0,0,0,0,0
1.32000000000016,0,0,1,1,0,0,1,1,0,0.297281101248743,0,0.352648563812639,0.274004226035468,-0.020558538347488,-0.057217706217719,0.33423533827117,0.386049299987283,0.367026681758135,3,0.064911972919483,1.52193962909616,0.089699737690603,142.917791252839,0.324268961917673,37.0288257742618,0,0,0,0,0
1.33000000000015,0,0,1,1,0,0,1,1,0,0.306749869428481,0,0.363230921994862,0.305268260331055,-0.018166561509398,-0.050174683687777,0.11346101791075,0.341744011748282,0.415728025820875,3,0.064314121058963,1.75559816450754,0.081826904027507,140.844741730351,0.375423348902804,37.3472071897047,0,0,0,0,0
1.34000000000015,0,0,1,1,0,0,1,1,0,0.316185567166168,0,0.373766625682484,0.345013070739086,-0.000506338486159,-0.031257182444651,-0.134484944974851,0.244453297538047,0.407266373288216,3,0.076394159674839,3.08248031408572,0.102920474604307,137.842990655642,0.180703435523988,37.5987767297747,0,0,0,0,0
1.35000000000014,0,0,1,1,0,0,1,1,0,0.325684448381373,0,0.384254321637381,0.365818041745812,0.011268902895118,-0.017434210446028,-0.243925208985434,0.106638582140152,0.419403210198175,3,0.070738128004971,4.36136180387034,0.112502328511402,141.401122339815,0.175652118206828,37.6580318696807,0,0,0,0,0
1.36000000000013,0,0,1,1,0,0,1,1,0,0.335116943680961,0,0.394692662787694,0.395553046017586,0.012439447113465,-0.000297149312456,-0.231634631808732,-0.031437676891083,0.392194228093682,3,0.080006189033698,4.23605108777353,0.106796527056602,148.598353465597,0.06963607119795,37.7830373290718,0,0,0,0,0
1.37000000000012,0,0,1,1,0,0,1,1,0,0.344515101417378,0,0.405080308400842,0.405912430043593,0.012491543272771,0.000137256681136,-0.298652689271302,0.001221638627358,0.387383232783244,3,0.084334195810005,3.41834129908609,0.092251955688288,149.356736700914,0.06916767725006,37.8406862004409,0,0,0,0,0
1.38000000000011,0,0,1,1,0,0,1,1,0,0.353885667998567,0,0.415415924255736,0.407725463460211,0.011691772550542,-0.004254609325265,-0.324294945081359,0.261839421983789,0.387552314823162,3,0.088131237094734,2.84504835518992,0.092146407680493,149.3161872705,0.076220735242482,37.8881720266149,0,0,0,0,0
1.3900000000001,0,0,1,1,0,0,1,1,0,0.363473191834393,0,0.425698182814151,0.411467823472695,0.002435380481025,0.009435494256377,-0.173648159755942,0.63560673846256,0.400654717345559,3,0.095890265786026,2.06318747897234,0.098124590246853,154.161828748377,0.198953637102905,37.9068173154531,0,0,0,0,0
1.40000000000009,0,0,1,1,0,1,1,1,0,0.372699045660926,0,0.435925763391233,0.408879239715051,0.0024633551182,0.021214301368704,-0.167342888189237,0.916434470433175,0.4285517633855,3,0.059701058763402,1.45508694186107,0.092085171893502,171.141015767406,0.126451937296629,38.0923043275,15,0.12,0,0,0
1.41000000000008,0,1,0,0,1,1,1,1,0,0.38218731572497,0,0.44609735232514,0.398119821438526,-0.011322771864061,0.085471265116262,0.285920798954755,0.748236660748215,0.535380569343431,3,0.077505193024634,1.06816029012345,0.088956936411159,233.617129610146,0.605030775616165,38.5087058536355,75,0,0,0,0
1.42000000000007,0,1,0,0,1,1,1,1,1,0.391525386771494,0,0.456211643145765,0.387185272676944,-0.032670870934061,0.126208449170914,0.304568360457675,0.557373110502271,0.489484573162222,3,0.116915246319018,1.36596736985686,0.078016968079101,260.814829141616,0.688617109486105,38.7274101589666,50,0,0,0,0.15
1.43000000000006,0,1,0,0,1,1,1,1,1,0.400955456167801,0,0.466267336742548,0.353667842755098,-0.042983672229168,0.135611718502997,-0.393285124622075,0.582755789470897,0.32958762710965,3,0.150878366095563,1.51895612726214,0.070493056832526,246.861944121788,0.956136594321824,37.6936826390709,50,0,0,0,0
1.44000000000005,0,1,0,0,1,1,1,0,1,0.410348630597473,0,0.476263141531338,0.36626195316576,-0.063246635646928,0.114661215477225,0.011909542898357,0.392510077549499,0.236296831093626,3,0.311565305929507,3.0728525887345,0.111403530841314,198.711967867104,0.358841961028286,37.252795129991,40,0,0,0,0
1.45000000000005,0,1,0,0,1,1,0,0,1,0.419649064108431,0,0.486197773620282,0.403592687840239,-0.066942905438568,0.135046730137726,0.162366041490434,-0.020604360643169,0.246843834074786,3,0.328444462807744,4.05438571682743,0.137524966523085,190.454330838525,0.10759367911643,37.4860620243753,5,0,0,0,0
1.46000000000004,0,1,0,0,1,1,0,0,1,0.429156605108846,0,0.496069956974741,0.424071335531652,-0.048221183033738,0.139829480114929,0.394257362463716,-0.5938552267347,0.332955585273308,3,0.270456074863871,3.38194889702363,0.13688801730232,220.298918134677,0.288869535847021,37.8694209893232,0,0,0,0,0
1.47000000000003,0,1,0,0,1,1,0,0,1,0.438409731301806,0,0.50587842358118,0.438376138570807,-0.029992509470435,0.164006673092359,0.487195533308155,-0.789591205280635,0.472679607407024,3,0.121673420951383,2.15148971907513,0.145967422470549,227.192868285138,0.682389596529339,38.6367709530741,0,0,0,0,0
1.48000000000002,0,1,0,0,1,1,0,0,1,0.447821343978231,0,0.51562191361004,0.41967698290998,-0.027054734183854,0.188132437833469,0.31460811655101,-0.571430180936617,0.623215882430936,3,0.100745129103035,1.23502943524779,0.110436743567428,215.076365544961,0.797361821919183,39.6304279011624,0,0,0,0,0
1.49000000000001,0,1,0,0,1,1,0,0,1,0.457230175937333,0,0.525299175577554,0.397286012286225,-0.03243095190742,0.156861792152517,0.249442046074201,-0.270802290349535,0.656430470148844,3,0.201148841404136,0.479132967251338,0.058991244585537,200.826449406858,0.06864971524026,40.2210761119858,0,0,0,0,0
1.5,0,1,0,0,1,1,0,0,1,0.466736348066643,0,0.534908966506487,0.388909381590389,-0.043247208719782,0.129958254911495,0.165015895220663,-0.112224110492131,0.631023978978643,3,0.229557635360035,0.58894345769789,0.043609417826648,170.181623921834,0.332529945458109,40.2550357181633,0,0,0,0,0
1.51200000000017,0,1,0,0,1,1,0,0,1,0.476037145576199,0,0.544450052085796,0.398215757654676,-0.042895733829024,0.116913819589556,-0.132628901090725,-0.156776053357376,0.508892009004274,3,0.158651194590658,0.813302830033535,0.054181333119057,152.333562112354,0.913390103803506,39.6982979951257,0,0,0,0,0
1.52200000000016,0,1,0,0,1,1,0,0,1,0.485350902464727,0,0.553921206829161,0.406653874352896,-0.039066780912312,0.086509527310312,-0.26268779100651,-0.277511879466504,0.41028245146811,3,0.21871400501244,1.04294679568986,0.06117888610287,152.357948548555,0.595870977630225,39.1574750995464,0,0,0,0,0
1.53200000000015,0,1,0,0,1,1,0,0,1,0.494655417231329,0,0.563321214232394,0.412139425545874,-0.03323349081765,0.071940450511166,-0.291407298001738,-0.275184367817052,0.376238961952384,3,0.294499635284791,1.01749224265266,0.069533500459929,157.246632353475,0.180180983526734,38.8714255913819,0,0,0,0,0
1.54200000000014,0,1,0,0,1,1,0,0,1,0.503958687236568,0,0.572648866929689,0.420060295259805,-0.028872094442949,0.064508878090636,-0.360145196295251,-0.275259509333971,0.391865582893906,3,0.30254121517762,1.221485928045,0.087671807172531,158.736156672978,0.092715264347538,38.9308853923326,0,0,0,0,0
1.55200000000013,0,1,0,0,1,1,0,0,1,0.513063262359207,0,0.581902966848701,0.422344273609998,-0.02317512104978,0.043566067578732,-0.257293957740842,-0.244059668523687,0.490106214924891,3,0.248075788664101,1.25919313372371,0.090617768787742,161.745380709006,0.537540254968461,39.3161673674496,0,0,0,0,0
1.56200000000013,0,1,0,0,1,1,0,0,1,0.522236918553172,0,0.591082325364432,0.413916808398085,-0.013210821118457,0.028424482303474,-0.233329035980873,-0.143729050386818,0.584036269007931,3,0.158461197844142,1.04238927939931,0.082408031746339,162.25070273738,0.591271834911022,39.9080570910825,0,0,0,0,0
1.57200000000012,0,1,0,0,1,1,0,0,1,0.531428501714342,0,0.600185763451895,0.400486310027719,-0.019210053544135,0.022450070770954,-0.308884373305572,0.031106275530593,0.634293276049513,3,0.161363716753632,0.856825242327,0.074496127138343,160.270785574498,0.317636072005245,40.3810408205185,0,0,0,0,0
1.58200000000011,0,1,0,0,1,1,0,0,1,0.540636432748812,0,0.609212111837558,0.38364485383505,-0.028774282625237,0.019848551581801,-0.354097156925279,0.088855121177352,0.630454761060175,3,0.207952848363333,0.803916698873157,0.079778296299015,166.337513555754,0.225048605344635,40.4566928781779,0,0,0,0,0
1.5920000000001,0,1,0,0,1,1,0,0,1,0.549691569170893,0,0.618160211149528,0.376017377749994,-0.03003303735242,0.022474857396289,-0.307270642551792,0.127750556983732,0.628272168569228,3,0.212489367168416,1.26096246366447,0.092774552281299,178.385563675923,0.148026991674366,40.3036963424297,0,0,0,0,0
1.60200000000009,0,1,0,0,1,1,0,0,1,0.558977468653134,0,0.627028912066461,0.417458030004432,-0.030169697558264,0.018276614998413,-0.158223421365473,0.099424087716628,0.587536041698974,3,0.213028810199492,1.30046620736069,0.093737512847952,191.130522731487,0.195384006521223,40.1968069479251,0,0,0,0,0
1.61200000000008,0,0,1,1,0,1,1,1,1,0.567882977205322,0,0.635817075465189,0.479995719321564,-0.021977220737693,0.027870760218267,0.064508525450068,-0.203557800639143,0.533521818327867,3,0.213510926787544,1.67241482868288,0.097033397155471,190.977685756477,0.134269401695107,40.1100442792976,70,0,0.16,0.17,0
1.62200000000007,0,0,1,1,0,1,1,1,1,0.576769034203029,0,0.644523572567028,0.515429668756511,-0.030616063648593,0.086103351222609,0.172373863157522,-0.400637339147872,0.520351445144016,3,0.204800903377351,1.08177051562712,0.073679292431483,206.187213586124,0.214465403919692,40.2171394116031,50,0,0,0,0
1.63200000000006,0,0,1,1,0,1,1,1,1,0.58575763106444,0,0.653147285082765,0.522050091274753,-0.029897313200695,0.116599199108419,-0.114855641255994,-0.445415716152375,0.590338601141755,3,0.196622987989641,0.997391227961748,0.085110976943885,205.860804454981,0.571974117358042,40.3700824509701,50,0,0,0,0
1.64200000000005,0,0,1,1,0,1,1,1,1,0.594827088355562,0,0.661687105356292,0.537283651707601,-0.032786770436637,0.108327552341951,-0.094528847713856,-0.540352279495285,0.663741741835985,3,0.104948827363927,0.668013845236205,0.054470073980874,162.670599416757,0.602471064650017,41.1967452384271,50,0,0,0,0
1.65200000000004,0,0,1,1,0,1,1,1,1,0.603874503532584,0,0.67014193650688,0.523607624797439,-0.033797346455144,0.071667088756005,-0.120734122224484,-0.391783289343627,0.69057729043801,3,0.114128271081916,0.659099957168568,0.065433333140505,138.309959393952,0.152824232715933,41.4775434781605,50,0,0,0,0
1.66200000000003,0,0,1,1,0,0,1,1,1,0.612922310278181,0,0.678510692570062,0.530128803175916,-0.03442538758685,0.022035964493146,0.071663315688151,-0.309379894294832,0.653429069172419,3,0.13761515425482,0.931208462807562,0.096946004132945,98.1509324375395,0.556156395239673,41.6747261991438,40,0,0,0,0
1.67200000000003,0,0,1,1,0,0,1,1,0,0.621976282762685,0,0.686792298637121,0.529988930347071,-0.041993764054526,-0.026253384126156,0.125850827584195,-0.22315631017181,0.55488989258086,3,0.222611443393591,1.1156043764737,0.091500275141374,84.9551986354473,0.762786813748389,40.9612757575198,5,0,0,0,0
1.68200000000002,0,0,1,1,0,0,1,1,0,0.631048533352635,0,0.694985690993153,0.531321054454084,-0.043327958076724,-0.072558357805737,0.175856134600934,-0.123542764519887,0.535265899095257,3,0.296489443415899,1.28824355408042,0.08288724784149,88.1543993367338,0.194956242182566,40.5810366166172,0,0,0,0,0
1.69200000000001,0,0,1,1,0,0,1,1,0,0.639915082875136,0,0.703089817253692,0.531434709559797,-0.048849146043214,-0.10758188007865,0.304141985496245,0.028809415178397,0.560997677810272,3,0.304000315003423,1.36162830023969,0.079811175051732,90.7995261769529,0.260423337180014,40.6196453671424,0,0,0,0,0
1.702,0,0,1,1,0,0,1,1,0,0.648853107358288,0,0.711103636499885,0.524548315767449,-0.055452518861798,-0.107834245567002,0.383770093225711,0.126584408474572,0.594998329374557,3,0.293152571754623,0.778199056431909,0.07813845331079,95.4528203342332,0.310079571527759,40.7591415913874,0,0,0,0,0
1.71199999999999,0,0,1,1,0,0,1,1,0,0.657645653015417,0,0.719026119412189,0.542035310382691,-0.056111754453182,-0.126069160710389,0.390604258573517,0.16762289690482,0.59226296505634,3,0.297236915139676,0.633168675899188,0.080759847073158,99.6347672096828,0.260283758944946,40.7485841870825,0,0,0,0,0
1.72199999999998,0,0,1,1,0,0,1,1,0,0.666512639444228,0,0.72685624840258,0.557798877698015,-0.053810526197741,-0.132792494632168,0.454651744789958,0.145877842493374,0.603891998894875,3,0.288090452527321,0.710311644817468,0.088973886972629,98.926882156993,0.380111271463353,40.7245510277533,0,0,0,0,0
1.73199999999997,0,0,1,1,0,0,1,1,0,0.675262768881206,0,0.734593017745253,0.581730673347703,-0.059332580096138,-0.12568033341694,0.406811156176386,0.123106507580734,0.629172111462907,3,0.27256087687399,1.04497105854018,0.096356173939982,96.956119135281,0.546524483631652,40.7946325302074,0,0,0,0,0
1.74199999999996,0,0,1,1,0,0,1,1,0,0.684274084217088,0,0.742235433705807,0.602065171208388,-0.057378528970857,-0.10695094740715,0.167678569735763,0.102659882511964,0.6540728552954,3,0.247484684555392,1.62127230033463,0.108106410211842,99.4357540168756,0.52060648445479,40.9481018954061,0,0,0,0,0
1.75200000000018,0,0,1,1,0,0,1,1,0,0.69316981988847,0,0.749782514668876,0.618714386976237,-0.045385704821163,-0.089089713762415,-0.030077408134753,0.040537144773319,0.733638674652808,3,0.175599523713347,2.32529987580237,0.109807883386235,100.472477643523,0.953076054927961,41.4477653972697,0,0,0,0,0
1.76200000000017,0,0,1,1,0,0,1,1,0,0.701745803770756,0,0.757233291264214,0.626880446503017,-0.041070547602128,-0.088961833803771,-0.051118184569677,-0.014011464424219,0.776838875007309,3,0.125788106659344,2.59456245183701,0.109704448492025,101.682578470034,0.5698487652552,41.9557613315876,0,0,0,0,0
1.77200000000016,0,0,1,1,0,0,1,1,0,0.710522955517963,0,0.764586806491204,0.638748765677321,-0.033837542397653,-0.070404501846374,-0.150771845864848,-0.106260605585627,0.785158417645528,3,0.142454720131899,2.07495064923078,0.119566751612737,109.636133673072,0.411333234212411,42.2665585299369,0,0,0,0,0
1.78200000000015,0,0,1,1,0,0,1,1,0,0.719553362184109,0,0.771842115841778,0.656294667318487,-0.036784142615452,-0.066333814931383,-0.111472278841861,0.03951966010866,0.726151352911362,3,0.123185566599215,1.81866854675606,0.133485382316766,121.659234046428,0.361871208313207,41.9112671849681,0,0,0,0,0
1.79200000000014,0,0,1,1,0,0,1,1,0,0.728075553860749,0,0.778998287421732,0.656173226121121,-0.050357276945643,-0.051292544649377,-0.086203049015604,0.247197209480658,0.674448990379386,3,0.189670637085498,1.44985177664349,0.133325300882916,133.221950086854,0.383439173581945,41.4610429330038,0,0,0,0,0
1.80200000000013,0,0,1,1,0,1,1,1,0,0.736841585613148,0,0.786054402070422,0.675381507321659,-0.080161254502553,-0.009388562318805,-0.167269888699626,0.486493303985493,0.740185602440665,3,0.21675950569298,1.28695839706931,0.13121537614466,135.695633113045,0.815349233374594,41.5291353637107,10,0.14,0,0,0
1.81200000000013,0,1,0,0,1,1,1,1,1,0.745591608935453,0,0.793009553478822,0.640232165737595,-0.100756922399375,0.063537158250582,0.489890217800201,0.47802887373662,0.876943260264663,3,0.216008940488184,0.98761687689851,0.131615701949336,175.774756863496,1.15898819560622,42.5214670923823,65,0,0,0,0.14
1.82200000000012,0,1,0,0,1,1,1,1,1,0.754269490668928,0,0.799862848305937,0.617628041607494,-0.136281629693648,0.133304025720105,0.637065433162081,0.494059039262526,0.815269958764669,3,0.324396773126471,0.638473780272288,0.098857569139342,224.832983710277,1.28088454339463,42.8605593712605,50,0,0,0,0
1.83200000000011,0,1,0,0,1,1,1,1,1,0.762815622186704,0,0.80661340629354,0.593833114090441,-0.109092001197466,0.135298038603144,0.199311655148261,0.667539029831971,0.553173013288274,3,0.436004294223094,1.0320169644091,0.081611275917656,209.309048043381,2.50078355602681,40.6282155740702,50,0,0,0,0
1.8420000000001,0,1,0,0,1,1,1,1,1,0.77139478692757,0,0.813260360379243,0.650364620813629,-0.085354230143561,0.159283288164465,0.378283466094931,0.512636021427255,0.391046613142646,3,0.596399297552797,2.31281221876944,0.124363094035313,168.235100659629,0.717385214408711,39.4360970964039,50,0,0,0,0
1.85200000000009,0,1,0,0,1,1,0,0,1,0.780056625687462,0,0.81980285680786,0.710431489990605,-0.073525514594815,0.188242714394116,0.440374384886141,0.112452742071381,0.480538540300261,3,0.56374023068976,3.28623327668138,0.17107667098933,182.410512685192,0.759325323261809,40.0036028491007,15,0,0,0,0
1.86200000000008,0,1,0,0,1,1,0,0,1,0.788429594399475,0,0.826240055241066,0.753880386545171,-0.064205333067106,0.207175012635998,0.185741772195457,-0.296976226424246,0.670587518692225,3,0.352299359935912,3.02789302389254,0.167722497638085,220.979627960338,1.55470453284376,41.7081870360853,0,0,0,0,0
1.87200000000007,0,1,0,0,1,1,0,0,1,0.796955178572591,0,0.832571128865335,0.75299164495242,-0.059788019608022,0.23586287208532,0.06175534155043,-0.438975830301604,0.885152585375789,3,0.157235827828373,1.879914137326,0.137284004345908,235.338823680258,1.88998042475375,43.8806478983772,0,0,0,0,0
1.88200000000006,0,1,0,0,1,1,0,0,1,0.805552233360746,0,0.838795264498135,0.736490957209392,-0.041546088909496,0.228319265696286,-0.080403764703865,-0.385499618721151,0.995433451402166,3,0.228245535575848,0.963783784908041,0.088905619286908,220.454317105486,0.931090514727369,45.6984507581077,0,0,0,0,0
1.89200000000005,0,1,0,0,1,1,0,0,1,0.813907457539449,0,0.844911662692382,0.728743829857727,-0.042967092330458,0.203552353024353,-0.025991020578724,-0.220103621174579,1.01650234952979,3,0.301336183573615,0.500406526528718,0.059669456039541,190.102764961288,0.427114302375896,46.4793913273576,0,0,0,0,0
1.90200000000004,0,1,0,0,1,1,0,0,1,0.822378970533077,0,0.850919537839116,0.727753672947579,-0.064124697689955,0.187252083719858,-0.059330093506186,-0.116633325667473,0.920612461717645,3,0.26798384807103,0.465664755431534,0.041246973792022,160.899226061038,1.30937607895933,46.0294110952101,0,0,0,0,0
1.91200000000003,0,1,0,0,1,1,0,0,1,0.830693856593005,0,0.856818118268411,0.730399975000591,-0.079861565867344,0.184504809635539,-0.222878531080639,-0.094998607401886,0.832331798633659,3,0.191055696341959,0.551760245658113,0.04791654001082,152.718495339233,1.06824787080578,44.9080615120435,0,0,0,0,0
1.92200000000003,0,1,0,0,1,1,0,0,1,0.839008686413306,0,0.86260664634849,0.739250701710161,-0.091143851181502,0.159913334345934,-0.211790065742767,-0.223892347186755,0.738603314375359,3,0.26869430116343,0.707565687984884,0.062599436854141,148.462322974405,0.954391396452525,44.3233057181876,0,0,0,0,0
1.93200000000002,0,1,0,0,1,1,0,0,1,0.847521459961901,0,0.868284378583038,0.760814297515079,-0.091135823104418,0.141122487377586,-0.147477065395501,-0.384598068752606,0.682238012429827,3,0.350956428123901,0.927733815435561,0.072947624463213,143.552663482353,0.408990710059971,43.8742267100088,0,0,0,0,0
1.94200000000001,0,1,0,0,1,1,0,0,1,0.855883013321227,0,0.873850585706699,0.772367820539067,-0.080002111215954,0.112414319953254,-0.151096130948215,-0.365622417961512,0.692542084048198,3,0.353613331905751,1.05126699948005,0.078601991299548,141.407196157767,0.139979611190118,43.9736488495425,0,0,0,0,0
1.952,0,1,0,0,1,1,0,0,1,0.864160157265278,0,0.879304552778743,0.771874294696463,-0.087907642470306,0.083076068942102,-0.215499498569743,-0.231303187585914,0.727246552802837,3,0.337400963825662,1.12176872213597,0.087484001500014,127.384661152523,0.257034189676671,44.2930108345206,0,0,0,0,0
1.96199999999999,0,1,0,0,1,1,0,0,1,0.872585993701447,0,0.884645579274899,0.770812183542573,-0.093741041150956,0.039985963093786,-0.137775020687234,-0.045269375244767,0.810226226388516,3,0.304664337956526,0.816352970901497,0.076915207722783,111.326107459555,0.661974208371228,44.9171429379586,0,0,0,0,0
1.97199999999998,0,1,0,0,1,1,0,0,1,0.880689343044515,0,0.889872979177327,0.765021946670468,-0.094574042868432,-0.014409987266825,-0.030864777504485,0.202007668670561,0.921150264965375,3,0.229803515306113,0.54752101158026,0.069516121732761,100.194334600099,1.06715843358826,46.1259370397363,0,0,0,0,0
1.98199999999997,0,1,0,0,1,1,0,0,1,0.888875268297174,0,0.894986081062739,0.754269675244053,-0.098889457794501,-0.076402666961368,0.110278060828417,0.386852735573515,0.993909584329765,3,0.300620714200646,0.440517484867867,0.065100787987115,97.8838332066376,0.839471991379172,47.0731289000714,0,0,0,0,0
1.99199999999996,0,1,0,0,1,1,0,0,1,0.897313657236323,0,0.899984228188633,0.747634393683833,-0.094420110656435,-0.125157351274684,0.174520919675006,0.583745976984307,0.963887522228046,3,0.335854988960588,0.603080867349211,0.071965286665386,94.4848540109905,0.662832144215559,47.1477467234889,15,0,0,0,0
2.00200000000018,0,1,0,0,1,1,1,1,1,0.905409143390296,0,0.904866778577649,0.759641177206418,-0.103205000675351,-0.162535713461648,0.184421880483639,0.788555334370691,0.917225270063198,3,0.279269149053824,0.810233226439213,0.087256163850001,98.8138579140925,0.349927963658512,46.355864653956,15,0,0.15,0.15,0
2.01200000000017,0,0,1,1,0,1,1,1,1,0.913612236076932,0,0.909633105100029,0.777666241723182,-0.094357507360214,-0.091337406167572,-0.08156822868559,0.743924248196827,0.722488061009393,3,0.344677709410638,1.09044327279687,0.090036968756882,169.670728898498,1.58437287222076,44.8986287280923,50,0,0,0,0
2.02200000000016,0,0,1,1,0,1,1,1,1,0.921698489092178,0,0.914282595554162,0.762065599113993,-0.08132716214399,0.023534642763301,-0.196327489762955,0.790662306152681,0.76843967885582,3,0.408798310753477,0.728696330709026,0.091946081778772,291.102706764681,0.600642370995599,43.9846112659795,50,0,0,0,0
2.03200000000015,0,0,1,1,0,1,1,1,1,0.929810689843699,0,0.918814652745223,0.792363106532686,-0.049761817011924,0.057250551259167,0.244081740038155,0.392232516158295,0.806597041733627,3,0.346756156101636,0.609082677840309,0.079478190639953,251.313809286926,0.772268897552205,44.2490470997695,50,0,0,0,0
2.04200000000014,0,0,1,1,0,1,1,1,0,0.937779960698765,0,0.923228694561875,0.791587442764914,-0.071964250003964,0.044822152101846,0.135982044528428,-0.215930103307019,0.920207456087805,3,0.23885185675811,0.857278697775453,0.086112763449435,171.459403781598,1.3129072170766,45.3687588450664,45,0,0,0,0
2.05200000000013,0,0,1,1,0,0,1,1,0,0.945802166819607,0,0.927524154051037,0.810458279148859,-0.097279522877121,0.030145223076656,-0.104286950703545,-0.558454699033493,0.90304701262465,3,0.249343634239122,0.916880008249002,0.091125419672362,143.634867025661,0.293337926731489,45.6284263016839,0,0,0,0,0
2.06200000000013,0,0,1,1,0,0,1,1,0,0.953627241880156,0,0.931700479490707,0.81200449859284,-0.117365203763108,0.004812125734187,-0.347911590931748,-0.654673608078477,0.855603504177177,3,0.282758549930454,1.0361296912328,0.104006371374629,149.572388248752,0.885877646852428,45.5953762622529,0,0,0,0,0
2.07200000000012,0,0,1,1,0,0,1,1,0,0.961665386495111,0,0.935757134460825,0.795006797205426,-0.126423219992302,-0.016101812261517,-0.327446088010077,-0.645962016440958,0.854951864665128,3,0.376765477861062,1.27502842532675,0.10662336805416,152.071635639732,0.689941062017262,44.741500396481,0,0,0,0,0
2.08200000000011,0,0,1,1,0,0,1,1,0,0.969513187847318,0,0.939693597912175,0.790498406201444,-0.12848246632439,-0.036963003587888,-0.054872378439532,-0.363159806472554,0.823802755648326,3,0.404256754716905,1.0857699441733,0.095576777294479,162.720152488468,0.289045674998292,44.5772647390187,0,0,0,0,0
2.0920000000001,0,0,1,1,0,0,1,1,0,0.977329924065574,0,0.943509364233308,0.79936151140821,-0.12032316994428,-0.05608609437161,0.276816985024609,-0.122850947174696,0.801329064880536,3,0.431755825718643,0.661289586845231,0.098761591881613,172.050342201223,0.076944429798035,44.2310059006776,0,0,0,0,0
2.10000000000014,0,0,1,1,0,0,1,1,0,0.985116666188483,0,0.947203943315485,0.776031462100847,-0.114072992728916,-0.076420902376671,0.572637937564026,-0.04369924799171,0.776809291291016,3,0.469191228832255,0.486120743551517,0.098506453352252,160.853267217842,0.338420223522681,43.7433850760521,0,0,0,0,0
2.11200000000008,0,0,1,1,0,0,1,1,0,0.993092207369003,0,0.950776860615627,0.782196330263535,-0.1171552593817,-0.079844377965939,0.758835329535559,-0.003265558015531,0.73364642194698,3,0.525529636362598,0.47912310818766,0.08436356478161,149.545447489524,0.197551459452828,43.1736058016507,0,0,0,0,0
2.12200000000007,0,0,1,1,0,0,1,1,0,1.00071352764573,0,0.954227657217268,0.796819902276048,-0.120156682208483,-0.097881638644066,0.760404442917792,-0.079199218366966,0.702248150089527,3,0.574036309402474,0.560550606621614,0.08365900087206,138.690848446943,0.297997722855295,42.7190968977807,0,0,0,0,0
2.13200000000006,0,0,1,1,0,0,1,1,0,1.00855270385989,0,0.957555889889501,0.81869291482946,-0.12234733452987,-0.108231133689433,0.731946806884577,-0.157645445585002,0.724610020513152,3,0.555812370560272,0.966289798938639,0.090065297063567,132.626035026939,0.569813018382991,42.871696926149,0,0,0,0,0
2.1400000000001,0,0,1,1,0,0,1,1,0,1.01626594775559,0,0.960761131143906,0.817136220216405,-0.126304407919053,-0.104581910431345,0.51348731327712,-0.082555613302405,0.770300130940219,3,0.532939663753567,1.80086915194589,0.097722264963174,138.006248408783,0.581841987390511,43.0886971334581,0,0,0,0,0
