"time","trans_flag","des_cont_state_fl","des_cont_state_fr","des_cont_state_rl","des_cont_state_rr","cont_state_fl","cont_state_fr","cont_state_rl","cont_state_rr","vel_cmd_x","vel_cmd_y","vel_cmd_yaw","base_vel_x","base_vel_y","base_vel_z","base_vel_roll","base_vel_pitch","base_vel_yaw","gait_id","base","CoT","musculoskeletal","foot_force","MWE","WEXT","stability","FL_stride_t","FR_stride_t","RL_stride_t","RR_stride_t"
0.01400000000001,0,1,1,1,1,1,1,1,1,0,0,0,-0.005041785071531,-0.001689022543599,0.001043932197317,-0.009125040844083,-0.001644002390094,-0.002221011789516,0,0.001790363880929,0,0.014848484848485,36.09,4.60198459296891,6.71983399927039,0,0,0,0,0
0.024000000000001,0,1,1,1,1,1,1,1,1,0,0,0,-0.003556015797146,0.001250843079157,0.001103558288456,-0.002922725622761,-0.000881616821181,0.001740555463303,0,0.007599477267614,0,0.074059840758221,180.415888937737,0.002840343339076,33.5964627775068,0,0,0,0,0
0.034000000000049,0,1,1,1,1,1,1,1,1,0,0,0,-0.000748508268846,0.004014092542052,0.022136635726588,0.002434762398635,0.003546701753528,-0.000377061722218,0,0.006425288785848,0,0.106526006573541,180.634821131576,0.025677486993472,33.603790764021,0,0,0,0,0
0.04400000000004,0,1,1,1,1,1,1,1,1,0,0,0,-0.012755571539955,-0.000112514104293,0.073506722502244,0.019534731089261,0.068583008356621,-0.006363710453186,0,0.011501589832827,0,0.15431048520969,194.403410046154,0.113525753564002,33.6952161332179,0,0,0,0,0
0.054000000000031,0,1,1,1,1,1,1,1,1,0,0,0,-0.028441879952425,-0.006983106767341,0.055284813026907,-0.000442072945988,0.124728293973641,0.004082250395226,0,0.031590625636176,0,0.138332163756231,216.596922276436,0.110684865491753,33.8090007556234,0,0,0,0,0
0.064000000000021,0,1,1,1,1,1,1,1,1,0,0,0,-0.014228995281635,-0.008615102860067,0.053837604349771,0.007486742675737,0.10879371065231,0.015586685992983,0,0.042462598816153,0,0.132540624388172,198.642270109988,0.069909162655806,33.9018469283059,0,0,0,0,0
0.074000000000012,0,1,1,1,1,1,1,1,1,0,0,0,0.013394357231692,-0.003113880135096,0.062085245778221,0.113898325472451,0.054142450120135,0.020243599993351,0,0.028408557206819,0,0.147150916759669,180.968394022055,0.069729497403346,33.9616186895722,0,0,0,0,0
0.084000000000003,0,1,1,1,1,1,1,1,1,0,0,0,0.021980656556128,-0.004092467168036,0.058193601571975,0.136028130490497,0.021474267948935,0.027475781551874,0,0.049034661065991,0,0.134847262810878,181.777106444657,0.041287067499789,34.0265081585066,0,0,0,0,0
0.093999999999994,0,1,1,1,1,1,1,1,1,0,0,0,0.019921000521624,-0.005259750406224,0.045056748078725,0.019059778082724,0.03445253591388,-0.00166934982139,0,0.039196488405066,0,0.126134505884452,173.644746066308,0.033404150110892,34.0544339896667,0,0,0,0,0
0.104000000000042,0,1,1,1,1,1,1,1,1,0,0,0,0.021744694086814,-0.003899913716936,0.041180863582812,0.012705220588848,0.084082902453288,-0.023052377125461,0,0.043619065097754,0,0.131111106349365,165.573376600244,0.046331177654169,34.0966492243745,0,0,0,0,0
0.114000000000033,0,1,1,1,1,1,1,1,1,0,0,0,0.031058823883902,-0.004322967344227,0.038541756925567,0.031079167309787,0.106589254492421,-0.044064315754576,0,0.063533366666603,0,0.131736207472422,171.387796646637,0.035347872553114,34.1532333711034,0,0,0,0,0
0.124000000000024,0,1,1,1,1,1,1,1,1,0,0,0,0.039209637851774,-0.002959886817198,0.038889635247016,-0.010618677590416,0.121410714077711,-0.061737275150236,0,0.097762291252206,0,0.131606177779074,176.031384817748,0.026142247210902,34.2140574390127,0,0,0,0,0
0.134000000000015,0,1,1,1,1,1,1,1,1,0,0,0,0.044554078651966,-0.001472366511243,0.037894865588143,-0.007669392073916,0.120973062393546,-0.055986843258826,0,0.104521165459085,0,0.13544837832505,175.506963684886,0.03679067715705,34.2560314230621,0,0,0,0,0
0.144000000000005,0,1,1,1,1,1,1,1,1,0,0,0,0.049061081639563,3.8260059918454E-05,0.035260351637348,0.015133807698013,0.114806885506508,-0.027483908175382,0,0.088869969924554,0,0.133319249903811,173.923640931692,0.048370225962158,34.2829319590466,0,0,0,0,0
0.153999999999996,0,1,1,1,1,1,1,1,1,0,0,0,0.054853523281881,0.001343609684368,0.031438709413293,0.006174961110328,0.116096238098041,-0.007942240182943,0,0.066489805143519,0,0.131884050971247,173.763229602028,0.033894113834766,34.3112501107447,0,0,0,0,0
0.164000000000044,0,1,1,1,1,1,1,1,1,0,0,0,0.058261009471226,0.002858213557742,0.02998876949769,0.011815979899267,0.100133021458588,0.023885292896797,0,0.071340469996394,0,0.130083034753829,173.339674437276,0.022214781061813,34.3448782371439,0,0,0,0,0
0.174000000000035,0,1,1,1,1,1,1,1,1,0,0,0,0.05859230637413,0.004165570134633,0.025501267243591,0.015368954946179,0.096738020368161,0.035352393204831,0,0.091952869641915,0,0.131534616438128,170.461659863133,0.016069500296149,34.3729599638251,0,0,0,0,0
0.184000000000026,0,1,1,1,1,1,1,1,1,0,0,0,0.057652664268355,0.004604305446705,0.019421640564951,-0.012539939970156,0.088043240193045,0.027395725850313,0,0.098176004649114,0,0.128950110415016,168.461653691373,0.022834609333113,34.39520757188,0,0,0,0,0
0.194000000000017,0,1,1,1,1,1,1,1,1,0,0,0,0.055801599553929,0.005425111168605,0.018402333526201,0.006706305620477,0.088495669719593,0.011930490160185,0,0.078602654123734,0,0.129754779094099,169.516226061203,0.025416746811532,34.4081589070306,0,0,0,0,0
0.204000000000008,0,1,1,1,1,1,1,1,1,0,0,0,0.053314990858733,0.005310947751239,0.017865144735407,0.021941570579034,0.080708717001089,-0.018386286545309,0,0.068821944856303,0,0.12925684786867,171.973173972763,0.021003132582274,34.424061862385,0,0,0,0,0
0.213999999999999,0,1,1,1,1,1,1,1,1,0,0,0,0.050839336260672,0.002971673620523,0.017986085426667,0.01699945275434,0.086317849280495,-0.020263307228126,0,0.080359811337268,0,0.129423132848273,172.084102813857,0.028036514532752,34.4513840407891,0,0,0,0,0
0.224000000000046,0,1,1,1,1,1,1,1,1,0,0,0,0.048824328445384,0.001621601945028,0.018766530982576,-0.006927284464055,0.078291686215887,-0.025351999423509,0,0.075040119044258,0,0.12972900761432,172.024679519441,0.025006563902633,34.4754265416556,0,0,0,0,0
0.234000000000037,0,1,1,1,1,1,1,1,1,0,0,0,0.046673085961786,0.001436748529411,0.017881626882486,0.011534339856718,0.073240710270779,-0.003133497566699,0,0.063030715442124,0,0.130417197234611,172.193896608396,0.049039930869783,34.5023870031782,0,0,0,0,0
0.244000000000028,0,1,1,1,1,1,1,1,1,0,0,0,0.045144924836764,0.001655329434478,0.016001669523908,0.023401798787825,0.052945516378145,0.009758993326221,0,0.052366993664428,0,0.129602084654429,170.430377892284,0.032612097525561,34.5477518053454,0,0,0,0,0
0.254000000000019,0,1,1,1,1,1,1,1,1,0,0,0,0.043516375760806,0.001432815763388,0.014590979487527,0.020121721523251,0.049615061835142,0.021263297974395,0,0.063229970156313,0,0.129242888560876,169.728187200331,0.008784672661878,34.5628082300623,0,0,0,0,0
0.26400000000001,0,1,1,1,1,1,1,1,1,0,0,0,0.041952423400838,0.001110490027604,0.013965488774215,0.01802921411477,0.031264540943915,0.015217236864085,0,0.061188780021697,0,0.129269864681337,171.005888215337,0.011144036913206,34.571601637054,0,0,0,0,0
0.274000000000001,0,1,1,1,1,1,1,1,1,0,0,0,0.039054949306198,0.001810418011163,0.010848093997264,0.019321495128128,0.030764144294576,0.018397942006024,0,0.060755736898005,0,0.129813326251727,170.309895847501,0.001996765595321,34.5746900834289,0,0,0,0,0
0.284000000000049,0,1,1,1,1,1,1,1,1,0,0,0,0.036084148243517,0.003134893418224,0.006553644266176,0.01455499608148,0.022178236977005,-0.012456422234569,0,0.048489448043478,0,0.130872856472268,169.057864954227,0.003260609812865,34.5701529708022,0,0,0,0,0
0.29400000000004,0,1,1,1,1,1,1,1,1,0,0,0,0.033010430505654,0.003972188422327,0.004417739815145,0.020821266426105,0.016080525685224,-0.002840281892674,0,0.042912898000937,0,0.13073092581736,168.834054530728,0.001051166104773,34.56623165791,0,0,0,0,0
0.304000000000031,0,1,1,1,1,1,1,1,1,0,0,0,0.030822759990559,0.004728554591195,0.003413681960357,0.027667009036563,0.009051080635052,-0.00374255189432,0,0.042237721862931,0,0.129749051759237,169.557408862207,0.000752151871789,34.5638838243057,0,0,0,0,0
0.314000000000021,0,1,1,1,1,1,1,1,1,0,0,0,0.028082469536002,0.005452129827573,0.003146877492965,0.018587195798467,0.007260016252207,0.000490918929408,0,0.035909872233378,0,0.130707067067128,171.45164103488,0.003334737134653,34.5599768713291,0,0,0,0,0
0.324000000000012,0,1,1,1,1,1,1,1,1,0,0,0,0.02569024454653,0.006309020383904,0.003613524042601,0.001583556984871,0.00210764434964,-0.005651913980748,0,0.037467129113281,0,0.130216853529218,171.940254193498,0.002059932137823,34.5556931323431,0,0,0,0,0
0.334000000000003,0,1,1,1,1,1,1,1,1,0,0,0,0.023404386070841,0.007486504794096,0.004109793077059,0.01751914538701,-0.001636176729887,0.001368957488616,0,0.033935516959513,0,0.130764709784414,172.311009359184,0.001240700259612,34.5532076324748,0,0,0,0,0
0.343999999999994,0,1,1,1,1,1,1,1,1,0,0,0,0.021569937986518,0.008033442909363,0.004323333366769,0.013858634519815,-0.004206392266601,0.01103490996173,0,0.038623913976022,0,0.130282655057371,173.175647952194,0.000982258982086,34.5532497845231,0,0,0,0,0
0.354000000000042,0,1,1,1,1,1,1,1,1,0,0,0,0.020110535220539,0.008808806296023,0.005556619388483,0.005691594672421,-0.021308018393715,0.001259646596909,0,0.036496852817654,0,0.130619804204575,174.106639923736,0.005707077680786,34.555831662113,0,0,0,0,0
0.364000000000033,0,1,1,1,1,1,1,1,1,0,0,0,0.018800784332452,0.00910964497696,0.006926255354565,-0.015410418396997,-0.024842809119937,-0.005123594365922,0,0.032016131289301,0,0.129940468807075,174.700344091417,0.001635241142996,34.5587927500861,0,0,0,0,0
0.374000000000024,0,1,1,1,1,1,1,1,1,0,0,0,0.017179756836857,0.009645209405983,0.007055452408476,-0.007605098673417,-0.033283786868971,-0.018448834321134,0,0.041284602393692,0,0.129755630230191,175.233686042166,0.001306147361127,34.5607799156165,0,0,0,0,0
0.384000000000015,0,1,1,1,1,1,1,1,1,0,0,0,0.016991289213922,0.010321901557158,0.007179530746244,0.000979723364767,-0.03071312665639,-0.024672498339074,0,0.048651779496926,0,0.128923910845912,174.8609676684,0.002008284419844,34.5659112318531,0,0,0,0,0
0.394000000000006,0,1,1,1,1,1,1,1,1,0,0,0,0.017119568822503,0.0104768734717,0.006793987500142,0.013049764281982,-0.022915789916938,-0.032878655575779,0,0.057019550051573,0,0.130127038129556,173.851010050114,0.003419419400889,34.5734786469188,0,0,0,0,0
0.403999999999996,0,1,1,1,1,1,1,1,1,0,0,0,0.018751289392536,0.01009765443755,0.005438126833368,0.007583408278125,-0.01345427183255,-0.023509074737396,0,0.057105214668526,0,0.132392812294882,173.700805860319,0.004624944571995,34.5771980248322,0,0,0,0,0
0.414000000000044,0,1,1,1,1,1,1,1,1,0,0,0,0.020731846700028,0.0099252483748,0.00472054183181,0.006964562290302,-0.016601710554255,-0.021965225704572,0,0.051170334274434,0,0.131124392558645,173.38627201283,0.00236163745955,34.5770265131351,0,0,0,0,0
0.424000000000035,0,1,1,1,1,1,1,1,1,0,0,0,0.023674095319437,0.010337418434447,0.004228809677367,0.010709488981649,-0.014942867135965,-0.013502583292974,0,0.04863998230004,0,0.130772072139205,173.469061814459,0.004729464681694,34.5799861467675,0,0,0,0,0
0.434000000000026,0,1,1,1,1,1,1,1,1,0,0,0,0.02702369433425,0.010356769365806,0.003310981936235,0.003371676620201,-0.018038394386345,-0.000733983670523,0,0.044225385631365,0,0.130242701090466,173.55052153093,0.002449942020393,34.5829097995659,0,0,0,0,0
0.444000000000017,0,1,1,1,1,1,1,1,1,0,0,0,0.02901639779301,0.010445343604343,0.002789972379749,-0.002067230706829,-0.00373741690427,0.002611939510737,0,0.041554741754487,0,0.128676266608276,174.497297428146,0.001517405629593,34.5830114610921,0,0,0,0,0
0.454000000000008,0,1,1,1,1,1,1,1,1,0,0,0,0.030894554961279,0.011282516320961,0.0037705996314,0.004781973225625,-0.012883053287435,0.005457868161639,0,0.04483473791927,0,0.12934621239093,174.86183380426,0.001214681258908,34.5835515460339,0,0,0,0,0
0.463999999999999,0,1,1,1,1,1,1,1,1,0,0,0,0.032908101019242,0.012649393770094,0.004691919284323,-0.000290972045299,0.000779770565561,0.003738395162073,0,0.050651226671283,0,0.130437062499457,175.674718854119,0.001965981040769,34.5872613668028,0,0,0,0,0
0.474000000000046,0,1,1,1,1,1,1,1,1,0,0,0,0.034810874502007,0.012847635698582,0.004673465586949,0.005418199746887,0.000896332977886,-0.002635052101029,0,0.049240928332179,0,0.12978646839404,176.057191606906,0.000949486594763,34.5894549246952,0,0,0,0,0
0.484000000000037,0,1,1,1,1,1,1,1,1,0,0,0,0.036467961162838,0.012830352027264,0.005885930695223,0.00746696381151,0.002603259912137,-0.012468475180862,0,0.054801045617852,0,0.129122793768364,175.940790507996,0.001677771779512,34.5928741940719,0,0,0,0,0
0.494000000000028,0,1,1,1,1,1,1,1,1,0,0,0,0.037516469447335,0.012701220967389,0.006568813988597,0.011430607480703,0.00376074260743,-0.011602605681478,0,0.06499050831121,0,0.130309758272757,175.71521920071,0.002446085783913,34.5961524802904,0,0,0,0,0
0.504000000000019,0,1,1,1,1,1,1,1,1,0,0,0,0.038822868292271,0.013339059358268,0.007250597154042,-0.001093391125993,0.010161845947449,-0.008059217269119,0,0.05814423190926,0,0.130570046600384,176.053273992707,0.002798137909553,34.5981315345396,0,0,0,0,0
0.51400000000001,0,1,1,1,1,1,1,1,1,0,0,0,0.039915040301236,0.014405610754521,0.006966740134275,0.002897180351009,0.014707460258416,-0.002918797510354,0,0.060546902158269,0,0.12932765751131,175.141335873447,0.00050261514245,34.600882778258,0,0,0,0,0
0.524000000000001,0,1,1,1,1,1,1,1,1,0,0,0,0.04141903587221,0.015306576579691,0.007225441903537,-0.001152070902281,0.003741308724619,-0.002871950867981,0,0.060199341142099,0,0.129604754083618,175.165051982262,0.00277772624994,34.6039896890418,0,0,0,0,0
0.534000000000049,0,1,1,1,1,1,1,1,1,0,0,0,0.041306553603698,0.01557257317943,0.007348607901762,0.001213093530221,0.00473792392539,0.000466719862966,0,0.059368199877333,0,0.129915393792439,175.109446691556,0.00218288211176,34.6065256615592,0,0,0,0,0
0.54400000000004,0,1,1,1,1,1,1,1,1,0,0,0,0.041508921608337,0.01623702906888,0.007884642487881,-0.002635072978458,0.000159350572333,0.001515337674756,0,0.05804567339251,0,0.128860679652264,174.990234368115,0.004439815693907,34.6104871142096,0,0,0,0,0
0.554000000000031,0,1,1,1,1,1,1,1,1,0,0,0,0.041822369904149,0.016426519211284,0.008140705995924,-0.010716008039462,0.003385141353924,-0.002629143739754,0,0.059797818614159,0,0.130042017097802,175.531577818121,0.001088802738852,34.6138466936367,0,0,0,0,0
0.564000000000021,0,1,1,1,1,1,1,1,1,0,0,0,0.041476615683411,0.01616983016235,0.008573461186493,-0.009167561142278,0.012485737916052,-0.003895256203601,0,0.060335109818331,0,0.129028027784045,175.722279524053,0.002876266161397,34.6152148225501,0,0,0,0,0
0.574000000000012,0,1,1,1,1,1,1,1,1,0,0,0,0.040986337815478,0.0158718664846,0.009196463613447,-0.01894877493516,0.005788976960112,-0.003867970566516,0,0.061271179412719,0,0.130088564797751,175.498184105028,0.003654391834028,34.6183473099176,0,0,0,0,0
0.584000000000003,0,1,1,1,1,1,1,1,1,0,0,0,0.040692316631981,0.016156938573266,0.009702615319153,-0.020456269845973,4.95677633811904E-05,-0.006789582689294,0,0.06398103728605,0,0.129168141527546,174.826827197643,0.003413710709158,34.6222901848567,0,0,0,0,0
0.593999999999994,0,1,1,1,1,1,1,1,1,0,0,0,0.039945254497865,0.015956154287993,0.008337408323203,0.001135311914814,0.004379909376058,0.003301549067163,0,0.05867070967887,0,0.129132455739644,174.684123984596,0.00251093917541,34.6239462160175,0,0,0,0,0
0.604000000000042,0,1,1,1,1,1,1,1,1,0,0,0,0.039745220334924,0.015439327343694,0.007658220161768,0.003803542036527,0.002712283765199,0.000824295552167,0,0.059926688125532,0,0.127810489428499,174.663666589078,0.002636716787841,34.6258428244128,0,0,0,0,0
0.614000000000033,0,1,1,1,1,1,1,1,1,0,0,0,0.039401734974525,0.015174992263966,0.00682095918894,0.000663779739953,-0.004970318160412,-0.003271516550692,0,0.059351052223825,0,0.127780942498291,174.199321628371,0.001324850044872,34.6260868135124,0,0,0,0,0
0.624000000000024,0,1,1,1,1,1,1,1,1,0,0,0,0.038556765173629,0.014474829319698,0.006203659030323,0.000829361124785,-0.005322952672339,-0.003665458714719,0,0.05524962199868,0,0.128989264604503,174.501070485094,0.000865556590942,34.6251086048984,0,0,0,0,0
0.634000000000015,0,1,1,1,1,1,1,1,1,0,0,0,0.038284740578608,0.014084650274032,0.005993157986247,0.001598233857996,0.007487822547236,0.001416148372044,0,0.05608605216312,0,0.128647161707221,174.361636884456,0.000999113951854,34.6248244245796,0,0,0,0,0
0.644000000000005,0,1,1,1,1,1,1,1,1,0,0,0,0.038206000070751,0.014335140707586,0.006253722911314,0.006709665324118,0.000181276017402,7.12257591894987E-05,0,0.055135278997676,0,0.127742630372548,174.381778176279,0.00233299978222,34.6246228711831,0,0,0,0,0
0.653999999999996,0,1,1,1,1,1,1,1,1,0,0,0,0.037701779845543,0.014602120087042,0.006277605090589,0.011688253393107,0.003836432116696,-0.001677364867752,0,0.055536515078674,0,0.129125297324862,174.15328952993,0.0018550050957,34.625382412422,0,0,0,0,0
0.664000000000044,0,1,1,1,1,1,1,1,1,0,0,0,0.037462936261065,0.014470203536901,0.006596303408187,0.00972497785008,-0.002234043367024,-0.004269782835256,0,0.054789603954203,0,0.128406352681737,174.391238829299,0.001115784323862,34.6242482699368,0,0,0,0,0
0.674000000000035,0,1,1,1,1,1,1,1,1,0,0,0,0.038035092626078,0.014896696099119,0.006728319160391,0.000911892739155,0.002471671178323,-0.001184943195453,0,0.05527268022427,0,0.129080114190911,174.55378237521,0.000629336513326,34.6252875066782,0,0,0,0,0
0.684000000000026,0,1,1,1,1,1,1,1,1,0,0,0,0.038465655406162,0.014766600924279,0.00659380951322,0.007247782092499,-0.001631134154405,0.002360679476103,0,0.053950994367696,0,0.1281468146689,175.001042587081,0.002633574945816,34.6269329065476,0,0,0,0,0
0.694000000000017,0,1,1,1,1,1,1,1,1,0,0,0,0.039041997880914,0.015228934625997,0.007101974914333,0.005394396319626,-0.000782172077966,0.001002029407027,0,0.056091595079582,0,0.1288820094268,175.122820057885,0.001507663822149,34.6295535255139,0,0,0,0,0
0.704000000000008,0,1,1,1,1,1,1,1,1,0,0,0,0.039636782109589,0.015939891707402,0.006949979141165,0.003790367341641,-0.004603491420879,-0.003066593463883,0,0.056158316128527,0,0.127567560454147,174.912661883056,0.000945714968466,34.630896612085,0,0,0,0,0
0.713999999999999,0,1,1,1,1,1,1,1,1,0,0,0,0.040456931265322,0.015955158806193,0.007296853478403,-0.002571820274295,-0.002479492045507,-0.005644281586217,0,0.063880465110776,0,0.128784627110223,175.383554663112,0.00121134488479,34.6321819698334,0,0,0,0,0
0.724000000000046,0,1,1,1,1,1,1,1,1,0,0,0,0.040976656796429,0.016285572776155,0.007099067771625,-0.008041719268689,-0.000937215014291,-0.006400906752417,0,0.059384486292702,0,0.127825983176162,175.35410648412,0.000763984677515,34.6333246060034,0,0,0,0,0
0.734000000000037,0,1,1,1,1,1,1,1,1,0,0,0,0.041004991681598,0.016615044537887,0.007312537396947,-0.00649466357598,0.002560389830177,-0.007678153031575,0,0.067691194943595,0,0.12757442570831,175.262672694866,0.001083636746093,34.6356660129232,0,0,0,0,0
0.744000000000028,0,1,1,1,1,1,1,1,1,0,0,0,0.040745824158261,0.016821588420042,0.007217439979623,-0.010393386416947,0.000331248588306,0.001926376428607,0,0.060832172478692,0,0.128313660131421,175.002750069678,0.000964943753233,34.6348417057966,0,0,0,0,0
0.754000000000019,0,1,1,1,1,1,1,1,1,0,0,0,0.040884618202911,0.016434329713578,0.007391750633055,-0.015714108271231,-0.000287774799835,-0.003849634833868,0,0.060123973678813,0,0.128499297732519,174.801573432535,0.001361330324512,34.6358183602743,0,0,0,0,0
0.76400000000001,0,1,1,1,1,1,1,1,1,0,0,0,0.040744970640409,0.015986394036323,0.008010286003493,-0.02442765870951,0.000984946903804,0.005866465548526,0,0.060222679373985,0,0.128649096282821,175.111881497504,0.003069573024019,34.6383817664364,0,0,0,0,0
0.774000000000001,0,1,1,1,1,1,1,1,1,0,0,0,0.040511460138012,0.015974131605789,0.008420592881797,-0.02403535088437,0.006555491850984,-0.000574905639372,0,0.059344919308403,0,0.127714983005294,175.109588142473,0.00234075533513,34.6408141411977,0,0,0,0,0
0.784000000000049,0,1,1,1,1,1,1,1,1,0,0,0,0.040834140131845,0.016197797536621,0.007743097058764,-0.008526584131424,-0.002003716066285,-0.00814737602191,0,0.063166371659565,0,0.1277182676118,175.090832684196,0.002016267007318,34.6431453617396,0,0,0,0,0
0.79400000000004,0,1,1,1,1,1,1,1,1,0,0,0,0.041627625173287,0.015783918057177,0.007090479502758,0.000873434418981,-0.002329322686928,-0.000580258384752,0,0.06053948812895,0,0.128210685381176,174.876683732428,0.002343028391026,34.6456432199847,0,0,0,0,0
0.804000000000031,0,1,1,1,1,1,1,1,1,0,0,0,0.042215226274078,0.015598242819997,0.006664085934126,0.009896259072094,-0.003094958774448,-0.001464419874803,0,0.058558799961117,0,0.128328569584428,174.383095960951,0.00287696760949,34.6484804323947,0,0,0,0,0
0.814000000000021,0,1,1,1,1,1,1,1,1,0,0,0,0.042123692971872,0.015694609444946,0.006492586932354,0.012718383606147,0.007897255739132,0.001227801217398,0,0.060453981836577,0,0.127653385739842,174.614309886501,0.00210265576128,34.6514654104459,0,0,0,0,0
0.824000000000012,0,1,1,1,1,1,1,1,1,0,0,0,0.042689591141635,0.014988275180392,0.005990179305056,0.003309216750212,0.008123375212475,0.004668812222199,0,0.062106800334919,0,0.127127979338847,174.642814686575,0.00074470253402,34.6507904577528,0,0,0,0,0
0.834000000000003,0,1,1,1,1,1,1,1,1,0,0,0,0.043122188239459,0.015185795357691,0.006260337201762,0.012379661932944,0.008929771894206,0.004115036065383,0,0.063636669988485,0,0.127620941850239,173.803627813734,0.001279921960659,34.6517032731415,0,0,0,0,0
0.843999999999994,0,1,1,1,1,1,1,1,1,0,0,0,0.042816287541265,0.01502685565115,0.006788995247501,0.010176265220478,0.00010484536132,-0.001514923958228,0,0.06015657309627,0,0.128776053608273,174.298512000552,0.003090785235173,34.6541345444724,0,0,0,0,0
0.854000000000042,0,1,1,1,1,1,1,1,1,0,0,0,0.042737607133412,0.015007028563585,0.006644963054243,0.011395567191461,-0.004730529086634,0.006536482506056,0,0.061670613698663,0,0.126722144813309,175.305742008036,0.001065396980745,34.6544597991308,0,0,0,0,0
0.864000000000033,0,1,1,1,1,1,1,1,1,0,0,0,0.042247204462767,0.014880792423932,0.007296738256225,0.008103622244141,0.004551448231887,0.000202407017316,0,0.059882797878866,0,0.128308014620027,175.089019556873,0.001604734993775,34.6545553720564,0,0,0,0,0
0.874000000000024,0,1,1,1,1,1,1,1,1,0,0,0,0.042168059532199,0.015013181633928,0.008102445174293,0.007313062687111,0.005199427372543,0.004119315721835,0,0.059156342352327,0,0.128500638872907,175.967024096627,0.003625583344124,34.6569939871551,0,0,0,0,0
0.884000000000015,0,1,1,1,1,1,1,1,1,0,0,0,0.04242138357457,0.01500574284328,0.008848482584124,0.018378292363041,0.002947976723835,-0.003790002218838,0,0.060245811677627,0,0.128637769911019,175.9800363774,0.004550675209501,34.6611501003172,0,0,0,0,0
0.894000000000005,0,1,1,1,1,1,1,1,1,0,0,0,0.042939238586546,0.014900882028195,0.00912798293364,0.013040903456643,0.006038964911201,0.003152141838056,0,0.060066892616009,0,0.128369667437624,175.752438142349,0.004279747213774,34.6662412608377,0,0,0,0,0
0.903999999999996,0,1,1,1,1,1,1,1,1,0,0,0,0.043496948924243,0.014768959653447,0.009650179992555,0.018277312722843,-0.001900433751162,-0.000744750791712,0,0.059406193072755,0,0.127650995351048,175.722515397176,0.005396868006531,34.6722554730145,0,0,0,0,0
0.914000000000044,0,1,1,1,1,1,1,1,1,0,0,0,0.043468725445047,0.014662341252489,0.009170719817409,0.013358068415285,0.000655326248252,0.004973883838323,0,0.062305132155173,0,0.127163780368539,174.949621890808,0.001428862049086,34.6746770056678,0,0,0,0,0
0.924000000000035,0,1,1,1,1,1,1,1,1,0,0,0,0.043914638077924,0.014818355789115,0.008183424071502,0.012263406871424,-0.000156416808243,-0.010172915769851,0,0.065227347926485,0,0.128351116694132,174.774785211226,0.001862460362923,34.6780704704169,0,0,0,0,0
0.934000000000026,0,1,1,1,1,1,1,1,1,0,0,0,0.04399551916859,0.014628334936629,0.007462123714636,0.007540167871228,0.003387705116257,0.000590197829905,0,0.063129485309127,0,0.128872087888651,173.973076695303,0.003851075513446,34.6803352364674,0,0,0,0,0
0.944000000000017,0,1,1,1,1,1,1,1,1,0,0,0,0.043596328343152,0.014763415375278,0.00690275396022,0.008890865422104,0.003917924196618,0.002466373348682,0,0.061964202061113,0,0.127831472336511,174.318950472345,0.001434474453948,34.6826969178016,0,0,0,0,0
0.954000000000008,0,1,1,1,1,1,1,1,1,0,0,0,0.043368563078983,0.015458497246597,0.006553537585937,0.009095557762679,0.009412768796096,0.005798816982251,0,0.060440610712654,0,0.12863771538235,174.316925923592,0.001498473725852,34.6832037391117,0,0,0,0,0
0.963999999999998,0,1,1,1,1,1,1,1,1,0,0,0,0.043281969420578,0.015837375829493,0.006783013868225,0.01384573725085,0.007226371464241,0.001152082795495,0,0.065291745267303,0,0.127876621995075,174.145954804695,0.002569390302488,34.6860797656756,0,0,0,0,0
0.974000000000046,0,1,1,1,1,1,1,1,1,0,0,0,0.042968941441471,0.01571875702923,0.0069039306482,0.00411313457673,-0.000393618987185,-0.004531295340112,0,0.064162266029594,0,0.127499110774254,175.258786732709,0.001281071373436,34.6870488896747,0,0,0,0,0
0.984000000000037,0,1,1,1,1,1,1,1,1,0,0,0,0.042645058352115,0.015681469900513,0.008175249882081,0.006656514238886,0.005093258912624,0.010227922458689,0,0.063662419404987,0,0.12828843729561,176.262969389827,0.004055819002583,34.6881384595723,0,0,0,0,0
0.994000000000028,0,1,1,1,1,1,1,1,1,0,0,0,0.042232622453654,0.016355511690707,0.009397737587674,0.00576551594156,0.006331604022992,0.007016822493264,0,0.066909147364704,0,0.129512311817286,176.357368108729,0.005172208611962,34.6934468172045,0,0,0,0,0
1.00400000000002,0,1,1,1,1,1,1,1,1,-0.004286540997384,0,0,0.041237750325344,0.016565500816716,0.009956380828253,0.005231009170302,0.006136606956257,0.006709601003292,0,0.065042844860795,33.8099125578641,0.127741902742972,176.877090969888,0.003778558127437,34.6965737243456,0,0,0,0,0
1.01400000000001,0,1,1,1,1,1,1,1,1,0.000159899393036,0,0,0.041828162572311,0.016297370599087,0.010485949884412,0.009836281852113,0.008022073719089,0.006471013565384,0,0.066406102366683,1286.63809183089,0.128772670714592,175.93066847604,0.004763531857364,34.7014236869499,0,0,0,0,0
1.024,0,1,1,1,1,1,1,1,1,0.00460231003989,0,0,0.042324748306549,0.016390214722797,0.009830029882648,0.002967009938018,-0.002965279836821,0.002321792449792,0,0.058794914013624,316.644122768874,0.127354652276045,174.922549134259,0.003318068774084,34.7056549960127,0,0,0,0,0
1.03400000000005,0,1,1,1,1,1,1,1,1,0.009046219251751,0,0,0.042039924368135,0.016582367974177,0.00920865150828,0.006704389810009,0.004962582608971,0.009673230419998,0,0.060617166812389,100.01429615077,0.128460205557813,175.001564236834,0.001867972584574,34.7080412987883,0,0,0,0,0
1.04400000000004,0,1,1,1,1,1,1,1,1,0.01349047957843,0,0,0.042206760302805,0.016242308739223,0.008748903815148,0.013559133090506,0.005962765410607,0.00436529526809,0,0.052487127594211,62.4882940887074,0.127943796331197,174.585627232496,0.00472274658993,34.7114927439156,0,0,0,0,0
1.05400000000003,0,1,1,1,1,1,1,1,1,0.017934155574429,0,0,0.042196788359691,0.01570370330235,0.008957373449921,0.019580007190627,0.006076571911712,0.010403936079959,0,0.048188380054983,45.0226786354102,0.129067895060988,175.102229055242,0.004774450614614,34.7163755837992,0,0,0,0,0
1.06400000000002,0,1,1,1,1,1,1,1,1,0.022379913907892,0,0,0.043808354350268,0.014060697685203,0.009483685456226,0.018057662840132,0.008343513682141,0.014142892310811,0,0.050733348236492,35.342750041561,0.128816831098651,175.515679599252,0.002293203812284,34.7216342197781,0,0,0,0,0
1.07400000000001,0,1,1,1,1,1,1,1,1,0.026819933443361,0,0,0.045033453735944,0.012834886397123,0.009855242044859,0.013389085359849,0.003363802262663,0.004596282808927,0,0.040483773691613,29.0590685952827,0.129140955149733,175.983439388518,0.007530060604333,34.726731064972,0,0,0,0,0
1.084,0,1,1,1,1,1,1,1,1,0.031263554505444,0,0,0.047396410685142,0.012533168896904,0.009959091880363,0.026681957931183,0.016803093105318,-0.001036958914697,0,0.033583083662212,25.0203831689233,0.130982670472786,175.947979657278,0.006263920177648,34.735049828873,0,0,0,0,0
1.09399999999999,0,1,1,1,1,1,1,1,1,0.035707934374629,0,0,0.049374732906388,0.011538508465629,0.009965813417952,0.036212784881731,0.013105290395199,0.002142067057494,0,0.031321578946482,21.2425479128007,0.129824139011936,175.869229210521,0.004714482204944,34.7422085397981,0,0,0,0,0
1.10400000000004,0,1,1,1,1,1,1,1,1,0.040148961171402,0,0,0.051634352212839,0.010905734933798,0.010365501712918,0.022656295637336,0.007586334248261,0.003867696145077,0,0.029987385895191,18.7656624839573,0.130633783874835,175.436421283972,0.003791561263058,34.7493253810896,0,0,0,0,0
1.11400000000003,0,1,1,1,1,1,1,1,1,0.044586654378448,0,0,0.053206855261134,0.011320449041706,0.009750281761843,0.018176647888402,-0.006885788394443,-0.004678800773377,0,0.024206702089966,16.8815247591419,0.129993983250739,174.85146414337,0.006584622843244,34.7568544298137,0,0,0,0,0
1.12400000000002,0,1,1,1,1,1,1,1,1,0.049026325538877,0,0,0.054199192138656,0.011080753970349,0.008503898239676,0.02719407888689,-0.002487840848428,-0.004841362889769,0,0.022064601386445,15.2202642854364,0.130710987960221,175.305646123683,0.004492840440215,34.7643594927818,0,0,0,0,0
1.13400000000001,0,1,1,1,1,1,1,1,1,0.053464181737262,0,0,0.054665782018242,0.010841777208273,0.008404640071512,0.031043397667368,0.005599621654004,0.000626991136182,0,0.017075664166152,14.0235986322032,0.130376797372055,175.061500916763,0.005284965383855,34.769781347956,0,0,0,0,0
1.14400000000001,0,1,1,1,1,1,1,1,1,0.057901616925505,0,0,0.056186104937843,0.011406762475993,0.008291363447855,0.025017430464497,0.007764526247354,0.008628358843653,0,0.018808157822289,12.9735897867985,0.132045435367265,175.374719440744,0.000627386036651,34.7740693717257,0,0,0,0,0
1.154,0,1,1,1,1,1,1,1,1,0.062338754498475,0,0,0.057660224016568,0.012697017663749,0.008512379293316,0.014340461581534,0.007614320292939,0.018792756534958,0,0.03037527180053,11.8604819049901,0.131354130552896,175.470084824823,0.001145330207032,34.7780483695415,0,0,0,0,0
1.16400000000004,0,1,1,1,1,1,1,1,1,0.066776351918836,0,0,0.059969565640045,0.014065571850958,0.008802770881577,0.01057108448719,-0.005602143893778,0.014015037000989,0,0.036481280228796,11.2202028751132,0.132068612087909,175.905346972063,0.002094348084593,34.7827834155476,0,0,0,0,0
1.17400000000004,0,1,1,1,1,1,1,1,1,0.071210937741116,0,0,0.062586633194083,0.015231273356714,0.008877810770107,0.019839257071642,-0.012459185444776,0.014739659226512,0,0.036604604600263,10.8029687131114,0.132056472062417,175.689332215144,0.006091045324935,34.790511799464,0,0,0,0,0
1.18400000000003,0,1,1,1,1,1,1,1,1,0.075639784393553,0,0,0.064002288205937,0.016067376303031,0.009291335503064,0.014345945690146,-8.78244486968913E-05,0.009386036388002,0,0.035694694215498,9.76115597998432,0.13144388715227,176.062938148226,0.00429932757572,34.797954683952,0,0,0,0,0
1.19400000000002,0,1,1,1,1,1,1,1,1,0.080070941802939,0,0,0.065712674803822,0.017640896763183,0.010109139292148,-0.000630985905365,7.02839736370582E-05,0.008123289360607,0,0.038814835936761,9.24524117906532,0.130567384149485,176.831492517739,0.004055419353165,34.8046109093037,0,0,0,0,0
1.20400000000001,0,1,1,1,1,1,1,1,1,0.084503368208842,0,0,0.066872597257015,0.018891832899149,0.010612994899804,0.001834643127392,0.016115309456242,0.020091213351017,0,0.050099414699188,9.08512825505984,0.133765189895238,176.997214050531,0.002432944566328,34.8124555946967,0,0,0,0,0
1.214,0,1,1,1,1,1,1,1,1,0.088929690263291,0,0,0.070194866063361,0.019556439872217,0.011184233818744,0.004457050963527,0.002965177927005,0.021695356743969,0,0.058235230299785,8.55256138884056,0.132915811812084,177.367936846979,0.003974466502625,34.8233528611355,0,0,0,0,0
1.22400000000005,0,1,1,1,1,1,1,1,1,0.093357105305224,0,0,0.073656138999151,0.018992043751649,0.012472814325241,-0.010949648083717,-0.000848152226405,0.024204198392026,0,0.060960713770132,8.08533571118562,0.132160665355785,177.575364244473,0.003484240145592,34.8329368059212,0,0,0,0,0
1.23400000000004,0,1,1,1,1,1,1,1,1,0.097780987735141,0,0,0.07582811774769,0.017349670419476,0.014262619138302,-0.041357394258628,-0.000263590135617,0.040954070713699,0,0.074751264987672,7.78307015902585,0.132367004221854,177.739711987732,0.001709709215179,34.8493144767562,0,0,0,0,0
1.24400000000003,0,1,1,1,1,1,1,1,1,0.102201779381396,0,0,0.078626718118987,0.016605610223147,0.015076739498354,-0.036182391934277,0.00500409072157,0.04459753164752,0,0.084725661878183,7.39278843619103,0.132102189474014,177.58187114528,0.006743979932734,34.8661884434893,0,0,0,0,0
1.25400000000002,0,1,1,1,1,1,1,1,1,0.106620448125679,0,0,0.081040286024132,0.015947159089112,0.014384326569515,-0.002813722854426,0.008702368162732,0.043207307803175,3,0.0824013803532,7.00037017940396,0.13276365642515,176.910468974642,0.009631706503943,34.8780469508989,0,0,0,0,0
1.26400000000001,0,1,0,0,1,1,1,1,1,0.111038697137066,0,0,0.08340185799959,0.015516342496218,0.013607835360242,0.022578720082904,0.00793840212898,0.025920150730915,0,0.078964997132914,6.57231003472707,0.130674148475188,175.829142124173,0.014155243951725,34.8878272382317,40,0,0,0,0
1.274,0,1,1,1,1,1,1,1,1,0.115454121058832,0,0,0.086558145851115,0.014095284783719,0.011103992959974,0.030812351313982,0.011383415114453,0.013372909484563,0,0.060824143388206,6.65409501277977,0.131555437654235,174.666591529881,0.008347541238655,34.8916341935107,0,0,0,0,0
1.28400000000005,0,1,1,1,1,1,1,1,1,0.119868632445799,0,0,0.124711177238311,0.012522595511711,-0.000126143048536,0.088214048272537,-0.112198896978617,0.032162435352314,3,0.046498249873319,11.0747024429826,0.133576723743998,171.432713631813,0.034588301441134,34.9368636665473,0,0,0,0,0
1.29400000000004,0,1,0,0,1,1,0,1,1,0.124279513341959,0,0,0.122569667816017,0.007352470370099,0.000303562549953,0.116620322221088,-0.079252188322217,0.02505714999896,3,0.051134290511618,5.82687620900685,0.131021170188634,161.793732563335,0.039605664632128,34.9778833725345,25,0,0,0,0
1.30400000000003,0,1,0,0,1,1,1,1,1,0.128688885438626,0,0,0.118177140333208,-0.003637139545107,-0.020451268231462,0.016942063932963,0.207977816802426,0.017169393579604,3,0.032875791872631,5.20283199123424,0.121282073848409,172.337558351262,0.019108097658289,34.9511911931642,40,0,0.01,0,0
1.31400000000002,0,1,0,0,1,1,1,1,1,0.133092879244816,0,0,0.15353093708235,-0.012184694689453,-0.037503514472447,-0.101551646197932,0.296369412663315,0.045702300187514,3,0.048798594291988,11.8390685397821,0.125156214396059,179.00903132975,0.096196644477164,34.9618684946913,50,0,0,0,0
1.32400000000001,0,1,0,0,1,1,0,1,1,0.137495611143538,0,0,0.191869563789648,-0.010267659765089,-0.042000876312765,0.025258301834247,0.189880648213639,-0.003783120367281,3,0.080135425610154,8.74001286222029,0.127636381665272,168.107314759707,0.120421192777996,35.0166885918675,30,0,0,0,0
1.334,0,1,0,0,1,1,0,1,1,0.141891327566954,0,0,0.186337212744029,-0.003787469788165,-0.050566843840004,0.133308908125525,0.239255060943523,-0.062370530726587,3,0.104278491028119,11.1124765534919,0.131367452538756,164.698675821559,0.136674962425111,34.955324136781,25,0,0,0,0
1.34400000000005,0,1,0,0,1,1,0,0,1,0.146295673550817,0,0,0.185590066546541,0.014011986957079,-0.049357353741476,-0.031926303683405,0.2496279644799,-0.007793881959254,3,0.084272661976803,12.8120693261518,0.137700273722969,159.150307083505,0.088513387702304,34.9599342136411,10,0,0,0,0
1.35400000000004,0,1,0,0,1,1,0,0,1,0.150682560699012,0,0,0.17777621917145,0.01218688873675,-0.038987441905359,0.161959437250223,0.335071081577503,0.214032099152822,3,0.173414510754537,11.6582815883433,0.142454442783618,180.5003616709,0.230090565822619,35.1284767191907,0,0,0,0,0
1.36400000000003,0,1,0,0,1,1,0,0,1,0.155082603633295,0,0,0.164630491410483,0.002347258398432,-0.02501705922436,-0.007738263795256,0.300282844894494,0.282289652539672,3,0.293108999402687,8.39880226576563,0.115720434183336,200.706028833386,0.180154831858846,35.464907396182,0,0,0,0,0
1.37400000000002,0,1,0,0,1,1,0,0,1,0.159463358052723,0,0,0.177139448350698,0.000918822789989,-0.021593081924558,-0.101711829444194,0.185248923539768,0.253561773752622,3,0.281021608779448,6.15460932435894,0.085417422885273,198.400850534513,0.08412372937114,35.4712674707146,0,0,0,0,0
1.38400000000001,0,1,0,0,1,1,0,0,1,0.163849337140255,0,0,0.169294846498083,0.004249691147711,-0.014378159492045,-0.032868768717693,0.075991043097001,0.146792714632449,3,0.218609401928255,5.22178250239577,0.077019621232632,189.181403645556,0.309235885137896,35.3196837260855,0,0,0,0,0
1.39400000000001,0,1,0,0,1,1,0,0,1,0.16823145298781,0,0,0.160011986387557,-0.011604428517376,0.012139896811673,-0.172592538876083,0.103329324566662,-0.00772108928509,3,0.064263220110065,5.32717675034736,0.095342818625138,195.127667426019,0.199029737781102,35.0977633483782,0,0,0,0,0
1.404,0,1,0,0,1,1,0,0,1,0.172619953417586,0,0,0.158766169453388,-0.015691475217965,0.022934869990036,-0.221440000865678,0.05769943623786,-0.105643584270054,3,0.100129140581467,5.6011973731166,0.10685216047693,206.139346876972,0.013309807495485,35.1654585666076,0,0,0,0,0
1.41400000000004,0,1,0,0,1,1,0,0,1,0.176987404776288,0,0,0.161388991356384,-0.017044031090209,0.033385183710799,0.006703810015478,-0.071782683932939,-0.153873910494258,3,0.176240385226528,6.11972887748018,0.112057619102458,213.841882458149,0.033691398249335,35.3233910051672,0,0,0,0,0
1.42400000000004,0,1,0,0,1,1,0,0,1,0.181367942605297,0,0,0.158878332022344,-0.007133857678695,0.067143226968939,0.078434493084329,-0.206537669312714,-0.164595283504733,3,0.194286504483423,7.97388085790119,0.134742291434977,211.195388785564,0.070253747390606,35.4419324057123,0,0,0,0,0
1.43400000000003,0,1,0,0,1,1,0,0,1,0.185726976062622,0,0,0.147618436067798,-0.00137320343716,0.07582870873031,0.072497447645386,-0.071755524549941,-0.049771992120015,3,0.140114137164425,9.32717659918355,0.136091549672144,208.660667424878,0.286570538300743,35.4336254752837,0,0,0,0,0
1.44400000000002,0,1,0,0,1,1,0,0,1,0.190102643631259,0,0,0.139586262063542,0.000777399397695,0.077028718194953,0.024241184168208,0.01529118680248,0.069097341839023,3,0.083699028520327,9.137959838299,0.134271928904951,201.157461705175,0.096819128728092,35.4526469735319,0,0,0,0,0
1.45400000000001,0,1,0,0,1,1,0,0,1,0.194454789398714,0,0,0.127196713887928,0.005202794660365,0.076838068068555,-0.012034133492856,0.056609842518183,0.144597190945398,3,0.1816834618268,9.0513845438942,0.12258111646903,188.056590850734,0.036211211951452,35.6173817508669,0,0,0,0,0
1.464,0,1,0,0,1,1,0,0,1,0.198813080030479,0,0,0.124475781011025,0.007245186980694,0.08212670176946,-0.181517220523575,0.141743171539394,0.154434191181415,3,0.235830905023149,8.23680541416844,0.120630918747631,194.789604876265,0.115531919109605,35.8031026192426,0,0,0,0,0
1.47400000000005,0,1,0,0,1,1,0,0,1,0.203175431418946,0,0,0.121848516020588,0.010104449739616,0.082763451630767,-0.335303429215295,0.254527828888115,0.13820712908308,3,0.231790461064308,7.64050314608498,0.129924556014102,210.027889173497,0.137929695900566,35.8879680309587,0,0,0,0,0
1.48400000000004,0,1,0,0,1,1,0,1,1,0.207522765951391,0,0,0.1283385314251,0.005264117465912,0.075519401071617,-0.467989003599407,0.287726605260766,0.08793216932913,3,0.19442155676909,4.83232837460821,0.11015476911741,210.433775347426,0.128941762172545,35.9163640404325,15,0,0,0.14,0
1.49400000000003,0,0,1,1,0,1,1,1,1,0.21186093141822,0,0,0.142623207661366,-0.002458276601772,0.071143701900946,0.142010472171606,0.311968739030031,0.083924771121933,3,0.159033225936581,3.78754887021295,0.090227239988048,229.377431427182,0.060982689924099,35.9428852462235,70,0,0.17,0,0
1.50400000000002,0,0,1,1,0,1,1,1,1,0.216211065734018,0,0,0.17706638008033,-0.007660128151122,0.106479071634555,-0.00086199830306,-0.003204527003218,0.088869087279906,3,0.145456180457088,3.40796813193538,0.099908260558645,235.730094383865,0.068378733794271,35.9820784032362,50,0,0,0,0
1.51400000000001,0,0,1,1,0,1,1,1,1,0.22054316595382,0,0,0.216958985457986,-0.003226307407644,0.101557097197095,-0.184210786623638,-0.381993245202359,0.033982104570832,3,0.080166178947938,4.75077131844957,0.097974265755251,194.423950181867,0.030900159018724,36.0792163830588,50,0,0,0,0
1.524,0,0,1,1,0,0,1,1,1,0.224873914200484,0,0,0.224614400674465,0.002879906671133,0.065678619206562,0.059861037336229,-0.557434518122813,-0.034289269121099,3,0.021708904644764,3.52209396961705,0.08615628131503,145.061119606311,0.023566634192399,36.1504640983952,40,0,0,0,0
1.53400000000005,0,0,1,1,0,0,1,1,1,0.229210126458615,0,0,0.203226587608728,-0.009020771404911,0.031391518069621,0.183388426387547,-0.427326287067114,-0.15707569545289,3,0.121722345426389,4.24386671609715,0.096521275433004,120.403482382863,0.049023638684373,36.2262750049653,25,0,0,0,0
1.54400000000004,0,0,1,1,0,0,1,1,0,0.233528194248554,0,0,0.176075373174764,-0.020990647856903,0.008698433069099,-0.10638918424261,-0.262742948095122,-0.255707283488633,3,0.28574843413128,6.23285538864327,0.100365657679777,127.070370583468,0.108044520590085,36.4882839664163,0,0,0,0,0
1.55400000000003,0,0,1,1,0,0,1,1,0,0.23785627651066,0,0,0.157944391558845,-0.017512817624203,-0.025003563642702,-0.310905424309702,-0.03774794193525,-0.257348623510316,3,0.354665116163336,5.74755804987359,0.08184026807143,153.970677144632,0.049606812061795,36.586266157347,0,0,0,0,0
1.56400000000002,0,0,1,1,0,0,1,1,0,0.242169977009401,0,0,0.160700706471883,-0.001076300941999,-0.036055662148013,0.045206753466321,0.120780940241649,-0.097036447566821,3,0.254273652607233,5.46812240476783,0.075561339318042,150.208937977305,0.340925114635227,36.3355556165509,0,0,0,0,0
1.57400000000001,0,0,1,1,0,0,1,1,0,0.246471604419269,0,0,0.155258607880999,0.00371053850437,-0.034098514412228,0.335732928496178,0.181437696319465,0.047259131407818,3,0.127931960316473,3.57318108329037,0.077827759815792,149.160565923416,0.090525296759285,36.1559468896988,0,0,0,0,0
1.584,0,0,1,1,0,0,1,1,0,0.250773920800098,0,0,0.163037887800341,-0.004352337031549,-0.026977238029228,0.33007561686112,0.238686349016154,0.129578014695327,3,0.18886891871618,3.18561471808182,0.092354823081012,170.842665198645,0.09216513608082,36.2426258422916,0,0,0,0,0
1.59400000000005,0,0,1,1,0,0,1,1,0,0.255075490350015,0,0,0.168807548210463,-0.00852192244285,0.003788981035379,0.054350126336419,0.18581074520377,0.141108036457497,3,0.237820978593556,3.34157591793473,0.112423849336401,179.740324510559,0.032339229837826,36.3282546719096,0,0,0,0,0
1.60400000000004,0,0,1,1,0,0,1,1,0,0.25936904975711,0,0,0.174955539561967,-0.006451178087007,0.033060113956366,-0.118998546303491,0.01356776950396,0.105824008694679,3,0.213839367179761,3.67404956983016,0.11732664060266,178.507732172709,0.084272434817303,36.3420658313435,0,0,0,0,0
1.61400000000003,0,0,1,1,0,0,1,1,0,0.263669856942651,0,0,0.201417148249834,-0.004359278478349,0.042365802814303,-0.128574776741132,-0.191626604185921,0.029505010540829,3,0.1384080365422,5.45798459413814,0.12966388219253,168.723679507953,0.061490126693225,36.3754463130029,0,0,0,0,0
1.62400000000002,0,0,1,1,0,0,1,1,0,0.267942765262391,0,0,0.223975427829401,-0.002693632212426,0.048256019704244,0.090318395578464,-0.356168448682927,-0.028026504884356,3,0.068867793590887,7.35049418375766,0.134878924649217,155.923433586677,0.006167656220062,36.4708976637328,0,0,0,0,0
1.63400000000001,0,0,1,1,0,0,1,1,0,0.27222397060559,0,0,0.231632966561309,-0.004424355417587,0.042031458294359,0.350109736578105,-0.428915627180605,-0.055940456866694,3,0.095253892096524,7.55298490565044,0.123402835658967,147.541420443306,0.029525773657735,36.5873934132674,0,0,0,0,0
1.64400000000001,0,0,1,1,0,0,1,1,0,0.276496331517672,0,0,0.244695371757143,-0.00584544335889,0.029497625908565,0.351359204656752,-0.507273663327639,-0.071674490255813,3,0.106642149181202,6.10235813604195,0.103512912834485,147.742957680051,0.01263481681711,36.6922544155737,0,0,0,0,0
1.654,0,0,1,1,0,0,1,1,0,0.28076669255283,0,0,0.247518498171704,-0.01244104300789,0.034391552088771,0.160476772679654,-0.499765186330448,-0.089933984383666,3,0.122107938609685,5.49366190094835,0.087464435861612,155.884231856999,0.030099244399585,36.7909446961504,0,0,0,0,0
1.66400000000004,0,0,1,1,0,0,1,1,0,0.285031705709674,0,0,0.234747716377224,-0.010024075117514,0.030943316128575,0.122861302914619,-0.399821627962112,-0.052359326321522,3,0.123790868354971,3.5611968132382,0.087396969001349,164.998472462603,0.138503614293718,36.8292543232978,0,0,0,0,0
1.67400000000004,0,0,1,1,0,0,1,1,0,0.289295038872921,0,0,0.227191554524301,-0.014065521601637,0.02145606099409,0.203538033935419,-0.210975379914386,0.012990541013361,3,0.090281107830249,2.9236943538538,0.092237930772724,175.178733586621,0.092247332490984,36.8222734212313,0,0,0,0,0
1.68400000000003,0,0,1,1,0,0,1,1,1,0.293549804954466,0,0,0.228346209379122,-0.021216284700497,0.012542756051984,0.158662880894711,-0.074353049881351,0.051287016937851,3,0.116488598381682,2.20403785494773,0.090277586266333,185.48860990065,0.009553211633214,36.8670132167075,5,0,0,0,0.14
1.69400000000002,0,1,0,0,1,0,1,1,1,0.297782174046442,0,0,0.198978928132112,-0.015942823632344,0.051078385849317,-0.470427444023666,0.427360315739411,-0.048216272543668,3,0.146141017331231,2.12183043111029,0.091990613456437,237.243173304255,0.128097763832781,36.8755101414036,75,0,0,0,0
1.70400000000001,0,1,0,0,1,1,1,1,1,0.302020617854172,0,0,0.198934165775001,-0.001702639191041,0.067944417189706,-0.818008330780447,0.956769354436196,-0.207573597701393,3,0.26835239012586,3.68051269785859,0.091068898736737,264.971509528643,0.24450446788988,36.9774578661087,65,0.18,0,0,0
1.714,0,1,0,0,1,1,1,1,1,0.306266919293699,0,0,0.297978092594795,-0.009123793577711,0.022791816971058,0.127787315935895,0.407170373126039,-0.276445457806372,3,0.321226395605138,12.8967189307818,0.146774445618043,232.266496529247,0.481706095939238,37.482007726561,50,0,0,0,0
1.72400000000005,0,1,0,0,1,1,0,1,1,0.310482558223562,0,0,0.330423290200964,0.001377826453772,0.065226706064936,0.586931459919377,-0.030054240680296,-0.193899081040624,3,0.252146186099224,8.0258321238116,0.1633295437667,238.647876247747,0.119857056022051,37.6299405683548,40,0,0,0,0
1.73400000000004,0,1,0,0,1,1,0,1,1,0.314705174916397,0,0,0.367454232986427,-0.008122682037795,0.092288086865599,0.275675225014423,-0.297616847830113,0.071633321198198,3,0.122682644019602,9.98520203531619,0.172000919622551,243.828425963557,0.280493121574311,37.5466247095182,25,0,0,0,0
1.74400000000003,0,1,0,0,1,1,0,0,1,0.318921271273224,0,0,0.363966412923559,-0.010957051539155,0.062883133983867,0.140189273573637,-0.283228549747055,0.307207851282465,3,0.282203354039636,6.85329483534099,0.162644722586883,235.499441768023,0.45976259225752,37.985312426073,20,0,0,0,0
1.75400000000002,0,1,0,0,1,1,0,0,1,0.323133974268756,0,0,0.355659724437588,-0.014552598898447,0.029967385547411,-0.651652129500661,-0.253687354154989,0.369874794784843,3,0.436451859056115,3.63540206220251,0.085662934816647,166.889091946666,0.569717092909672,38.5838569125629,0,0,0,0,0
1.76400000000001,0,1,0,0,1,1,0,0,1,0.327334576554485,0,0,0.354093140996459,0.002820062076842,-0.004339528206601,-0.620631390490589,-0.231557449708791,0.254360162760388,3,0.329304123351986,2.14495885225675,0.066567239069131,130.925387624258,0.474693894164103,38.2155172225469,0,0,0,0,0
1.774,0,1,0,0,1,1,0,0,1,0.331528719776169,0,0,0.346658749538971,0.025939281900566,0.01241961875194,-0.503323692502733,-0.126224508271786,0.024866395754224,3,0.158575806604479,1.35384764755863,0.069884373154997,129.779472491556,0.488014161335567,37.8220738073992,0,0,0,0,0
1.78400000000005,0,1,0,0,1,1,0,0,1,0.335718417267003,0,0,0.317888545167508,0.024123992424217,0.010343981499706,-0.184699812291617,0.27385770941606,-0.127701685368133,3,0.114785985023861,0.847330763417347,0.058492279564557,154.194352972716,0.084280932321396,37.7351266366477,0,0,0,0,0
1.79400000000004,0,1,0,0,1,1,0,0,1,0.339901085003317,0,0,0.290407084293533,0.005098712059194,-0.024431293838656,0.019908257385138,0.661957990375688,-0.179406676275533,3,0.2157210106327,0.912719493517237,0.056853649692002,151.056578339329,0.035771903701606,37.7723964757452,0,0,0,0,0
1.80400000000003,0,1,0,0,1,1,0,0,1,0.344078134700354,0,0,0.311231387266028,-0.001315447108803,-0.032071424829735,0.05590327907575,0.633409199764698,-0.171338213926705,3,0.2221837631341,1.89506144670725,0.086661293358533,137.65573921803,0.082074077729786,37.7967032777742,0,0,0,0,0
1.81400000000002,0,1,0,0,1,1,0,0,1,0.348258815575947,0,0,0.345210564109278,0.005098912877385,-0.034334463210814,0.125074834073053,0.341519016267618,-0.112681659354894,3,0.149422027233817,4.11417686506734,0.116335401219075,144.243246427591,0.021453209866106,37.8736738026537,0,0,0,0,0
1.82400000000001,0,1,0,0,1,1,0,0,1,0.352411161124591,0,0,0.374583286980555,0.003608868166833,-0.027638800979741,0.084812369942207,0.10979757123022,-0.004917959752984,3,0.069767756986659,4.66782705289324,0.123220847097309,169.786460919192,0.058714360915582,37.910826992972,0,0,0,0,0
1.834,0,1,0,0,1,1,0,0,1,0.35656687619525,0,0,0.386936007782436,0.001883798683849,-0.015315327797109,-0.001352301837221,-0.078405007277973,0.05307026931786,3,0.07010995579256,3.62173939441469,0.102957229313314,185.516177502851,0.092358528855653,37.9894044626007,0,0,0,0,0
1.84400000000005,0,1,0,0,1,1,0,0,1,0.360726419594106,0,0,0.390776561850495,0.001326595742666,-0.021395270443077,-0.152704611248015,-0.086218540403212,0.091901210340055,3,0.1082001011317,2.32472248342789,0.076078727158261,179.037241479259,0.084091009522569,38.001297750642,0,0,0,0,0
1.85400000000004,0,1,0,0,1,1,0,0,1,0.364858476811533,0,0,0.385353358774756,0.000607774545312,-0.02447641604121,-0.233078565550954,0.030561525200831,0.048144707073663,3,0.09912456419706,2.06235823446475,0.078890214987982,167.374911402193,0.080476110858876,37.9922516610393,0,0,0,0,0
1.86400000000003,0,1,0,0,1,1,0,0,1,0.368990648265681,0,0,0.359423692615334,0.011606556163808,-0.018886537573046,-0.146232790176837,0.228210213132293,0.047611431179599,3,0.06032799918374,2.58942041174325,0.102384529232145,170.484607494627,0.132746414109245,37.8799323358621,0,0,0,0,0
1.87400000000002,0,1,0,0,1,1,0,0,1,0.373121241100199,0,0,0.350585260226155,0.015921003519542,-0.027672134909164,0.174942187052687,0.450652812002097,0.037587680963559,3,0.0768203568701,2.09683134319027,0.109259965748191,188.896501238665,0.040975970736318,37.809102843447,0,0,0,0,0
1.88400000000001,0,1,0,0,1,1,0,0,1,0.37723768006578,0,0,0.356115018300746,0.004520880975383,-0.033982832639241,0.50092019822164,0.562032974974058,0.022466728395087,3,0.059005980194339,1.31560497227241,0.089028539013295,196.263578519603,0.066825335985914,37.7634223050382,0,0,0,0,0
1.89400000000001,0,0,1,1,0,1,1,1,1,0.381361960663828,0,0,0.399323081088283,-0.005460528064701,-0.029997309815953,0.580324531045217,0.380867894363051,-0.032027992243958,3,0.030632280810071,1.61124003768184,0.077226624458331,194.390921398124,0.294427202607227,37.8312073982582,80,0,0.17,0.15,0
1.904,0,0,1,1,0,1,1,1,1,0.385459109322749,0,0,0.431479803872058,-0.016365515130939,0.034738216840225,0.265010545739183,0.086511687423478,-0.028680978697343,3,0.081136988146443,1.93136887282625,0.079590786691422,244.468421444104,0.239657915262965,37.9403676985089,50,0,0,0,0
1.91400000000004,0,0,1,1,0,1,1,1,1,0.389563408831833,0,0,0.440192383327695,-0.008262349885478,0.068879273283909,-0.125430659813765,-0.163388064055299,-0.029566620656004,3,0.089188831691596,1.87943604822172,0.073039465647804,242.158163258745,0.094564229399999,37.9777008564539,50,0,0,0,0
1.92400000000004,0,0,1,1,0,1,1,1,1,0.393642258171477,0,0,0.44034293186148,-0.000553273583698,0.054201211319188,-0.288782061808697,-0.426100832350402,-0.043695335155977,3,0.086527291731573,2.35112122503162,0.08625368682798,172.951199644819,0.096078336416791,37.9700771563802,50,0,0,0,0
1.93400000000003,0,0,1,1,0,0,1,1,0,0.397738941699868,0,0,0.375232552034323,-0.002771782649257,0.006776715149153,-0.221965028476995,-0.41962756156577,-0.125259131507115,3,0.103603715048217,2.51647690384847,0.091007589578762,124.018711335815,0.32118463972414,37.8457624525262,20,0,0,0,0
1.94400000000002,0,0,1,1,0,0,1,1,0,0.401810827130473,0,0,0.371786300529514,-0.017009309168654,0.000585886994725,-0.352666880282824,-0.149801339104746,-0.184868901145158,3,0.211603541283966,2.34845660084335,0.066773835692035,145.326636238371,0.071061790222046,37.8658599060355,0,0,0,0,0
1.95400000000001,0,0,1,1,0,0,1,1,0,0.405863258759552,0,0,0.36467022801533,-0.00410529353204,-0.012742597705869,-0.432261653728753,0.100801527948716,-0.147727919672509,3,0.230352212515083,2.78717310243022,0.066253895696528,158.316011477837,0.163717547796266,37.8932510532798,0,0,0,0,0
1.964,0,0,1,1,0,0,1,1,0,0.40992193427519,0,0,0.373898735220691,0.00766894451802,-0.021284923723333,-0.047216735117652,0.132467600411716,-0.005924080845957,3,0.105485848395352,2.67558411329283,0.080401374042704,141.829233777435,0.093550000864658,37.7167378272627,0,0,0,0,0
1.97400000000005,0,0,1,1,0,0,1,1,0,0.413970966182743,0,0,0.369119273428882,0.006620192382035,-0.02847533551821,0.33165427211473,0.133032406488997,0.099895468123096,3,0.109795450844961,2.05144165959556,0.08248574725277,157.485266010119,0.046134174661833,37.7180343978044,0,0,0,0,0
1.98400000000004,0,0,1,1,0,0,1,1,0,0.418012979177,0,0,0.384600557943876,0.000398350604346,-0.023531150267537,0.374069614795715,0.08532589353189,0.11767591846354,3,0.163370436693002,1.58024264489871,0.092265258819033,172.362763285726,0.143006585164922,37.770625147826,0,0,0,0,0
1.99400000000003,0,0,1,1,0,0,1,1,0,0.422046445386963,0,0,0.403046897256983,-0.006090931357781,-0.004287867921187,0.272991194225972,0.00291138419263,0.081646803550804,3,0.130290996736123,1.63224290917889,0.098201137832135,164.036746010395,0.086738519253179,37.8115253077419,0,0,0,0,0
2.00400000000002,0,0,1,1,0,0,1,1,0,0.426072341423714,0,0,0.408648550630597,-0.010656661679539,-0.00145796217891,0.21183449239893,-0.059984580617678,0.05425799170252,3,0.088566328237911,1.99310063988747,0.101037515652046,160.642485885517,0.042800985873593,37.7930080649442,0,0,0,0,0
2.01400000000001,0,0,1,1,0,0,1,1,0,0.430088191368477,0,0,0.424031549514616,-0.012065207637161,0.011113256793412,0.221705891458278,-0.120895577095919,0.010665200747605,3,0.048679054406936,2.49644960704693,0.103352555303063,162.01673969474,0.082142057678416,37.8276379770106,0,0,0,0,0
2.024,0,0,1,1,0,0,1,1,0,0.434099844677577,0,0,0.432908625417196,-0.012652392019278,0.021788724875429,0.244287566622376,-0.135767207265967,0.016792642392173,3,0.02583941998899,3.52691666760322,0.107713277458986,155.088300409576,0.051521815519788,37.8691132420162,0,0,0,0,0
2.03400000000005,0,0,1,1,0,0,1,1,0,0.43809805013527,0,0,0.434727338897178,-0.011469238635721,0.029660886674939,0.296203968551198,-0.147809613523966,0.027004916318697,3,0.03379298837368,4.23612648273037,0.104367280892105,152.781913314233,0.009023192572441,37.9067140878697,0,0,0,0,0
2.04400000000004,0,0,1,1,0,0,1,1,0,0.442088748169472,0,0,0.439493167603104,-0.0105324902201,0.0536016283159,0.198922540497716,-0.199572253101348,0.042553929370707,3,0.054902460139025,3.62681662111186,0.095277543834797,155.050456241022,0.018178737948797,37.9493517959699,0,0,0,0,0
2.05400000000003,0,0,1,1,0,0,1,1,0,0.446068817701821,0,0,0.430072036164867,-0.01101362281772,0.057649402655499,0.030347063912314,-0.225684531964953,0.00742402124037,3,0.041876789335021,2.75135985774983,0.095057495101239,153.860332483576,0.111046150072929,37.9673870588257,0,0,0,0,0
2.06400000000002,0,0,1,1,0,0,1,1,0,0.450042167053788,0,0,0.419527035367638,-0.004843924964969,0.055342107223321,0.001450665951853,-0.150395055900569,-0.049074877333698,3,0.05320634663091,1.73884948245439,0.100876241540145,160.764440403453,0.091154889431867,37.958201312663,0,0,0,0,0
2.07400000000001,0,0,1,1,0,0,1,1,0,0.454005682579492,0,0,0.415515607031488,0.000974804371592,0.043322169266774,0.201091307101864,-0.010617015303673,-0.079490151019194,3,0.110998469392123,1.59733593643026,0.098425434778734,169.462177472616,0.02953212283923,37.9953138900105,0,0,0,0,0
2.084,0,0,1,1,0,0,1,1,0,0.457960987990647,0,0,0.427091767327807,-0.001275724295696,0.018213293124889,0.316693523497988,0.071934622630193,-0.031567472685588,3,0.087724622579058,1.11617802991163,0.084059054230786,169.878513600373,0.058381453939363,38.0077564691547,0,0,0,0,0
2.09400000000005,0,1,0,0,1,0,1,1,1,0.461910537530895,0,0,0.421752452585144,-0.010639413010831,0.024136463074966,-0.041698903714943,0.269044335359736,-0.023718785768468,3,0.053486232750223,1.02293402109465,0.081825040719818,183.311036673069,0.044431965505657,37.9977275183612,80,0,0,0,0.16
2.10400000000004,0,1,0,0,1,1,1,1,1,0.465845322763607,0,0,0.415941198527626,-0.003210000861857,0.055956946610933,-0.686226561069594,0.753136886629182,-0.159759802683018,3,0.169128549085053,1.21798759475782,0.069570100420832,241.079930030416,0.181092297296078,38.0013207178674,60,0.17,0,0,0
2.11400000000003,0,1,0,0,1,1,1,1,1,0.46980309668261,0,0,0.456599373305035,-0.001707761445667,0.06253798063692,-0.051262220322153,0.552343034037297,-0.144851196197888,3,0.205978439871486,3.2531428009553,0.104864119302286,241.455974375458,0.266497052656969,38.0969562665099,50,0,0,0,0
2.12400000000002,0,1,0,0,1,1,0,1,1,0.473756955518325,0,0,0.48763448701595,-0.001560514263393,0.075290715714783,0.19727185694454,0.07328070856293,-0.060874646595368,3,0.107067996462429,3.14815776101203,0.117738308332747,188.951685932828,0.083282395247986,38.2606086168095,45,0,0,0,0
2.13600000000002,0,1,0,0,1,1,0,0,1,0.477694678175285,0,0,0.514297123929477,-0.012369663623853,0.042113341193585,-0.013987861802367,-0.211639371406806,0.022955482631768,3,0.05587565911857,5.68771771375095,0.160020663891988,175.648948539992,0.090862824918165,38.4180024026402,15,0,0,0,0
2.14600000000001,0,1,0,0,1,1,0,0,1,0.481600725306498,0,0,0.529644129551368,-0.017154509425528,0.045207949900432,-0.578197649185216,-0.333128065751679,0.105540280240592,3,0.143609379622841,4.48490107451158,0.140221201664065,191.767784464794,0.140119719715389,38.6877921843037,0,0,0,0,0
2.15600000000001,0,1,0,0,1,1,0,0,1,0.485468140474645,0,0,0.485020740298982,-0.015747033875894,0.020021395512988,-0.877341161596605,-0.247609681142613,0.085697539027826,3,0.130537638768694,1.48272114336568,0.073576102798814,199.185257301457,0.303451458439549,38.5574472082902,0,0,0,0,0
2.166,0,1,0,0,1,1,0,0,1,0.489579911453719,0,0,0.458772291688901,0.003411867347578,0.010474338099057,-0.446240843971204,-0.209169161661483,0.122478389687267,3,0.139053489791441,0.977787678823862,0.079620078166189,168.148765290064,0.100200509074701,38.3344331201029,0,0,0,0,0
2.17600000000004,0,1,0,0,1,1,0,0,1,0.493599914105327,0,0,0.461703728704162,0.009158708288084,-0.001810538733098,0.22121612013061,-0.028655395470135,0.096350203105299,3,0.149347299823949,0.700264253580377,0.068695002853655,167.703238914494,0.030760139013688,38.3085231262247,0,0,0,0,0
2.18600000000004,0,1,0,0,1,1,0,0,1,0.497460031757652,0,0,0.437003032192823,0.006092977439744,-0.014576243776606,0.687371656346268,0.22632216078298,0.040855181822493,3,0.125277439526035,0.578672553031774,0.048001845238486,169.576467763788,0.165014158404093,38.1598809522696,0,0,0,0,0
2.19600000000003,0,1,0,0,1,1,0,0,1,0.501418969681808,0,0,0.441815147688458,-0.008517009670399,-0.016323196070451,0.376716121233631,0.413560340568325,-0.041152763585914,3,0.088672374640733,1.32707456214831,0.069918671757804,164.034032258218,0.067603438902895,38.0625408690072,0,0,0,0,0
2.20600000000002,0,1,0,0,1,1,0,0,1,0.505394959129506,0,0,0.463794906709879,-0.019859148186578,-0.028251032714889,0.032273306500103,0.388705734294979,-0.062756556134097,3,0.125025698825066,3.18131519952343,0.104351363185512,168.348972436006,0.150184249345863,38.1687456349321,0,0,0,0,0
2.21600000000001,0,1,0,0,1,1,0,0,1,0.509332981746257,0,0,0.500064153785951,-0.019849755978487,-0.018145575419346,-0.303569751488779,0.1382392730453,-0.072748967463075,3,0.111961644613611,3.31916870872632,0.111859658705432,192.811714147887,0.252248102879972,38.3250181624454,0,0,0,0,0
2.22800000000001,0,1,0,0,1,1,0,0,1,0.513244452597831,0,0,0.525040103866651,-0.016687188272326,-0.004766888099528,-0.355270077510766,-0.081052355953908,-0.094016507690387,3,0.118727543212499,3.23540365855167,0.115371708533707,210.487635095721,0.199762258985217,38.5325993589511,0,0,0,0,0
